     2.11           OBSERVATION DATA    M (MIXED)           RINEX VERSION / TYPE
Mdb2Rinex 5.6.29X   Unknown             20230309 235937 UTC PGM / RUN BY / DATE
gfzrnx-1.15-8044    HEADER EDIT         20230302 030845 UTC COMMENT
SNR is mapped to RINEX snr flag value [1-9]                 COMMENT
LX:     < 12dBHz -> 1; 12-17dBHz -> 2; 18-23dBHz -> 3       COMMENT
       24-29dBHz -> 4; 30-35dBHz -> 5; 36-41dBHz -> 6       COMMENT
       42-47dBHz -> 7; 48-53dBHz -> 8; >= 54dBHz -> 9       COMMENT
Map of observations from RINEX 3 to RINEX 2.11              COMMENT
 G: C1C->C1 C2W->P2 C5Q->C5 L1C->L1 L2W->L2 L5Q->L5         COMMENT
MAD1                                                        MARKER NAME
IGN & CAM           Unknown                                 OBSERVER / AGENCY
1833575             LEICA GR50          4.61/7.811          REC # / TYPE / VERS
Unknown             LEIAR20         LEIM                    ANT # / TYPE
  4854006.8637  -312714.6848  4112992.0029                  APPROX POSITION XYZ
        0.0350        0.0000        0.0000                  ANTENNA: DELTA H/E/N
     6    C1    P2    C5    L1    L2    L5                  # / TYPES OF OBSERV
     1.000                                                  INTERVAL
  2023    03    01    17    00   00.0000000     GPS         TIME OF FIRST OBS
  2023    03    01    17    59   59.0000000     GPS         TIME OF LAST OBS
    10                                                      # OF SATELLITES
   G07  3600  3600        3600  3600                        PRN / # OF OBS
   G08  3600  3600  3600  3600  3600  3600                  PRN / # OF OBS
   G10  3600  3600  3600  3600  3600  3600                  PRN / # OF OBS
   G16  3600  3600        3600  3600                        PRN / # OF OBS
   G18  3600  3600  3600  3600  3600  3600                  PRN / # OF OBS
   G21  3600  3600        3600  3600                        PRN / # OF OBS
   G23  3600  3600  3600  3600  3600  3600                  PRN / # OF OBS
   G26  3600  3600  3600  3600  3600  3600                  PRN / # OF OBS
   G27  3600  3600  3600  3600  3600  3600                  PRN / # OF OBS
   G31   400   400         394   394                        PRN / # OF OBS
                                                            END OF HEADER
 23  3  1 17  0  0.0000000  0 10G07G08G10G16G18G21G23G26G27G31
  24942380.720    24942383.620                   131073100.3700  102134897.3970

  22978388.620    22978393.180    22978393.000   120752326.8250   94092779.4430
  90172304.0980
  22755435.320    22755439.800    22755439.000   119581168.1800   93180425.1690
  89297617.0900
  20343515.360    20343514.400                   106905987.8520   83303413.9720

  22246475.700    22246476.480    22246481.020   116906233.7480   91095890.5470
  87300317.0170
  24598789.920    24598820.460                   129267664.2360  100728157.1950

  22125970.520    22125971.600    22125976.480   116273081.3880   90602482.1820
  86827393.4650
  21050469.800    21050473.460    21050472.640   110621053.4900   86198284.0740
  82606733.6300
  20704663.740    20704665.660    20704666.340   108803995.5720   84782451.9440
  81249872.3960
  25884662.580    25884696.020                   136024338.3230  105992878.5210

 23  3  1 17  0  1.0000000  0 10G07G08G10G16G18G21G23G26G27G31
  24941987.360    24941990.320                   131071033.2910  102133286.6660

  22977910.300    22977914.840    22977914.660   120749813.2050   94090820.7800
  90170427.0500
  22754930.820    22754935.320    22754934.500   119578517.0720   93178359.3750
  89295637.3650
  20343459.100    20343458.140                   106905692.2140   83303183.6020

  22246993.740    22246994.520    22246999.040   116908956.0750   91098011.8400
  87302349.9150
  24598135.620    24598166.160                   129264226.0340  100725478.1300

  22125786.940    22125788.020    22125792.880   116272116.6800   90601730.4610
  86826673.0680
  21050882.600    21050886.260    21050885.460   110623222.8060   86199974.4490
  82608353.5690
  20704431.080    20704433.000    20704433.680   108802772.9170   84781499.2280
  81248959.3730
  25885295.500    25885328.940                   136027664.4430  105995470.3290

 23  3  1 17  0  2.0000000  0 10G07G08G10G16G18G21G23G26G27G31
  24941594.140    24941597.100                   131068967.0010  102131676.5680

  22977432.060    22977436.600    22977436.420   120747300.0390   94088862.4770
  90168550.3410
  22754426.460    22754430.940    22754430.120   119575866.5980   93176294.0760
  89293658.1190
  20343403.000    20343402.040                   106905397.4490   83302953.9170

  22247511.900    22247512.680    22247517.200   116911678.9870   91100133.5880
  87304383.2670
  24597481.380    24597511.920                   129260788.3630  100722799.4710

  22125603.520    22125604.620    22125609.480   116271152.9030   90600979.4710
  86825953.3700
  21051295.560    21051299.220    21051298.420   110625392.8940   86201665.4250
  82609974.0910
  20704198.540    20704200.460    20704201.140   108801550.8690   84780546.9850
  81248046.8090
  25885928.400    25885961.860                   136030990.6810  105998062.2390

 23  3  1 17  0  3.0000000  0 10G07G08G10G16G18G21G23G26G27G31
  24941201.020    24941203.980                   131066901.0940  102130066.7720

  22976953.820    22976958.380    22976958.200   120744786.9690   94086904.2470
  90166673.7010
  22753922.140    22753926.640    22753925.800   119573216.4290   93174229.0130
  89291679.1040
  20343347.020    20343346.060                   106905103.2220   83302724.6520

  22248030.100    22248030.880    22248035.400   116914402.1680   91102255.5470
  87306416.8030
  24596827.200    24596857.780                   129257350.8630  100720120.9610

  22125420.240    22125421.340    22125426.180   116270189.7240   90600228.9410
  86825234.1070
  21051708.600    21051712.240    21051711.440   110627563.4050   86203356.7320
  82611594.9290
  20703966.040    20703967.960    20703968.640   108800329.0780   84779594.9410
  81247134.4360
  25886561.320    25886594.760                   136034316.6400  106000653.9330

 23  3  1 17  0  4.0000000  0 10G07G08G10G16G18G21G23G26G27G31
  24940808.020    24940810.980                   131064835.7180  102128457.3800

  22976475.620    22976480.180    22976480.000   120742274.0610   94084946.1380
  90164797.1810
  22753417.900    22753422.400    22753421.560   119570566.6480   93172164.2530
  89289700.3700
  20343291.140    20343290.180                   106904809.5940   83302495.8510

  22248548.380    22248549.140    22248553.660   116917125.6630   91104377.7490
  87308450.5860
  24596173.040    24596203.620                   129253913.6260  100717442.6740

  22125237.060    22125238.160    22125243.020   116269227.1900   90599478.9170
  86824515.3340
  21052121.720    21052125.380    21052124.580   110629734.4150   86205048.4290
  82613216.1320
  20703733.600    20703735.520    20703736.200   108799107.6370   84778643.1720
  81246222.3190
  25887194.160    25887227.640                   136037642.4810  106003245.5340

 23  3  1 17  0  5.0000000  0 10G07G08G10G16G18G21G23G26G27G31
  24940415.060    24940418.000                   131062770.7150  102126848.2870

  22975997.440    22976002.000    22976001.820   120739761.2160   94082988.0770
  90162920.7140
  22752913.720    22752918.220    22752917.360   119567917.1400   93170099.7040
  89287721.8390
  20343235.360    20343234.400                   106904516.4500   83302267.4270

  22249066.680    22249067.440    22249071.980   116919849.3770   91106500.1230
  87310484.5300
  24595518.940    24595549.500                   129250476.4840  100714764.4380

  22125054.000    22125055.100    22125059.940   116268265.1980   90598729.3150
  86823796.9650
  21052534.940    21052538.580    21052537.780   110631905.8160   86206740.4280
  82614837.6310
  20703501.220    20703503.120    20703503.800   108797886.4010   84777691.5600
  81245310.3630
  25887826.980    25887860.440                   136040968.0300  106005836.9020

 23  3  1 17  0  6.0000000  0 10G07G08G10G16G18G21G23G26G27G31
  24940022.180    24940025.160                   131060706.1430  102125239.5440

  22975519.300    22975523.840    22975523.660   120737248.4970   94081030.1210
  90161044.3230
  22752409.580    22752414.080    22752413.240   119565267.9480   93168035.4000
  89285743.5480
  20343179.700    20343178.720                   106904223.8760   83302039.4470

  22249585.040    22249585.800    22249590.320   116922573.3590   91108622.7050
  87312518.6630
  24594864.860    24594895.420                   129247039.5430  100712086.3380

  22124871.060    22124872.140    22124877.000   116267303.8030   90597980.1760
  86823079.0400
  21052948.220    21052951.860    21052951.060   110634077.6410   86208432.7590
  82616459.4490
  20703268.880    20703270.780    20703271.460   108796665.4590   84776740.1770
  81244398.6190
  25888459.760    25888493.180                   136044293.4140  106008428.1380

 23  3  1 17  0  7.0000000  0 10G07G08G10G16G18G21G23G26G27G31
  24939629.400    24939632.420                   131058642.1310  102123631.2370

  22975041.180    22975045.720    22975045.540   120734735.9720   94079072.3140
  90159168.1010
  22751905.540    22751910.040    22751909.180   119562619.1630   93165971.4140
  89283765.5700
  20343124.140    20343123.180                   106903931.9480   83301811.9710

  22250103.460    22250104.220    22250108.760   116925297.7160   91110745.5810
  87314553.0850
  24594210.860    24594241.380                   129243602.8530  100709408.4580

  22124688.220    22124689.340    22124694.180   116266343.1170   90597231.5930
  86822361.6470
  21053361.600    21053365.260    21053364.460   110636250.0260   86210125.5280
  82618081.6820
  20703036.620    20703038.520    20703039.200   108795444.8990   84775789.0920
  81243487.1630
  25889092.540    25889125.920                   136047618.6720  106011019.2750

 23  3  1 17  0  8.0000000  0 10G07G08G10G16G18G21G23G26G27G31
  24939236.760    24939239.780                   131056578.7670  102122023.4210

  22974563.120    22974567.680    22974567.480   120732223.8260   94077114.8030
  90157292.1500
  22751401.600    22751406.100    22751405.240   119559970.9510   93163907.8750
  89281788.0140
  20343068.740    20343067.780                   106903640.8320   83301585.1270

  22250621.980    22250622.740    22250627.280   116928022.5920   91112868.8580
  87316587.8950
  24593556.940    24593587.460                   129240166.6140  100706730.9270

  22124505.580    22124506.680    22124511.520   116265383.2770   90596483.6660
  86821644.8890
  21053775.140    21053778.780    21053777.980   110638423.1140   86211818.8390
  82619704.4410
  20702804.460    20702806.360    20702807.040   108794224.8740   84774838.4260
  81242576.1060
  25889725.300    25889758.700                   136050943.9820  106013610.4570

 23  3  1 17  0  9.0000000  0 10G07G08G10G16G18G21G23G26G27G31
  24938844.240    24938847.240                   131054515.9190  102120416.0090

  22974085.100    22974089.660    22974089.460   120729711.8250   94075157.4000
  90155416.3220
  22750897.740    22750902.240    22750901.360   119557323.1100   93161844.6230
  89279810.7340
  20343013.460    20343012.500                   106903350.3020   83301358.7420

  22251140.560    22251141.320    22251145.860   116930747.7820   91114992.3790
  87318622.9400
  24592903.040    24592933.560                   129236730.5880  100704053.5600

  22124323.040    22124324.140    22124328.980   116264424.0800   90595736.2420
  86820928.6080
  21054188.760    21054192.400    21054191.600   110640596.6700   86213512.5220
  82621327.5530
  20702572.340    20702574.240    20702574.920   108793005.1700   84773888.0070
  81241665.2900
  25890358.020    25890391.380                   136054269.1110  106016201.4990

 23  3  1 17  0 10.0000000  0 10G07G08G10G16G18G21G23G26G27G31
  24938451.780    24938454.800                   131052453.5250  102118808.9400

  22973607.120    22973611.680    22973611.460   120727199.9680   94073200.1080
  90153540.5790
  22750393.920    22750398.420    22750397.540   119554675.5970   93159781.6320
  89277833.7010
  20342958.280    20342957.320                   106903060.3370   83301132.7960

  22251659.200    22251659.960    22251664.500   116933473.2590   91117116.1270
  87320658.1960
  24592249.200    24592279.700                   129233294.7800  100701376.3560

  22124140.620    22124141.740    22124146.560   116263465.5090   90594989.3060
  86820212.7920
  21054602.460    21054606.100    21054605.300   110642770.6810   86215206.5520
  82622951.0040
  20702340.300    20702342.200    20702342.880   108791785.7620   84772937.8210
  81240754.6990
  25890990.700    25891024.060                   136057594.0300  106018792.3920

 23  3  1 17  0 11.0000000  0 10G07G08G10G16G18G21G23G26G27G31
  24938059.340    24938062.340                   131050391.2410  102117201.9660

  22973129.080    22973133.640    22973133.420   120724687.9190   94071242.6720
  90151664.6980
  22749890.120    22749894.640    22749893.740   119552028.1180   93157718.6660
  89275856.6890
  20342903.140    20342902.200                   106902770.6220   83300907.0430

  22252177.840    22252178.580    22252183.140   116936198.6940   91119239.8420
  87322693.4220
  24591595.300    24591625.800                   129229858.8300  100698699.0620

  22123958.260    22123959.380    22123964.200   116262507.2270   90594242.5940
  86819497.1910
  21055016.180    21055019.840    21055019.020   110644944.8440   86216900.7050
  82624574.5660
  20702108.240    20702110.160    20702110.820   108790566.3210   84771987.6070
  81239844.0750
  25891623.300    25891656.640                   136060918.4730  106021382.9100

 23  3  1 17  0 12.0000000  0 10G07G08G10G16G18G21G23G26G27G31
  24937666.960    24937669.980                   131048329.3680  102115595.3220

  22972651.080    22972655.620    22972655.420   120722175.9780   94069285.3190
  90149788.9020
  22749386.380    22749390.880    22749389.980   119549380.9150   93155655.9140
  89273879.8860
  20342848.120    20342847.160                   106902481.4140   83300681.6880

  22252696.520    22252697.260    22252701.800   116938924.3600   91121363.7380
  87324728.8240
  24590941.440    24590971.960                   129226423.0460  100696021.9200

  22123776.020    22123777.140    22123781.940   116261549.5070   90593496.3210
  86818782.0170
  21055429.980    21055433.640    21055432.840   110647119.4040   86218595.1670
  82626198.4220
  20701876.240    20701878.160    20701878.820   108789347.1390   84771037.6000
  81238933.6500
  25892255.840    25892289.180                   136064242.6450  106023973.2130

 23  3  1 17  0 13.0000000  0 10G07G08G10G16G18G21G23G26G27G31
  24937274.740    24937277.740                   131046268.1330  102113989.1580

  22972173.140    22972177.660    22972177.460   120719664.3390   94067328.2000
  90147913.3390
  22748882.720    22748887.240    22748886.340   119546734.2240   93153593.5620
  89271903.4650
  20342793.220    20342792.260                   106902192.9390   83300456.9020

  22253215.280    22253216.020    22253220.580   116941650.4960   91123487.9980
  87326764.5710
  24590287.640    24590318.160                   129222987.6580  100693345.0410

  22123593.920    22123595.040    22123599.840   116260592.5810   90592750.6670
  86818067.4270
  21055843.920    21055847.560    21055846.760   110649294.5900   86220290.1170
  82627822.7520
  20701644.320    20701646.240    20701646.900   108788128.4130   84770087.9430
  81238023.5630
  25892888.380    25892921.700                   136067566.8180  106026563.5080

 23  3  1 17  0 14.0000000  0 10G07G08G10G16G18G21G23G26G27G31
  24936882.580    24936885.560                   131044207.2340  102112383.2710

  22971695.200    22971699.740    22971699.520   120717152.7440   94065371.1180
  90146037.8000
  22748379.120    22748383.620    22748382.720   119544087.7560   93151531.3810
  89269927.2050
  20342738.420    20342737.460                   106901904.9360   83300232.4870

  22253734.100    22253734.820    22253739.380   116944376.8110   91125612.3990
  87328800.4550
  24589633.920    24589664.380                   129219552.3390  100690668.2230

  22123411.920    22123413.040    22123417.840   116259636.1750   90592005.4150
  86817353.2260
  21056257.900    21056261.560    21056260.740   110651470.1450   86221985.3510
  82629447.3500
  20701412.440    20701414.360    20701415.020   108786909.8880   84769138.4430
  81237113.6280
  25893520.880    25893554.160                   136070890.6750  106029153.5620

 23  3  1 17  0 15.0000000  0 10G07G08G10G16G18G21G23G26G27G31
  24936490.520    24936493.460                   131042146.8760  102110777.7900

  22971217.300    22971221.820    22971221.620   120714641.3390   94063414.1850
  90144162.4040
  22747875.580    22747880.100    22747879.180   119541441.6960   93149469.5210
  89267951.2590
  20342683.740    20342682.780                   106901617.5700   83300008.5630

  22254252.960    22254253.680    22254258.240   116947103.4860   91127737.0770
  87330836.6150
  24588980.200    24589010.660                   129216117.2990  100687991.6290

  22123230.060    22123231.160    22123235.960   116258680.4580   90591260.7020
  86816639.5490
  21056672.000    21056675.660    21056674.840   110653646.2240   86223680.9990
  82631072.3450
  20701180.640    20701182.540    20701183.220   108785691.7470   84768189.2400
  81236203.9780
  25894153.340    25894186.660                   136074214.4950  106031743.5780

 23  3  1 17  0 16.0000000  0 10G07G08G10G16G18G21G23G26G27G31
  24936098.560    24936101.480                   131040087.0580  102109172.7460

  22970739.420    22970743.960    22970743.740   120712130.1180   94061457.3930
  90142287.1510
  22747372.140    22747376.640    22747375.720   119538796.0300   93147407.9650
  89265975.6130
  20342629.160    20342628.220                   106901330.8190   83299785.1230

  22254771.900    22254772.620    22254777.180   116949830.5110   91129862.0330
  87332873.0190
  24588326.500    24588356.960                   129212682.5000  100685315.2280

  22123048.300    22123049.420    22123054.220   116257725.4080   90590516.5090
  86815926.3620
  21057086.200    21057089.860    21057089.040   110655822.8200   86225377.0480
  82632697.7220
  20700948.900    20700950.800    20700951.480   108784473.9450   84767240.3080
  81235294.5840
  25894785.760    25894819.060                   136077538.0690  106034333.4080

 23  3  1 17  0 17.0000000  0 10G07G08G10G16G18G21G23G26G27G31
  24935706.640    24935709.540                   131038027.4990  102107567.8770

  22970261.560    22970266.080    22970265.860   120709618.9130   94059500.6160
  90140411.8950
  22746868.720    22746873.220    22746872.300   119536150.5560   93145346.5620
  89264000.0880
  20342574.680    20342573.720                   106901044.4800   83299561.9990

  22255290.860    22255291.580    22255296.140   116952557.6590   91131987.0860
  87334909.5260
  24587672.860    24587703.320                   129209247.7220  100682638.8430

  22122866.660    22122867.780    22122872.560   116256770.8230   90589772.6810
  86815213.5280
  21057500.460    21057504.100    21057503.280   110657999.7210   86227073.3320
  82634323.3280
  20700717.200    20700719.100    20700719.760   108783256.2850   84766291.4820
  81234385.2940
  25895418.180    25895451.440                   136080861.3800  106036923.0400

 23  3  1 17  0 18.0000000  0 10G07G08G10G16G18G21G23G26G27G31
  24935314.840    24935317.700                   131035968.4450  102105963.4150

  22969783.720    22969788.260    22969788.040   120707107.9200   94057544.0000
  90138536.7990
  22746365.380    22746369.880    22746368.960   119533505.4630   93143285.4530
  89262024.8620
  20342520.320    20342519.360                   106900758.7660   83299339.3670

  22255809.880    22255810.600    22255815.160   116955285.1400   91134112.3940
  87336946.2870
  24587019.260    24587049.680                   129205813.2620  100679962.7100

  22122685.120    22122686.260    22122691.040   116255816.9100   90589029.3770
  86814501.1930
  21057914.800    21057918.460    21057917.640   110660177.1350   86228770.0180
  82635949.3220
  20700485.540    20700487.440    20700488.120   108782038.9880   84765342.9400
  81233476.2740
  25896050.520    25896083.780                   136084184.4910  106039512.5180

 23  3  1 17  0 19.0000000  0 10G07G08G10G16G18G21G23G26G27G31
  24934923.100    24934926.020                   131033909.8820  102104359.3460

  22969305.920    22969310.460    22969310.220   120704597.0120   94055587.4520
  90136661.7850
  22745862.100    22745866.600    22745865.660   119530860.7320   93141224.6280
  89260049.9090
  20342466.060    20342465.100                   106900473.6120   83299117.1710

  22256328.960    22256329.680    22256334.240   116958012.9190   91136237.9360
  87338983.2590
  24586365.700    24586396.100                   129202378.9700  100677286.6980

  22122503.720    22122504.860    22122509.620   116254863.6230   90588286.5580
  86813789.3190
  21058329.240    21058332.880    21058332.060   110662355.0030   86230467.0580
  82637575.6480
  20700253.960    20700255.860    20700256.520   108780821.9790   84764394.6240
  81232567.4690
  25896682.860    25896716.080                   136087507.4490  106042101.8750

 23  3  1 17  0 20.0000000  0 10G07G08G10G16G18G21G23G26G27G31
  24934531.440    24934534.360                   131031851.7290  102102755.5970

  22968828.140    22968832.660    22968832.440   120702086.2710   94053631.0310
  90134786.8940
  22745358.880    22745363.380    22745362.440   119528216.3250   93139164.0530
  89258075.1890
  20342411.900    20342410.940                   106900189.0230   83298895.4140

  22256848.100    22256848.780    22256853.360   116960740.9710   91138363.6880
  87341020.4430
  24585712.180    24585742.580                   129198944.8670  100674610.8310

  22122322.420    22122323.560    22122328.320   116253910.9320   90587544.1990
  86813077.9020
  21058743.760    21058747.400    21058746.580   110664533.3230   86232164.4480
  82639202.3140
  20700022.420    20700024.320    20700024.980   108779605.2630   84763446.5330
  81231658.8830
  25897315.140    25897348.360                   136090830.1850  106044691.0690

 23  3  1 17  0 21.0000000  0 10G07G08G10G16G18G21G23G26G27G31
  24934139.900    24934142.800                   131029794.0700  102101152.2220

  22968350.380    22968354.920    22968354.680   120699575.6680   94051674.7190
  90132912.0900
  22744855.720    22744860.220    22744859.280   119525572.2460   93137103.7380
  89256100.7150
  20342357.840    20342356.900                   106899904.9830   83298674.0820

  22257367.280    22257367.980    22257372.540   116963469.3060   91140489.6640
  87343057.8280
  24585058.660    24585089.080                   129195510.9930  100671935.1260

  22122141.240    22122142.400    22122147.160   116252958.8620   90586802.3320
  86812366.9440
  21059158.360    21059162.020    21059161.200   110666712.0950   86233862.1910
  82640829.3190
  20699790.940    20699792.840    20699793.500   108778388.8350   84762498.6700
  81230750.5100
  25897947.380    25897980.600                   136094152.7620  106047280.1360

 23  3  1 17  0 22.0000000  0 10G07G08G10G16G18G21G23G26G27G31
  24933748.420    24933751.340                   131027736.8540  102099549.1830

  22967872.660    22967877.180    22967876.960   120697065.1720   94049718.4920
  90131037.3710
  22744352.640    22744357.140    22744356.200   119522928.5030   93135043.6800
  89254126.5090
  20342303.900    20342302.960                   106899621.5260   83298453.2090

  22257886.520    22257887.200    22257891.780   116966197.9250   91142615.8550
  87345095.4320
  24584405.220    24584435.620                   129192077.2460  100669259.5380

  22121960.180    22121961.340    22121966.080   116252007.4040   90586060.9360
  86811656.4430
  21059573.060    21059576.720    21059575.880   110668891.3290   86235560.2950
  82642456.6670
  20699559.520    20699561.420    20699562.080   108777172.7200   84761551.0500
  81229842.3760
  25898579.520    25898612.780                   136097475.0720  106049868.9750

 23  3  1 17  0 23.0000000  0 10G07G08G10G16G18G21G23G26G27G31
  24933357.040    24933359.960                   131025680.0990  102097946.5230

  22967394.940    22967399.480    22967399.240   120694554.8390   94047762.3930
  90129162.7840
  22743849.620    22743854.120    22743853.180   119520285.1280   93132983.9120
  89252152.5640
  20342250.080    20342249.140                   106899338.6640   83298232.7980

  22258405.800    22258406.500    22258411.080   116968926.8500   91144742.2890
  87347133.2670
  24583751.800    24583782.180                   129188643.7890  100666584.1750

  22121779.260    22121780.400    22121785.140   116251056.5970   90585320.0500
  86810946.4240
  21059987.860    21059991.500    21059990.680   110671071.0360   86237258.7710
  82644084.3750
  20699328.160    20699330.060    20699330.720   108775956.9100   84760603.6650
  81228934.4680
  25899211.680    25899244.960                   136100797.2870  106052457.7430

 23  3  1 17  0 24.0000000  0 10G07G08G10G16G18G21G23G26G27G31
  24932965.720    24932968.640                   131023623.7360  102096344.1610

  22966917.240    22966921.780    22966921.560   120692044.5530   94045806.3320
  90127288.2290
  22743346.640    22743351.160    22743350.200   119517642.0240   93130924.3540
  89250178.8170
  20342196.360    20342195.420                   106899056.3080   83298012.7810

  22258925.140    22258925.820    22258930.420   116971655.9840   91146868.8880
  87349171.2550
  24583098.400    24583128.760                   129185210.4140  100663908.8630

  22121598.420    22121599.580    22121604.300   116250106.3180   90584579.5770
  86810236.8020
  21060402.720    21060406.360    21060405.520   110673251.1300   86238957.5430
  82645712.3590
  20699096.840    20699098.740    20699099.400   108774741.3230   84759656.4540
  81228026.7240
  25899843.800    25899877.100                   136104119.2210  106055046.2950

 23  3  1 17  0 25.0000000  0 10G07G08G10G16G18G21G23G26G27G31
  24932574.480    24932577.400                   131021567.7740  102094742.1190

  22966439.560    22966444.100    22966443.880   120689534.4040   94043850.3740
  90125413.7630
  22742843.740    22742848.240    22742847.280   119514999.2170   93128865.0300
  89248205.2970
  20342142.720    20342141.780                   106898774.4780   83297793.1750

  22259444.540    22259445.220    22259449.800   116974385.3710   91148995.6800
  87351209.4350
  24582445.040    24582475.420                   129181777.2130  100661233.7270

  22121417.700    22121418.860    22121423.580   116249156.6390   90583839.5670
  86809527.6280
  21060817.660    21060821.300    21060820.460   110675431.6490   86240656.6480
  82647340.6700
  20698865.580    20698867.480    20698868.140   108773526.0090   84758709.4590
  81227119.1850
  25900475.880    25900509.180                   136107440.8810  106057634.6290

 23  3  1 17  0 26.0000000  0 10G07G08G10G16G18G21G23G26G27G31
  24932183.320    24932186.180                   131019512.1590  102093140.3440

  22965961.900    22965966.440    22965966.220   120687024.2730   94041894.4340
  90123539.3210
  22742340.880    22742345.380    22742344.400   119512356.6280   93126805.8720
  89246231.9380
  20342089.180    20342088.240                   106898493.0970   83297573.9150

  22259963.940    22259964.640    22259969.220   116977114.9250   91151122.6060
  87353247.7330
  24581791.680    24581822.040                   129178344.1140  100658558.6500

  22121237.060    22121238.240    22121242.960   116248207.4450   90583099.9360
  86808818.8160
  21061232.660    21061236.300    21061235.460   110677612.4990   86242356.0100
  82648969.2250
  20698634.340    20698636.240    20698636.900   108772310.8710   84757762.6000
  81226211.7770
  25901107.900    25901141.200                   136110762.2920  106060222.7680

 23  3  1 17  0 27.0000000  0 10G07G08G10G16G18G21G23G26G27G31
  24931792.260    24931795.140                   131017457.1120  102091539.0220

  22965484.280    22965488.800    22965488.600   120684514.3630   94039938.6600
  90121665.0360
  22741838.080    22741842.580    22741841.620   119509714.4700   93124747.0510
  89244258.8940
  20342035.760    20342034.820                   106898212.3620   83297355.1630

  22260483.440    22260484.120    22260488.700   116979844.8480   91153249.8180
  87355286.3090
  24581138.380    24581168.740                   129174911.2750  100655883.7870

  22121056.580    22121057.760    22121062.460   116247258.9670   90582360.8660
  86808110.5350
  21061647.780    21061651.400    21061650.580   110679793.9040   86244055.8060
  82650598.1940
  20698403.180    20698405.080    20698405.740   108771096.0940   84756816.0220
  81225304.6480
  25901739.860    25901773.200                   136114083.5350  106062810.7840

 23  3  1 17  0 28.0000000  0 10G07G08G10G16G18G21G23G26G27G31
  24931401.320    24931404.180                   131015402.6160  102089938.1250

  22965006.700    22965011.220    22965011.020   120682004.6920   94037983.0740
  90119790.9350
  22741335.380    22741339.880    22741338.900   119507072.7500   93122688.5710
  89242286.1870
  20341982.460    20341981.540                   106897932.3030   83297136.9370

  22261003.000    22261003.680    22261008.260   116982575.1730   91155377.3420
  87357325.1860
  24580485.140    24580515.500                   129171478.7520  100653209.1340

  22120876.200    22120877.400    22120882.100   116246311.2050   90581622.3520
  86807402.7950
  21062063.000    21062066.620    21062065.780   110681975.8710   86245756.0380
  82652227.5830
  20698172.100    20698174.000    20698174.660   108769881.7550   84755869.7860
  81224397.8320
  25902371.820    25902405.160                   136117404.7360  106065398.7700

 23  3  1 17  0 29.0000000  0 10G07G08G10G16G18G21G23G26G27G31
  24931010.420    24931013.260                   131013348.4940  102088337.5200

  22964529.140    22964533.660    22964533.460   120679495.0840   94036027.5410
  90117916.8830
  22740832.740    22740837.240    22740836.240   119504431.2910   93120630.2910
  89240313.6730
  20341929.260    20341928.340                   106897652.7300   83296919.0860

  22261522.600    22261523.280    22261527.860   116985305.6970   91157505.0230
  87359364.2160
  24579831.960    24579862.320                   129168046.3570  100650534.6120

  22120695.940    22120697.160    22120701.840   116245363.9930   90580884.2670
  86806695.4650
  21062478.280    21062481.900    21062481.060   110684158.2130   86247456.5630
  82653857.2550
  20697941.060    20697942.960    20697943.620   108768667.6130   84754923.7040
  81223491.1760
  25903003.740    25903037.100                   136120725.6270  106067986.5140

 23  3  1 17  0 30.0000000  0 10G07G08G10G16G18G21G23G26G27G31
  24930619.640    24930622.460                   131011294.8390  102086737.2700

  22964051.600    22964056.120    22964055.920   120676985.6020   94034072.1070
  90116042.9310
  22740330.140    22740334.640    22740333.660   119501790.1810   93118572.2870
  89238341.4240
  20341876.160    20341875.260                   106897373.7270   83296701.6830

  22262042.260    22262042.940    22262047.500   116988036.5000   91159632.9180
  87361403.4540
  24579178.800    24579209.120                   129164614.1880  100647860.2530

  22120515.820    22120517.020    22120521.720   116244417.4030   90580146.6670
  86805988.5940
  21062893.660    21062897.280    21062896.440   110686341.0240   86249157.4520
  82655487.2780
  20697710.060    20697711.980    20697712.640   108767453.7890   84753977.8670
  81222584.7450
  25903635.660    25903668.980                   136124046.3760  106070574.1490

 23  3  1 17  0 31.0000000  0 10G07G08G10G16G18G21G23G26G27G31
  24930228.920    24930231.700                   131009241.5570  102085137.3060

  22963574.060    22963578.580    22963578.380   120674476.1810   94032116.7200
  90114169.0200
  22739827.600    22739832.100    22739831.100   119499149.3000   93116514.4620
  89236369.3490
  20341823.180    20341822.260                   106897095.2020   83296484.6500

  22262561.940    22262562.640    22262567.200   116990767.5100   91161760.9760
  87363442.8450
  24578525.640    24578555.960                   129161182.0720  100645185.9150

  22120335.780    22120337.000    22120341.680   116243471.3310   90579409.4700
  86805282.1220
  21063309.100    21063312.720    21063311.880   110688524.1910   86250858.6210
  82657117.5710
  20697479.120    20697481.040    20697481.700   108766240.1680   84753032.1880
  81221678.4730
  25904267.500    25904300.820                   136127366.8410  106073161.5510

 23  3  1 17  0 32.0000000  0 10G07G08G10G16G18G21G23G26G27G31
  24929838.260    24929841.020                   131007188.6830  102083537.6510

  22963096.560    22963101.080    22963100.880   120671966.8830   94030161.4290
  90112295.1960
  22739325.120    22739329.620    22739328.620   119496508.7490   93114456.8920
  89234397.5070
  20341770.280    20341769.360                   106896817.2210   83296268.0420

  22263081.680    22263082.380    22263086.940   116993498.7730   91163889.2340
  87365482.4280
  24577872.520    24577902.820                   129157750.1350  100642511.7230

  22120155.860    22120157.100    22120161.760   116242525.8690   90578672.7480
  86804576.0870
  21063724.620    21063728.260    21063727.420   110690707.8060   86252560.1390
  82658748.1840
  20697248.240    20697250.140    20697250.800   108765026.8270   84752086.7300
  81220772.4030
  25904899.300    25904932.620                   136130687.0400  106075748.7500

 23  3  1 17  0 33.0000000  0 10G07G08G10G16G18G21G23G26G27G31
  24929447.720    24929450.460                   131005136.3400  102081938.4270

  22962619.080    22962623.580    22962623.400   120669457.7670   94028206.2780
  90110421.5190
  22738822.720    22738827.200    22738826.200   119493868.6010   93112399.6400
  89232425.9700
  20341717.500    20341716.580                   106896539.8580   83296051.9170

  22263601.500    22263602.180    22263606.740   116996230.3850   91166017.7630
  87367522.2700
  24577219.460    24577249.740                   129154318.4780  100639837.7650

  22119976.080    22119977.300    22119981.960   116241581.0720   90577936.5440
  86803870.5620
  21064140.260    21064143.880    21064143.040   110692891.9320   86254262.0540
  82660379.1860
  20697017.420    20697019.320    20697019.980   108763813.8260   84751141.5360
  81219866.6000
  25905531.060    25905564.380                   136134007.1690  106078335.8860

 23  3  1 17  0 34.0000000  0 10G07G08G10G16G18G21G23G26G27G31
  24929057.340    24929060.060                   131003084.7630  102080339.7960

  22962141.700    22962146.200    22962146.020   120666949.1130   94026251.4820
  90108548.1630
  22738320.440    22738324.920    22738323.920   119491229.0760   93110342.8710
  89230454.9040
  20341664.880    20341663.960                   106896263.3560   83295836.4630

  22264121.420    22264122.100    22264126.660   116998962.5700   91168146.7380
  87369562.5340
  24576566.500    24576596.760                   129150887.3390  100637164.1810

  22119796.460    22119797.700    22119802.340   116240637.1940   90577201.0550
  86803165.7100
  21064556.020    21064559.640    21064558.800   110695076.8080   86255964.5520
  82662010.7430
  20696786.700    20696788.600    20696789.260   108762601.4240   84750196.8050
  81218961.2310
  25906162.800    25906196.140                   136137327.3090  106080923.0260

 23  3  1 17  0 35.0000000  0 10G07G08G10G16G18G21G23G26G27G31
  24928667.120    24928669.860                   131001034.2250  102078741.9720

  22961664.460    22961668.940    22961668.780   120664441.1860   94024297.2600
  90106675.3730
  22737818.320    22737822.820    22737821.800   119488590.4830   93108286.8290
  89228484.5320
  20341612.480    20341611.580                   106895988.0060   83295621.9040

  22264641.500    22264642.180    22264646.740   117001695.6430   91170276.4080
  87371603.4630
  24575913.660    24575943.920                   129147456.9860  100634491.2380

  22119617.060    22119618.300    22119622.960   116239694.5140   90576466.5010
  86802461.7770
  21064972.000    21064975.620    21064974.760   110697262.7370   86257667.8760
  82663643.0970
  20696556.160    20696558.060    20696558.720   108761389.9170   84749252.7780
  81218056.5400
  25906794.700    25906828.000                   136140647.9420  106083510.5670

 23  3  1 17  0 36.0000000  0 10G07G08G10G16G18G21G23G26G27G31
  24928276.920    24928279.660                   130998983.7990  102077144.2370

  22961187.180    22961191.660    22961191.480   120661933.0500   94022342.8680
  90104802.4140
  22737316.220    22737320.700    22737319.700   119485951.8900   93106230.7880
  89226514.1560
  20341560.120    20341559.220                   106895712.8890   83295407.5270

  22265161.560    22265162.240    22265166.820   117004428.6450   91172406.0160
  87373644.3400
  24575260.800    24575291.060                   129144026.4440  100631818.1350

  22119437.720    22119438.980    22119443.620   116238752.1180   90575732.1690
  86801758.0390
  21065387.980    21065391.600    21065390.760   110699448.7660   86259371.2750
  82665275.5210
  20696325.600    20696327.520    20696328.180   108760178.3580   84748308.7080
  81217151.8050
  25907426.440    25907459.760                   136143967.9580  106086097.6190

 23  3  1 17  0 37.0000000  0 10G07G08G10G16G18G21G23G26G27G31
  24927886.740    24927889.460                   130996933.3210  102075546.4540

  22960709.840    22960714.280    22960714.120   120659424.5270   94020388.1810
  90102929.1720
  22736814.080    22736818.560    22736817.540   119483313.1350   93104174.6150
  89224543.6550
  20341507.780    20341506.880                   106895437.8170   83295193.1850

  22265681.600    22265682.280    22265686.840   117007161.4260   91174535.4560
  87375685.0470
  24574607.900    24574638.160                   129140595.6280  100629144.8030

  22119258.400    22119259.660    22119264.300   116237809.8240   90574997.9140
  86801054.3770
  21065803.960    21065807.580    21065806.720   110701634.7480   86261074.6360
  82666907.9060
  20696095.000    20696096.920    20696097.580   108758966.5840   84747364.4680
  81216246.9060
  25908058.100    25908091.400                   136147287.3430  106088684.1800

 23  3  1 17  0 38.0000000  0 10G07G08G10G16G18G21G23G26G27G31
  24927496.580    24927499.320                   130994883.2140  102073948.9720

  22960232.460    22960236.940    22960236.780   120656916.0670   94018433.5390
  90101055.9760
  22736312.000    22736316.480    22736315.460   119480674.6440   93102118.6530
  89222573.3580
  20341455.520    20341454.620                   106895163.2330   83294979.2260

  22266201.680    22266202.340    22266206.920   117009894.3970   91176665.0410
  87377725.9090
  24573955.000    24573985.260                   129137164.9340  100626471.5930

  22119079.200    22119080.460    22119085.080   116236868.0720   90574264.0830
  86800351.1260
  21066220.020    21066223.640    21066222.780   110703821.1060   86262778.2890
  82668540.5740
  20695864.460    20695866.380    20695867.020   108757755.0300   84746420.4050
  81215342.1750
  25908689.680    25908722.960                   136150606.4360  106091270.4990

 23  3  1 17  0 39.0000000  0 10G07G08G10G16G18G21G23G26G27G31
  24927106.540    24927109.280                   130992833.6630  102072351.9110

  22959755.160    22959759.640    22959759.480   120654407.8340   94016479.0760
  90099182.9520
  22735810.000    22735814.460    22735813.440   119478036.6010   93100063.0370
  89220603.3980
  20341403.400    20341402.500                   106894889.3270   83294765.7910

  22266721.820    22266722.480    22266727.060   117012627.7690   91178794.9440
  87379767.0600
  24573302.200    24573332.440                   129133734.5540  100623798.6340

  22118900.120    22118901.380    22118906.000   116235927.0420   90573530.8150
  86799648.4090
  21066636.180    21066639.800    21066638.940   110706008.0310   86264482.3860
  82670173.6690
  20695633.980    20695635.900    20695636.560   108756543.8730   84745476.6460
  81214437.7430
  25909321.220    25909354.520                   136153925.4480  106093856.7580

 23  3  1 17  0 40.0000000  0 10G07G08G10G16G18G21G23G26G27G31
  24926716.620    24926719.360                   130990784.6220  102070755.2680

  22959277.900    22959282.380    22959282.200   120651899.7740   94014524.7430
  90097310.0480
  22735308.060    22735312.540    22735311.520   119475398.9490   93098007.7270
  89218633.7210
  20341351.400    20341350.500                   106894616.0310   83294552.8350

  22267242.020    22267242.680    22267247.260   117015361.4540   91180925.0860
  87381808.4490
  24572649.380    24572679.660                   129130304.3880  100621125.8340

  22118721.160    22118722.440    22118727.040   116234986.6620   90572798.0550
  86798946.1810
  21067052.420    21067056.040    21067055.180   110708195.4420   86266186.8600
  82671807.1230
  20695403.560    20695405.480    20695406.140   108755333.0500   84744533.1470
  81213533.5570
  25909952.760    25909986.000                   136157244.2320  106096442.8560

 23  3  1 17  0 41.0000000  0 10G07G08G10G16G18G21G23G26G27G31
  24926326.820    24926329.560                   130988736.0990  102069159.0250

  22958800.660    22958805.160    22958804.960   120649391.9370   94012570.5910
  90095437.3160
  22734806.200    22734810.680    22734809.660   119472761.7250   93095952.7520
  89216664.3670
  20341299.520    20341298.620                   106894343.3770   83294340.3770

  22267762.300    22267762.960    22267767.520   117018095.5230   91183055.5290
  87383850.1210
  24571996.660    24572026.900                   129126874.5340  100618453.2600

  22118542.360    22118543.640    22118548.220   116234047.0060   90572065.8560
  86798244.4840
  21067468.780    21067472.400    21067471.540   110710383.4020   86267891.7650
  82673440.9880
  20695173.220    20695175.140    20695175.800   108754122.6180   84743589.9560
  81212629.6690
  25910584.240    25910617.500                   136160562.9390  106099028.8990

 23  3  1 17  0 42.0000000  0 10G07G08G10G16G18G21G23G26G27G31
  24925937.100    24925939.880                   130986688.1780  102067563.2520

  22958323.480    22958327.980    22958327.800   120646884.3570   94010616.6390
  90093564.7850
  22734304.440    22734308.920    22734307.900   119470124.9580   93093898.1310
  89214695.3690
  20341247.760    20341246.880                   106894071.4280   83294128.4690

  22268282.660    22268283.300    22268287.880   117020829.9990   91185186.2880
  87385892.0960
  24571344.020    24571374.260                   129123445.0060  100615780.9550

  22118363.680    22118364.960    22118369.560   116233108.0860   90571334.2340
  86797543.3540
  21067885.260    21067888.880    21067888.000   110712571.9590   86269597.1310
  82675075.2980
  20694942.960    20694944.900    20694945.560   108752912.6230   84742647.1020
  81211726.1010
  25911215.760    25911249.020                   136163881.6490  106101614.9430

 23  3  1 17  0 43.0000000  0 10G07G08G10G16G18G21G23G26G27G31
  24925547.460    24925550.220                   130984640.7050  102065967.8150

  22957846.320    22957850.820    22957850.640   120644376.9060   94008662.7850
  90091692.3400
  22733802.760    22733807.220    22733806.200   119467488.5280   93091843.7730
  89212726.6000
  20341196.100    20341195.220                   106893800.0090   83293916.9750

  22268803.060    22268803.700    22268808.280   117023564.7380   91187317.2530
  87387934.2720
  24570691.400    24570721.600                   129120015.6610  100613108.7780

  22118185.120    22118186.400    22118191.000   116232169.7650   90570603.0770
  86796842.6580
  21068301.800    21068305.420    21068304.540   110714760.9390   86271302.8280
  82676709.9260
  20694712.760    20694714.700    20694715.340   108751702.8820   84741704.4490
  81210822.7270
  25911847.200    25911880.460                   136167200.0520  106104200.7460

 23  3  1 17  0 44.0000000  0 10G07G08G10G16G18G21G23G26G27G31
  24925157.920    24925160.680                   130982593.7380  102064372.7730

  22957369.200    22957373.700    22957373.520   120641869.6480   94006709.0790
  90089820.0400
  22733301.140    22733305.600    22733304.560   119464852.4890   93089789.7210
  89210758.1370
  20341144.580    20341143.700                   106893529.2300   83293705.9810

  22269323.540    22269324.180    22269328.740   117026299.8160   91189448.4810
  87389976.7000
  24570038.840    24570069.020                   129116586.5800  100610436.8280

  22118006.700    22118007.980    22118012.560   116231232.1150   90569872.4420
  86796142.4720
  21068718.460    21068722.080    21068721.200   110716950.4330   86273008.9280
  82678344.9400
  20694482.640    20694484.560    20694485.220   108750493.5070   84740762.0810
  81209919.6220
  25912478.660    25912511.900                   136170518.3830  106106786.4980

 23  3  1 17  0 45.0000000  0 10G07G08G10G16G18G21G23G26G27G31
  24924768.480    24924771.240                   130980547.1980  102062778.0710

  22956892.100    22956896.600    22956896.420   120639362.5100   94004755.4670
  90087947.8310
  22732799.560    22732804.040    22732803.000   119462216.7610   93087735.9090
  89208789.9000
  20341093.160    20341092.280                   106893258.9920   83293495.4040

  22269844.040    22269844.700    22269849.260   117029035.1540   91191579.9110
  87392019.3180
  24569386.280    24569416.460                   129113157.6460  100607765.0210

  22117828.380    22117829.680    22117834.240   116230295.0740   90569142.2830
  86795442.7280
  21069135.180    21069138.800    21069137.920   110719140.3640   86274715.3650
  82679980.2740
  20694252.540    20694254.480    20694255.140   108749284.4070   84739819.9250
  81209016.7250
  25913110.060    25913143.280                   136173836.4570  106109372.0410

 23  3  1 17  0 46.0000000  0 10G07G08G10G16G18G21G23G26G27G31
  24924379.080    24924381.820                   130978500.9160  102061183.5860

  22956415.000    22956419.500    22956419.300   120636855.2950   94002801.8000
  90086075.5570
  22732298.020    22732302.500    22732301.440   119459581.1340   93085682.1800
  89206821.7440
  20341041.800    20341040.920                   106892989.0940   83293285.0950

  22270364.580    22270365.220    22270369.780   117031770.5470   91193711.3840
  87394061.9860
  24568733.740    24568763.900                   129109728.7060  100605093.1920

  22117650.140    22117651.440    22117656.000   116229358.4110   90568412.4170
  86794743.2820
  21069551.960    21069555.580    21069554.700   110721330.5240   86276421.9850
  82681615.7830
  20694022.480    20694024.400    20694025.060   108748075.3760   84738877.8270
  81208113.8810
  25913741.380    25913774.560                   136177154.0870  106111957.2440

 23  3  1 17  0 47.0000000  0 10G07G08G10G16G18G21G23G26G27G31
  24923989.740    24923992.440                   130976454.9100  102059589.2980

  22955937.880    22955942.380    22955942.200   120634348.0360   94000848.0980
  90084203.2740
  22731796.500    22731800.980    22731799.940   119456945.6970   93083628.5970
  89204853.7260
  20340990.520    20340989.640                   106892719.5970   83293075.1000

  22270885.120    22270885.760    22270890.340   117034506.0770   91195842.9650
  87396104.7480
  24568081.200    24568111.340                   129106299.7820  100602421.3500

  22117471.980    22117473.280    22117477.840   116228422.2240   90567682.9230
  86794044.1770
  21069968.800    21069972.420    21069971.520   110723520.9910   86278128.8400
  82683251.5190
  20693792.420    20693794.360    20693795.020   108746866.4940   84737935.8410
  81207211.1450
  25914372.600    25914405.840                   136180471.4310  106114542.2300

 23  3  1 17  0 48.0000000  0 10G07G08G10G16G18G21G23G26G27G31
  24923600.540    24923603.240                   130974409.6770  102057995.6120

  22955460.840    22955465.360    22955465.160   120631841.2430   93998894.7540
  90082331.3140
  22731295.120    22731299.600    22731298.540   119454310.8930   93081575.5050
  89202886.1780
  20340939.400    20340938.540                   106892450.9750   83292865.7830

  22271405.800    22271406.420    22271411.000   117037242.1790   91197974.9950
  87398147.9350
  24567428.740    24567458.900                   129102871.3710  100599749.9450

  22117294.000    22117295.300    22117299.860   116227486.9400   90566954.1330
  86793345.7570
  21070385.760    21070389.380    21070388.500   110725712.1990   86279836.2750
  82684887.8110
  20693562.480    20693564.440    20693565.080   108745658.1960   84736994.3120
  81206308.8460
  25915003.840    25915037.040                   136183788.8030  106117127.2370

 23  3  1 17  0 49.0000000  0 10G07G08G10G16G18G21G23G26G27G31
  24923211.440    24923214.140                   130972364.8610  102056402.2360

  22954983.840    22954988.340    22954988.160   120629334.5460   93996941.4860
  90080459.4440
  22730793.800    22730798.280    22730797.220   119451676.4180   93079522.6690
  89200918.8870
  20340888.380    20340887.520                   106892182.8920   83292656.8890

  22271926.520    22271927.140    22271931.720   117039978.5470   91200107.2280
  87400191.3290
  24566776.340    24566806.500                   129099443.2170  100597078.7200

  22117116.140    22117117.460    22117121.980   116226552.2610   90566225.8140
  86792647.7860
  21070802.820    21070806.440    21070805.540   110727903.8510   86281544.0560
  82686524.4340
  20693332.620    20693334.560    20693335.220   108744450.1840   84736053.0070
  81205406.7650
  25915635.060    25915668.260                   136187106.0080  106119712.1100

 23  3  1 17  0 50.0000000  0 10G07G08G10G16G18G21G23G26G27G31
  24922822.420    24922825.120                   130970320.5260  102054809.2560

  22954506.860    22954511.380    22954511.180   120626828.0100   93994988.3410
  90078587.6800
  22730292.540    22730297.020    22730295.960   119449042.3100   93077470.1220
  89198951.8620
  20340837.480    20340836.620                   106891915.4030   83292448.4560

  22272447.280    22272447.900    22272452.480   117042715.1960   91202239.6800
  87402234.9380
  24566124.000    24566154.100                   129096015.1920  100594407.5620

  22116938.400    22116939.720    22116944.240   116225618.2180   90565497.9900
  86791950.2910
  21071219.980    21071223.600    21071222.700   110730095.9760   86283252.2050
  82688161.4120
  20693102.800    20693104.740    20693105.400   108743242.4770   84735111.9360
  81204504.9040
  25916266.260    25916299.460                   136190423.0070  106122296.8160

 23  3  1 17  0 51.0000000  0 10G07G08G10G16G18G21G23G26G27G31
  24922433.480    24922436.160                   130968276.5850  102053216.5710

  22954029.880    22954034.420    22954034.220   120624321.5680   93993035.2770
  90076715.9820
  22729791.340    22729795.820    22729794.760   119446408.4790   93075417.7900
  89196985.0360
  20340786.680    20340785.820                   106891648.4180   83292240.4160

  22272968.100    22272968.720    22272973.280   117045452.0900   91204372.3240
  87404278.7110
  24565471.640    24565501.720                   129092587.3220  100591736.5430

  22116760.760    22116762.080    22116766.600   116224684.7350   90564770.6040
  86791253.2050
  21071637.200    21071640.820    21071639.920   110732288.5050   86284960.6680
  82689798.6810
  20692873.020    20692874.960    20692875.620   108742035.0230   84734171.0620
  81203603.2300
  25916897.400    25916930.560                   136193739.7520  106124881.3270

 23  3  1 17  0 52.0000000  0 10G07G08G10G16G18G21G23G26G27G31
  24922044.600    24922047.340                   130966233.0910  102051624.2300

  22953552.940    22953557.460    22953557.260   120621815.2260   93991082.2880
  90074844.3670
  22729290.200    22729294.660    22729293.600   119443774.9550   93073365.6970
  89195018.4530
  20340735.980    20340735.120                   106891381.9640   83292032.7910

  22273488.940    22273489.580    22273494.160   117048189.2300   91206505.1610
  87406322.6790
  24564819.340    24564849.400                   129089159.6460  100589065.6620

  22116583.240    22116584.560    22116589.060   116223751.8500   90564043.6810
  86790556.5660
  21072054.500    21072058.120    21072057.220   110734481.4470   86286669.4560
  82691436.2700
  20692643.300    20692645.240    20692645.900   108740827.8330   84733230.3970
  81202701.7590
  25917528.500    25917561.640                   136197056.2990  106127465.6990

 23  3  1 17  0 53.0000000  0 10G07G08G10G16G18G21G23G26G27G31
  24921655.780    24921658.500                   130964189.8570  102050032.0810

  22953076.000    22953080.520    22953080.320   120619308.8760   93989129.2960
  90072972.7490
  22728789.100    22728793.560    22728792.500   119441141.6220   93071313.7540
  89193052.0040
  20340685.360    20340684.500                   106891115.9310   83291825.4920

  22274009.840    22274010.460    22274015.040   117050926.4910   91208638.0890
  87408366.7480
  24564166.980    24564197.060                   129085731.9410  100586394.7810

  22116405.800    22116407.120    22116411.620   116222819.4130   90563317.1060
  86789860.2770
  21072471.860    21072475.480    21072474.580   110736674.6970   86288378.4790
  82693074.0840
  20692413.600    20692415.540    20692416.200   108739620.7750   84732289.8350
  81201800.3880
  25918159.520    25918192.620                   136200372.4760  106130049.7840

 23  3  1 17  0 54.0000000  0 10G07G08G10G16G18G21G23G26G27G31
  24921267.080    24921269.840                   130962147.1670  102048440.3830

  22952599.080    22952603.620    22952603.400   120616802.6450   93987176.3880
  90071101.2260
  22728288.060    22728292.520    22728291.460   119438508.6440   93069262.0870
  89191085.8290
  20340634.840    20340633.980                   106890850.4700   83291618.6400

  22274530.780    22274531.400    22274535.980   117053664.0630   91210771.2620
  87410411.0320
  24563514.740    24563544.840                   129082304.5280  100583724.1470

  22116228.480    22116229.820    22116234.300   116221887.6190   90562591.0370
  86789164.4590
  21072889.320    21072892.940    21072892.020   110738868.4240   86290087.8780
  82694712.2590
  20692183.960    20692185.920    20692186.580   108738414.0380   84731349.5200
  81200899.2570
  25918790.520    25918823.600                   136203688.4880  106132633.7400

 23  3  1 17  0 55.0000000  0 10G07G08G10G16G18G21G23G26G27G31
  24920878.460    24920881.220                   130960105.0080  102046849.0900

  22952122.220    22952126.740    22952126.540   120614296.7000   93985223.7060
  90069229.9010
  22727787.100    22727791.580    22727790.500   119435876.1480   93067210.7950
  89189120.0070
  20340584.460    20340583.600                   106890585.7160   83291412.3400

  22275051.800    22275052.420    22275057.000   117056402.0390   91212904.7480
  87412455.6280
  24562862.520    24562892.620                   129078877.4620  100581053.7900

  22116051.300    22116052.640    22116057.140   116220956.5840   90561865.5560
  86788469.2040
  21073306.880    21073310.500    21073309.580   110741062.7350   86291797.7280
  82696350.8720
  20691954.420    20691956.360    20691957.020   108737207.7340   84730409.5470
  81199998.4460
  25919421.520    25919454.540                   136207004.4360  106135217.6430

 23  3  1 17  0 56.0000000  0 10G07G08G10G16G18G21G23G26G27G31
  24920489.940    24920492.700                   130958063.2930  102045258.1570

  22951645.380    22951649.880    22951649.680   120611790.8390   93983271.0910
  90067358.6510
  22727286.220    22727290.680    22727289.600   119433243.9610   93065159.7420
  89187154.4150
  20340534.180    20340533.320                   106890321.4850   83291206.4460

  22275572.860    22275573.480    22275578.060   117059140.2690   91215038.4320
  87414500.4090
  24562210.360    24562240.460                   129075450.5460  100578383.5410

  22115874.240    22115875.580    22115880.060   116220026.1170   90561140.5190
  86787774.3810
  21073724.520    21073728.140    21073727.220   110743257.4590   86293507.9020
  82697989.7870
  20691724.900    20691726.860    20691727.520   108736001.6930   84729469.7750
  81199097.8310
  25920052.480    25920085.500                   136210320.1140  106137801.3210

 23  3  1 17  0 57.0000000  0 10G07G08G10G16G18G21G23G26G27G31
  24920101.500    24920104.260                   130956022.0900  102043667.6130

  22951168.560    22951173.080    22951172.860   120609285.1800   93981318.6320
  90065487.5380
  22726785.400    22726789.860    22726788.780   119430612.1630   93063108.9940
  89185189.1110
  20340484.020    20340483.160                   106890057.8820   83291001.0410

  22276094.000    22276094.620    22276099.200   117061878.8390   91217172.3800
  87416545.4430
  24561558.240    24561588.340                   129072023.8790  100575713.4500

  22115697.320    22115698.660    22115703.140   116219096.3460   90560416.0260
  86787080.0670
  21074142.260    21074145.880    21074144.960   110745452.7160   86295218.4880
  82699629.0960
  20691495.480    20691497.420    20691498.080   108734796.0010   84728530.2730
  81198197.4770
  25920683.340    25920716.420                   136213635.7260  106140384.9430

 23  3  1 17  0 58.0000000  0 10G07G08G10G16G18G21G23G26G27G31
  24919713.100    24919715.920                   130953981.2260  102042077.3340

  22950691.740    22950696.280    22950696.040   120606779.5080   93979366.1640
  90063616.4220
  22726284.620    22726289.080    22726288.000   119427980.5620   93061058.3980
  89183223.9590
  20340433.940    20340433.080                   106889794.6990   83290795.9650

  22276615.160    22276615.780    22276620.360   117064617.5460   91219306.4390
  87418590.5790
  24560906.140    24560936.220                   129068597.2570  100573043.4350

  22115520.480    22115521.820    22115526.280   116218167.0400   90559691.8940
  86786386.1030
  21074560.060    21074563.680    21074562.760   110747648.2670   86296929.3090
  82701268.6310
  20691266.060    20691268.020    20691268.680   108733590.4620   84727590.8930
  81197297.2400
  25921314.160    25921347.220                   136216951.0150  106142968.2960

 23  3  1 17  0 59.0000000  0 10G07G08G10G16G18G21G23G26G27G31
  24919324.820    24919327.580                   130951940.6720  102040487.2760

  22950214.920    22950219.460    22950219.240   120604273.8650   93977413.7190
  90061745.3270
  22725783.880    22725788.340    22725787.260   119425349.1660   93059007.9620
  89181258.9570
  20340383.940    20340383.100                   106889531.9610   83290591.2320

  22277136.360    22277136.960    22277141.540   117067356.4100   91221440.6170
  87420635.8250
  24560254.060    24560284.120                   129065170.7300  100570373.4850

  22115343.720    22115345.060    22115349.520   116217238.2130   90558968.1320
  86785692.5040
  21074977.940    21074981.540    21074980.620   110749844.1440   86298640.3800
  82702908.4090
  20691036.700    20691038.640    20691039.300   108732385.0980   84726651.6530
  81196397.1330
  25921944.920    25921978.000                   136220265.9040  106145551.3450

 23  3  1 17  1  0.0000000  0 10G07G08G10G16G18G21G23G26G27G31
  24918936.560    24918939.320                   130949900.3860  102038897.4300

  22949738.100    22949742.640    22949742.400   120601768.1430   93975461.2130
  90059874.1830
  22725283.180    22725287.640    22725286.560   119422717.9070   93056957.6320
  89179294.0680
  20340334.000    20340333.160                   106889269.5900   83290386.7870

  22277657.560    22277658.160    22277662.760   117070095.3450   91223574.8500
  87422681.1410
  24559601.960    24559632.040                   129061744.2280  100567703.5290

  22115167.060    22115168.400    22115172.860   116216309.8240   90558244.7140
  86784999.2310
  21075395.840    21075399.460    21075398.540   110752040.2940   86300351.6640
  82704548.3880
  20690807.340    20690809.280    20690809.960   108731179.8430   84725712.4910
  81195497.1010
  25922575.660    25922608.680                   136223580.4020  106148134.1180

 23  3  1 17  1  1.0000000  0 10G07G08G10G16G18G21G23G26G27G31
  24918548.380    24918551.140                   130947860.5150  102037307.9270

  22949261.300    22949265.840    22949265.600   120599262.5240   93973508.7840
  90058003.1150
  22724782.520    22724786.980    22724785.900   119420086.9600   93054907.5480
  89177329.4060
  20340284.180    20340283.340                   106889007.7470   83290182.7560

  22278178.820    22278179.420    22278184.020   117072834.5450   91225709.2940
  87424726.6480
  24558949.920    24558979.940                   129058317.8350  100565033.6200

  22114990.500    22114991.860    22114996.300   116215382.0110   90557521.7450
  86784306.3930
  21075813.840    21075817.460    21075816.520   110754236.8600   86302063.2730
  82706188.6800
  20690578.040    20690579.980    20690580.640   108729974.8340   84724773.5280
  81194597.2650
  25923206.340    25923239.320                   136226894.7450  106150716.7700

 23  3  1 17  1  2.0000000  0 10G07G08G10G16G18G21G23G26G27G31
  24918160.320    24918163.060                   130945821.2350  102035718.8840

  22948784.560    22948789.080    22948788.860   120596757.1940   93971556.5790
  90056132.2460
  22724281.960    22724286.420    22724285.320   119417456.4970   93052857.8410
  89175365.1030
  20340234.480    20340233.660                   106888746.6110   83289979.2730

  22278700.140    22278700.740    22278705.340   117075574.1550   91227844.0510
  87426772.4550
  24558297.920    24558327.920                   129054891.7830  100562363.9780

  22114814.100    22114815.440    22114819.880   116214454.9620   90556799.3710
  86783614.1180
  21076231.940    21076235.560    21076234.640   110756434.0190   86303775.3440
  82707829.4180
  20690348.820    20690350.760    20690351.420   108728770.2670   84723834.9040
  81193697.7500
  25923837.000    25923869.980                   136230208.9750  106153299.3250

 23  3  1 17  1  3.0000000  0 10G07G08G10G16G18G21G23G26G27G31
  24917772.420    24917775.120                   130943782.5970  102034130.3360

  22948307.860    22948312.360    22948312.160   120594252.1260   93969604.5820
  90054261.5880
  22723781.500    22723785.940    22723784.860   119414826.5410   93050808.5260
  89173401.1760
  20340184.920    20340184.100                   106888486.1900   83289776.3480

  22279221.560    22279222.160    22279226.760   117078314.1910   91229979.1440
  87428818.5880
  24557645.980    24557675.960                   129051466.0860  100559694.6690

  22114637.840    22114639.180    22114643.620   116213528.6940   90556077.6040
  86782922.4170
  21076650.160    21076653.780    21076652.860   110758631.7800   86305487.8830
  82709470.6010
  20690119.680    20690121.640    20690122.280   108727566.1520   84722896.6320
  81192798.5730
  25924467.660    25924500.600                   136233523.1290  106155881.8120

 23  3  1 17  1  4.0000000  0 10G07G08G10G16G18G21G23G26G27G31
  24917384.560    24917387.300                   130941744.4130  102032542.1390

  22947831.200    22947835.700    22947835.480   120591747.2220   93967652.7130
  90052391.0400
  22723281.100    22723285.560    22723284.460   119412196.9450   93048759.4960
  89171437.5190
  20340135.480    20340134.660                   106888226.3580   83289573.8810

  22279743.040    22279743.620    22279748.220   117081054.5450   91232114.4830
  87430864.9480
  24556994.120    24557024.100                   129048040.6780  100557025.5950

  22114461.680    22114463.040    22114467.460   116212603.0480   90555356.3260
  86782231.1940
  21077068.480    21077072.100    21077071.160   110760830.0220   86307200.8000
  82711112.1430
  20689890.600    20689892.560    20689893.220   108726362.3390   84721958.5980
  81191899.6280
  25925098.300    25925131.200                   136236837.1540  106158464.1930

 23  3  1 17  1  5.0000000  0 10G07G08G10G16G18G21G23G26G27G31
  24916996.840    24916999.560                   130939706.8760  102030954.4560

  22947354.580    22947359.080    22947358.860   120589242.6250   93965701.0810
  90050520.7300
  22722780.800    22722785.240    22722784.160   119409567.8610   93046710.8620
  89169474.2420
  20340086.180    20340085.360                   106887967.2740   83289372.0000

  22280264.600    22280265.180    22280269.780   117083795.3460   91234250.1670
  87432911.6460
  24556342.300    24556372.280                   129044615.6300  100554356.7820

  22114285.680    22114287.060    22114291.460   116211678.2040   90554635.6720
  86781540.5610
  21077486.920    21077490.520    21077489.580   110763028.8890   86308914.1990
  82712754.1520
  20689661.620    20689663.580    20689664.220   108725159.0150   84721020.9430
  81191001.0340
  25925728.920    25925761.800                   136240151.1160  106161046.5440

 23  3  1 17  1  6.0000000  0 10G07G08G10G16G18G21G23G26G27G31
  24916609.160    24916611.880                   130937669.6010  102029366.9670

  22946877.980    22946882.460    22946882.240   120586737.9770   93963749.4100
  90048650.3790
  22722280.520    22722284.980    22722283.880   119406938.9220   93044662.3420
  89167511.0810
  20340036.940    20340036.120                   106887708.5610   83289170.4050

  22280786.180    22280786.740    22280791.360   117086536.2330   91236385.9240
  87434958.4140
  24555690.500    24555720.460                   129041190.5600  100551687.9320

  22114109.760    22114111.140    22114115.540   116210753.7800   90553915.3420
  86780850.2510
  21077905.400    21077909.000    21077908.080   110765228.0240   86310627.8110
  82714396.3640
  20689432.640    20689434.600    20689435.260   108723955.7900   84720083.3670
  81190102.5300
  25926359.460    25926392.360                   136243464.7420  106163628.6540

 23  3  1 17  1  7.0000000  0 10G07G08G10G16G18G21G23G26G27G31
  24916221.600    24916224.340                   130935632.9300  102027779.9510

  22946401.420    22946405.900    22946405.680   120584233.6320   93961797.9760
  90046780.2570
  22721780.360    22721784.800    22721783.700   119404310.4950   93042614.2210
  89165548.2890
  20339987.860    20339987.040                   106887450.5730   83288969.3750

  22281307.840    22281308.400    22281313.020   117089277.5510   91238522.0140
  87437005.5100
  24555038.760    24555068.680                   129037765.8430  100549019.3520

  22113934.020    22113935.380    22113939.780   116209830.1530   90553195.6340
  86780160.5230
  21078324.000    21078327.600    21078326.660   110767427.7690   86312341.8980
  82716039.0260
  20689203.780    20689205.720    20689206.380   108722753.0340   84719146.1560
  81189204.3670
  25926989.980    25927022.880                   136246778.3460  106166210.7220

 23  3  1 17  1  8.0000000  0 10G07G08G10G16G18G21G23G26G27G31
  24915834.140    24915836.920                   130933596.8250  102026193.3830

  22945924.900    22945929.380    22945929.160   120581729.5190   93959846.7270
  90044910.3120
  22721280.280    22721284.700    22721283.620   119401682.4830   93040566.4240
  89163585.8300
  20339938.880    20339938.080                   106887193.2570   83288768.8700

  22281829.560    22281830.120    22281834.760   117092019.2580   91240658.4110
  87439052.8890
  24554387.060    24554417.000                   129034341.4070  100546351.0660

  22113758.380    22113759.760    22113764.160   116208907.2190   90552476.4690
  86779471.3290
  21078742.700    21078746.300    21078745.360   110769628.0650   86314056.4140
  82717682.1110
  20688974.960    20688976.920    20688977.560   108721550.6470   84718209.2340
  81188306.4850
  25927620.500    25927653.420                   136250091.8150  106168792.6640

 23  3  1 17  1  9.0000000  0 10G07G08G10G16G18G21G23G26G27G31
  24915446.760    24915449.540                   130931561.1130  102024607.1100

  22945448.400    22945452.880    22945452.660   120579225.4730   93957895.5230
  90043040.4120
  22720780.240    22720784.660    22720783.580   119399054.7660   93038518.8560
  89161623.5740
  20339890.020    20339889.200                   106886936.4380   83288568.7530

  22282351.340    22282351.900    22282356.540   117094761.1960   91242794.9860
  87441100.4360
  24553735.440    24553765.320                   129030917.1740  100543682.8920

  22113582.860    22113584.240    22113588.620   116207984.8630   90551757.7500
  86778782.5540
  21079161.480    21079165.080    21079164.140   110771828.7640   86315771.2440
  82719325.4820
  20688746.200    20688748.160    20688748.820   108720348.5180   84717272.5100
  81187408.7900
  25928250.940    25928283.900                   136253405.0040  106171374.3860

 23  3  1 17  1 10.0000000  0 10G07G08G10G16G18G21G23G26G27G31
  24915059.460    24915062.240                   130929525.8800  102023021.2080

  22944971.920    22944976.380    22944976.180   120576721.5780   93955944.4370
  90041170.6290
  22720280.280    22720284.700    22720283.600   119396427.4160   93036471.5730
  89159661.5960
  20339841.260    20339840.440                   106886680.2160   83288369.1010

  22282873.160    22282873.720    22282878.360   117097503.4320   91244931.7890
  87443148.2030
  24553083.800    24553113.700                   129027493.1470  100541014.8670

  22113407.460    22113408.840    22113413.220   116207063.1430   90551039.5260
  86778094.2610
  21079580.340    21079583.960    21079583.020   110774029.9350   86317486.4430
  82720969.2160
  20688517.500    20688519.460    20688520.100   108719146.7000   84716336.0280
  81186511.3300
  25928881.360    25928914.320                   136256718.0100  106173955.9590

 23  3  1 17  1 11.0000000  0 10G07G08G10G16G18G21G23G26G27G31
  24914672.240    24914675.000                   130927490.9680  102021435.5640

  22944495.440    22944499.920    22944499.700   120574217.6790   93953993.3560
  90039300.8230
  22719780.340    22719784.760    22719783.680   119393800.2690   93034424.4450
  89157699.7710
  20339792.580    20339791.780                   106886424.4190   83288169.7770

  22283395.020    22283395.560    22283400.220   117100245.7980   91247068.6980
  87445196.0740
  24552432.200    24552462.120                   129024069.1710  100538346.8460

  22113232.160    22113233.540    22113237.920   116206141.9030   90550321.6770
  86777406.3210
  21079999.280    21080002.880    21080001.940   110776231.4220   86319201.8830
  82722613.1830
  20688288.840    20688290.800    20688291.440   108717945.0390   84715399.6690
  81185613.9890
  25929511.720    25929544.680                   136260030.7340  106176537.3300

 23  3  1 17  1 12.0000000  0 10G07G08G10G16G18G21G23G26G27G31
  24914285.100    24914287.860                   130925456.5750  102019850.3190

  22944019.020    22944023.460    22944023.240   120571713.9600   93952042.4120
  90037431.1680
  22719280.480    22719284.900    22719283.820   119391173.5210   93032377.6340
  89155738.2380
  20339744.020    20339743.220                   106886169.2320   83287970.9320

  22283916.940    22283917.480    22283922.140   117102988.5110   91249205.8750
  87447244.1910
  24551780.640    24551810.520                   129020645.4080  100535679.0070

  22113056.980    22113058.360    22113062.740   116205221.3290   90549604.3490
  86776718.8820
  21080418.300    21080421.900    21080420.960   110778433.4180   86320917.7240
  82724257.5270
  20688060.220    20688062.200    20688062.840   108716743.7270   84714463.5840
  81184716.9020
  25930142.020    25930175.020                   136263343.2960  106179118.5730

 23  3  1 17  1 13.0000000  0 10G07G08G10G16G18G21G23G26G27G31
  24913898.040    24913900.780                   130923422.5660  102018265.3810

  22943542.600    22943547.040    22943546.820   120569210.3320   93950091.5330
  90035561.5940
  22718780.680    22718785.100    22718784.020   119388547.0800   93030331.0600
  89153776.9410
  20339695.580    20339694.760                   106885914.5940   83287772.5150

  22284438.900    22284439.440    22284444.120   117105731.4510   91251343.2280
  87449292.5010
  24551129.120    24551159.000                   129017221.9050  100533011.4070

  22112881.900    22112883.280    22112887.660   116204301.3400   90548887.4770
  86776031.8840
  21080837.420    21080841.000    21080840.080   110780635.8270   86322633.8870
  82725902.1830
  20687831.680    20687833.640    20687834.280   108715542.6830   84713527.7080
  81183820.0250
  25930772.260    25930805.300                   136266655.6260  106181699.6300

 23  3  1 17  1 14.0000000  0 10G07G08G10G16G18G21G23G26G27G31
  24913511.040    24913513.780                   130921388.9120  102016680.7240

  22943066.160    22943070.600    22943070.380   120566706.6860   93948140.6400
  90033691.9860
  22718280.920    22718285.340    22718284.260   119385920.8210   93028284.6280
  89151815.7760
  20339647.180    20339646.380                   106885660.3530   83287574.4030

  22284960.900    22284961.420    22284966.100   117108474.5160   91253480.6840
  87451340.8930
  24550477.600    24550507.480                   129013798.3880  100530343.7880

  22112706.940    22112708.320    22112712.680   116203381.8170   90548170.9670
  86775345.2210
  21081256.580    21081260.160    21081259.240   110782838.5380   86324350.2820
  82727547.0590
  20687603.140    20687605.120    20687605.760   108714341.7690   84712591.9320
  81182923.2360
  25931402.500    25931435.520                   136269967.5730  106184280.4030

 23  3  1 17  1 15.0000000  0 10G07G08G10G16G18G21G23G26G27G31
  24913124.120    24913126.860                   130919355.6550  102015096.3900

  22942589.760    22942594.180    22942593.980   120564203.1640   93946189.8490
  90031822.4810
  22717781.220    22717785.640    22717784.560   119383294.8960   93026238.4560
  89149854.8670
  20339598.920    20339598.100                   106885406.6580   83287376.7230

  22285482.940    22285483.460    22285488.140   117111217.8500   91255618.3460
  87453389.4800
  24549826.100    24549855.980                   129010375.0240  100527676.2700

  22112532.060    22112533.440    22112537.820   116202462.8840   90547454.9180
  86774659.0170
  21081675.820    21081679.400    21081678.480   110785041.6800   86326067.0160
  82729192.2680
  20687374.680    20687376.640    20687377.280   108713141.1350   84711656.3730
  81182026.6640
  25932032.660    25932065.680                   136273279.2670  106186860.9830

 23  3  1 17  1 16.0000000  0 10G07G08G10G16G18G21G23G26G27G31
  24912737.300    24912740.060                   130917322.9550  102013512.4720

  22942113.400    22942117.820    22942117.620   120561699.8590   93944239.2260
  90029953.1240
  22717281.600    22717286.020    22717284.940   119380669.3880   93024192.6100
  89147894.2570
  20339550.740    20339549.940                   106885153.5910   83287179.5260

  22286005.040    22286005.560    22286010.260   117113961.5140   91257756.2640
  87455438.3180
  24549174.700    24549204.560                   129006951.9500  100525009.0130

  22112357.340    22112358.700    22112363.080   116201544.6350   90546739.4030
  86773973.3130
  21082095.160    21082098.740    21082097.820   110787245.3270   86327784.1450
  82730837.8490
  20687146.260    20687148.240    20687148.860   108711940.8580   84710721.0930
  81181130.3500
  25932662.780    25932695.840                   136276590.9120  106189441.5280

 23  3  1 17  1 17.0000000  0 10G07G08G10G16G18G21G23G26G27G31
  24912350.600    24912353.320                   130915290.7960  102011928.9610

  22941637.080    22941641.520    22941641.300   120559196.7960   93942288.7900
  90028083.9730
  22716782.060    22716786.480    22716785.400   119378044.3040   93022147.0960
  89145933.9740
  20339502.720    20339501.920                   106884901.2000   83286982.8590

  22286527.220    22286527.740    22286532.440   117116705.5520   91259894.4740
  87457487.4510
  24548523.320    24548553.160                   129003529.1740  100522341.9780

  22112182.740    22112184.100    22112188.480   116200627.1110   90546024.4510
  86773288.1510
  21082514.620    21082518.200    21082517.260   110789449.5410   86329501.7120
  82732483.8490
  20686917.940    20686919.900    20686920.540   108710740.9740   84709786.1220
  81180234.3420
  25933292.900    25933325.960                   136279902.4140  106192021.9590

 23  3  1 17  1 18.0000000  0 10G07G08G10G16G18G21G23G26G27G31
  24911963.940    24911966.620                   130913258.9860  102010345.7210

  22941160.760    22941165.200    22941164.980   120556693.7810   93940338.3900
  90026214.8310
  22716282.580    22716286.980    22716285.900   119375419.4580   93020101.7640
  89143973.8580
  20339454.780    20339453.980                   106884649.2500   83286786.5360

  22287049.420    22287049.920    22287054.640   117119449.7630   91262032.8220
  87459536.6940
  24547871.980    24547901.800                   129000106.4750  100519675.0100

  22112008.240    22112009.600    22112013.960   116199710.0920   90545309.8950
  86772603.3640
  21082934.140    21082937.700    21082936.780   110791654.0890   86331219.5420
  82734130.1000
  20686689.640    20686691.620    20686692.240   108709541.2880   84708851.3020
  81179338.4690
  25933922.960    25933956.060                   136283213.6230  106194602.1580

 23  3  1 17  1 19.0000000  0 10G07G08G10G16G18G21G23G26G27G31
  24911577.360    24911580.000                   130911227.4110  102008762.6650

  22940684.420    22940688.880    22940688.660   120554190.6740   93938387.9250
  90024345.6390
  22715783.120    22715787.500    22715786.440   119372794.7410   93018056.5340
  89142013.8500
  20339406.900    20339406.100                   106884397.6700   83286590.4980

  22287571.660    22287572.160    22287576.860   117122194.0660   91264171.2380
  87461586.0030
  24547220.640    24547250.400                   128996683.7860  100517008.0350

  22111833.800    22111835.180    22111839.540   116198793.4820   90544595.6560
  86771918.8870
  21083353.680    21083357.260    21083356.340   110793858.9000   86332937.5740
  82735776.5470
  20686461.360    20686463.340    20686463.960   108708341.6790   84707916.5440
  81178442.6610
  25934552.960    25934586.080                   136286524.4110  106197182.0270

 23  3  1 17  1 20.0000000  0 10G07G08G10G16G18G21G23G26G27G31
  24911190.880    24911193.500                   130909196.4550  102007180.1060

  22940208.160    22940212.600    22940212.380   120551687.8550   93936437.6810
  90022476.6470
  22715283.740    22715288.140    22715287.060   119370170.5080   93016011.6790
  89140054.2050
  20339359.160    20339358.360                   106884146.7970   83286395.0150

  22288093.960    22288094.440    22288099.160   117124938.7790   91266309.9730
  87463635.6160
  24546569.340    24546599.120                   128993261.4370  100514341.3380

  22111659.520    22111660.900    22111665.260   116197877.6450   90543882.0180
  86771234.9830
  21083773.360    21083776.940    21083776.020   110796064.2880   86334656.0570
  82737423.4290
  20686233.160    20686235.140    20686235.760   108707142.5200   84706982.1340
  81177547.1830
  25935182.960    25935216.080                   136289835.1280  106199761.8290

 23  3  1 17  1 21.0000000  0 10G07G08G10G16G18G21G23G26G27G31
  24910804.460    24910807.100                   130907165.9640  102005597.9030

  22939731.900    22939736.360    22939736.120   120549185.1450   93934487.5210
  90020607.7540
  22714784.440    22714788.820    22714787.760   119367546.6480   93013967.1120
  89138094.8310
  20339311.540    20339310.740                   106883896.5080   83286199.9840

  22288616.320    22288616.800    22288621.520   117127683.7650   91268448.9230
  87465685.4540
  24545918.100    24545947.840                   128989839.3210  100511674.7650

  22111485.360    22111486.740    22111491.100   116196962.4310   90543168.8680
  86770551.5450
  21084193.120    21084196.700    21084195.780   110798270.1580   86336374.9160
  82739070.6690
  20686005.020    20686007.000    20686007.620   108705943.6570   84706047.9570
  81176651.9320
  25935812.920    25935846.060                   136293145.7030  106202341.5130

 23  3  1 17  1 22.0000000  0 10G07G08G10G16G18G21G23G26G27G31
  24910418.140    24910420.760                   130905135.7520  102004015.9280

  22939255.660    22939260.100    22939259.860   120546682.4150   93932537.3470
  90018738.8290
  22714285.160    22714289.560    22714288.480   119364922.9400   93011922.6690
  89136135.5810
  20339263.980    20339263.180                   106883646.5990   83286005.2530

  22289138.700    22289139.160    22289143.900   117130428.8690   91270587.9640
  87467735.3710
  24545266.880    24545296.580                   128986417.2260  100509008.2550

  22111311.300    22111312.660    22111317.020   116196047.6630   90542456.0620
  86769868.4430
  21084612.940    21084616.500    21084615.600   110800476.2900   86338093.9800
  82740718.1070
  20685776.920    20685778.880    20685779.500   108704744.9280   84705113.8850
  81175756.7800
  25936442.780    25936475.940                   136296455.8600  106204920.8600

 23  3  1 17  1 23.0000000  0 10G07G08G10G16G18G21G23G26G27G31
  24910031.900    24910034.520                   130903106.1130  102002434.3930

  22938779.440    22938783.900    22938783.640   120544179.9120   93930587.3490
  90016870.0780
  22713785.960    22713790.360    22713789.300   119362299.6810   93009878.5800
  89134176.6540
  20339216.560    20339215.760                   106883397.3740   83285811.0490

  22289661.160    22289661.620    22289666.360   117133174.3630   91272727.3090
  87469785.5690
  24544615.680    24544645.360                   128982995.4280  100506341.9700

  22111137.360    22111138.740    22111143.080   116195133.6130   90541743.8150
  86769185.8770
  21085032.860    21085036.440    21085035.520   110802682.9920   86339813.4860
  82742365.9690
  20685548.880    20685550.860    20685551.460   108703546.5940   84704180.1180
  81174861.9190
  25937072.680    25937105.800                   136299765.9780  106207500.1890

 23  3  1 17  1 24.0000000  0 10G07G08G10G16G18G21G23G26G27G31
  24909645.780    24909648.380                   130901076.9470  102000853.2250

  22938303.240    22938307.700    22938307.460   120541677.5490   93928637.4550
  90015001.4360
  22713286.840    22713291.240    22713290.180   119359676.7850   93007834.7690
  89132217.9980
  20339169.240    20339168.440                   106883148.7090   83285617.2860

  22290183.660    22290184.100    22290188.860   117135920.1210   91274866.8590
  87471835.9770
  24543964.540    24543994.200                   128979573.8090  100503675.8280

  22110963.540    22110964.920    22110969.260   116194220.1960   90541032.0640
  86768503.7780
  21085452.880    21085456.440    21085455.520   110804890.1440   86341533.3430
  82744014.1650
  20685320.900    20685322.880    20685323.480   108702348.5560   84703246.5820
  81173967.2850
  25937702.500    25937735.660                   136303075.8800  106210079.3610

 23  3  1 17  1 25.0000000  0 10G07G08G10G16G18G21G23G26G27G31
  24909259.760    24909262.360                   130899048.4590  101999272.5890

  22937827.140    22937831.600    22937831.360   120539175.5890   93926687.8800
  90013133.0990
  22712787.820    22712792.220    22712791.160   119357054.4860   93005791.4220
  89130259.7950
  20339122.080    20339121.280                   106882900.8780   83285424.1710

  22290706.260    22290706.700    22290711.480   117138666.4420   91277006.8500
  87473886.7900
  24543313.460    24543343.120                   128976152.6780  100501010.0740

  22110789.880    22110791.260    22110795.620   116193307.6540   90540320.9940
  86767822.3380
  21085873.020    21085876.580    21085875.680   110807098.0210   86343253.7660
  82745662.9000
  20685093.020    20685095.000    20685095.620   108701151.0860   84702313.4920
  81173073.0680
  25938332.340    25938365.500                   136306385.8120  106212658.5610

 23  3  1 17  1 26.0000000  0 10G07G08G10G16G18G21G23G26G27G31
  24908873.860    24908876.440                   130897020.5010  101997692.3580

  22937351.060    22937355.520    22937355.280   120536673.7960   93924738.4330
  90011264.8770
  22712288.900    22712293.280    22712292.220   119354432.5490   93003748.3590
  89128301.8610
  20339075.020    20339074.220                   106882653.6370   83285231.5150

  22291228.940    22291229.380    22291234.140   117141413.0470   91279147.0590
  87475937.8340
  24542662.480    24542692.100                   128972731.7890  100498344.5120

  22110616.360    22110617.740    22110622.080   116192395.7630   90539610.4320
  86767141.3830
  21086293.260    21086296.820    21086295.900   110809306.3730   86344974.5580
  82747311.9950
  20684865.220    20684867.180    20684867.800   108699953.9330   84701380.6460
  81172179.0910
  25938962.140    25938995.300                   136309695.5880  106215237.6520

 23  3  1 17  1 27.0000000  0 10G07G08G10G16G18G21G23G26G27G31
  24908488.020    24908490.580                   130894992.8980  101996112.4030

  22936875.000    22936879.460    22936879.200   120534172.0490   93922789.0280
  90009396.6940
  22711790.020    22711794.400    22711793.340   119351810.9120   93001705.5290
  89126344.1430
  20339028.080    20339027.280                   106882406.8950   83285039.2470

  22291751.640    22291752.060    22291756.840   117144159.8720   91281287.4400
  87477989.0290
  24542011.480    24542041.080                   128969311.0240  100495679.0460

  22110442.940    22110444.320    22110448.660   116191484.4140   90538900.2900
  86766460.8300
  21086713.560    21086717.120    21086716.220   110811515.1010   86346695.6450
  82748961.3680
  20684637.440    20684639.420    20684640.020   108698756.9970   84700447.9700
  81171285.2800
  25939591.920    25939625.080                   136313005.1280  106217816.5620

 23  3  1 17  1 28.0000000  0 10G07G08G10G16G18G21G23G26G27G31
  24908102.220    24908104.780                   130892965.6390  101994532.7190

  22936398.920    22936403.400    22936403.120   120531670.3080   93920839.6220
  90007528.5080
  22711291.180    22711295.560    22711294.500   119349189.4870   92999662.8600
  89124386.5880
  20338981.200    20338980.400                   106882160.5860   83284847.3220

  22292274.360    22292274.780    22292279.580   117146906.8130   91283427.9140
  87480040.3270
  24541360.520    24541390.080                   128965890.3240  100493013.6350

  22110269.600    22110271.000    22110275.320   116190573.5590   90538190.5370
  86765780.6440
  21087133.920    21087137.480    21087136.580   110813724.1450   86348416.9780
  82750610.9780
  20684409.700    20684411.680    20684412.280   108697560.2310   84699515.4270
  81170391.5930
  25940221.600    25940254.740                   136316314.2660  106220395.1540

 23  3  1 17  1 29.0000000  0 10G07G08G10G16G18G21G23G26G27G31
  24907716.540    24907719.080                   130890938.8460  101992953.4080

  22935922.880    22935927.380    22935927.080   120529168.7040   93918890.3210
  90005660.4350
  22710792.400    22710796.780    22710795.720   119346568.4010   92997620.4600
  89122429.2870
  20338934.440    20338933.640                   106881914.8470   83284655.8350

  22292797.160    22292797.560    22292802.360   117149654.0830   91285568.6450
  87482091.8480
  24540709.600    24540739.140                   128962469.8660  100490348.3700

  22110096.400    22110097.780    22110102.120   116189663.3290   90537481.2680
  86765100.9330
  21087554.380    21087557.940    21087557.040   110815933.6640   86350138.6790
  82752260.9400
  20684182.020    20684184.000    20684184.600   108696363.7830   84698583.1300
  81169498.1440
  25940851.300    25940884.380                   136319623.2620  106222973.6390

 23  3  1 17  1 30.0000000  0 10G07G08G10G16G18G21G23G26G27G31
  24907330.960    24907333.520                   130888912.6170  101991374.5260

  22935446.900    22935451.380    22935451.100   120526667.3990   93916941.2550
  90003792.5790
  22710293.700    22710298.080    22710297.040   119343947.7760   92995578.4160
  89120472.3380
  20338887.800    20338887.020                   106881669.8050   83284464.8930

  22293320.020    22293320.420    22293325.240   117152401.7260   91287709.6640
  87484143.6670
  24540058.720    24540088.220                   128959049.6890  100487683.3170

  22109923.320    22109924.700    22109929.040   116188753.8450   90536772.5800
  86764421.7750
  21087974.960    21087978.500    21087977.620   110818143.7580   86351860.8300
  82753911.3370
  20683954.420    20683956.400    20683957.000   108695167.7440   84697651.1540
  81168605.0000
  25941480.920    25941514.000                   136322932.1790  106225552.0670

 23  3  1 17  1 31.0000000  0 10G07G08G10G16G18G21G23G26G27G31
  24906945.500    24906948.080                   130886887.0350  101989796.1480

  22934970.960    22934975.440    22934975.160   120524166.3910   93914992.4190
  90001924.9510
  22709795.120    22709799.500    22709798.440   119341327.6750   92993536.7810
  89118515.7680
  20338841.320    20338840.520                   106881425.4960   83284274.5240

  22293842.980    22293843.380    22293848.180   117155149.8310   91289851.0440
  87486195.8190
  24539407.920    24539437.440                   128955629.9360  100485018.6070

  22109750.420    22109751.800    22109756.120   116187845.1470   90536064.5080
  86763743.2050
  21088395.640    21088399.180    21088398.300   110820354.4810   86353583.4690
  82755562.1990
  20683726.920    20683728.900    20683729.480   108693972.1710   84696719.5390
  81167712.2020
  25942110.560    25942143.640                   136326241.0620  106228130.4610

 23  3  1 17  1 32.0000000  0 10G07G08G10G16G18G21G23G26G27G31
  24906560.120    24906562.700                   130884861.9100  101988218.1350

  22934495.060    22934499.540    22934499.260   120521665.5380   93913043.7090
  90000057.4350
  22709296.600    22709300.960    22709299.920   119338707.9040   92991495.4070
  89116559.4510
  20338794.940    20338794.140                   106881181.7650   83284084.6060

  22294365.980    22294366.360    22294371.180   117157898.2090   91291992.6360
  87488248.1820
  24538757.140    24538786.660                   128952210.3270  100482354.0260

  22109577.620    22109579.000    22109583.320   116186937.0770   90535356.9180
  86763065.1030
  21088816.420    21088819.960    21088819.080   110822565.6470   86355306.4560
  82757213.3930
  20683499.460    20683501.440    20683502.040   108692776.9110   84695788.1690
  81166819.6380
  25942740.120    25942773.200                   136329549.7090  106230708.6620

 23  3  1 17  1 33.0000000  0 10G07G08G10G16G18G21G23G26G27G31
  24906174.840    24906177.420                   130882837.1870  101986640.4430

  22934019.180    22934023.640    22934023.380   120519164.7430   93911095.0430
  89998189.9660
  22708798.120    22708802.480    22708801.440   119336088.4180   92989454.2540
  89114603.3510
  20338748.660    20338747.860                   106880938.5380   83283895.0810

  22294889.020    22294889.400    22294894.220   117160646.8240   91294134.4130
  87490300.7150
  24538106.400    24538135.920                   128948790.8960  100479689.6530

  22109404.920    22109406.300    22109410.640   116186029.5690   90534649.7710
  86762387.4220
  21089237.280    21089240.800    21089239.920   110824777.2160   86357029.7560
  82758864.8890
  20683272.060    20683274.040    20683274.620   108691581.8820   84694856.9780
  81165927.2500
  25943369.680    25943402.760                   136332858.1760  106233286.7320

 23  3  1 17  1 34.0000000  0 10G07G08G10G16G18G21G23G26G27G31
  24905789.620    24905792.220                   130880812.8290  101985063.0230

  22933543.320    22933547.760    22933547.480   120516663.9900   93909146.4130
  89996322.5190
  22708299.680    22708304.060    22708303.020   119333469.1690   92987413.2840
  89112647.4290
  20338702.460    20338701.680                   106880695.7870   83283705.9240

  22295412.100    22295412.480    22295417.300   117163395.5990   91296276.3140
  87492353.3720
  24537455.680    24537485.180                   128945371.5470  100477025.2820

  22109232.320    22109233.700    22109238.040   116185122.5730   90533943.0260
  86761710.1250
  21089658.200    21089661.700    21089660.840   110826989.1310   86358753.3270
  82760516.6440
  20683044.680    20683046.680    20683047.240   108690387.0520   84693925.9440
  81165035.0030
  25943999.180    25944032.240                   136336166.2760  106235864.5050

 23  3  1 17  1 35.0000000  0 10G07G08G10G16G18G21G23G26G27G31
  24905404.480    24905407.080                   130878788.8020  101983485.8590

  22933067.420    22933071.880    22933071.600   120514163.2210   93907197.7620
  89994455.0690
  22707801.300    22707805.660    22707804.620   119330850.1440   92985372.4910
  89110691.6570
  20338656.340    20338655.560                   106880453.4610   83283517.0990

  22295935.220    22295935.580    22295940.420   117166144.5390   91298418.3460
  87494406.1420
  24536804.960    24536834.460                   128941952.2840  100474361.0000

  22109059.820    22109061.200    22109065.540   116184216.0800   90533236.6690
  86761033.1960
  21090079.160    21090082.680    21090081.820   110829201.3750   86360477.1510
  82762168.6400
  20682817.340    20682819.340    20682819.900   108689192.3700   84692995.0250
  81164142.8760
  25944628.580    25944661.660                   136339474.0690  106238442.0380

 23  3  1 17  1 36.0000000  0 10G07G08G10G16G18G21G23G26G27G31
  24905019.420    24905022.040                   130876765.4320  101981909.2070

  22932591.620    22932596.060    22932595.780   120511662.8010   93905249.3830
  89992587.8790
  22707303.020    22707307.380    22707306.340   119328231.6590   92983332.1160
  89108736.3030
  20338610.380    20338609.580                   106880211.9110   83283328.8780

  22296458.420    22296458.760    22296463.620   117168893.9370   91300560.7330
  87496459.2680
  24536154.340    24536183.840                   128938533.4030  100471696.9940

  22108887.460    22108888.860    22108893.200   116183310.3980   90532530.9430
  86760356.8790
  21090500.260    21090503.780    21090502.920   110831414.2680   86362201.4830
  82763821.1270
  20682590.100    20682592.100    20682592.660   108687998.2050   84692064.5070
  81163251.1310
  25945258.000    25945291.080                   136342781.8640  106241019.5650

 23  3  1 17  1 37.0000000  0 10G07G08G10G16G18G21G23G26G27G31
  24904634.480    24904637.100                   130874742.5010  101980332.8890

  22932115.840    22932120.260    22932119.980   120509162.5160   93903301.1130
  89990720.7860
  22706804.800    22706809.160    22706808.120   119325613.5170   92981292.0070
  89106781.1920
  20338564.520    20338563.720                   106879970.9100   83283141.0870

  22296981.660    22296982.000    22296986.860   117171643.6050   91302703.3300
  87498512.5840
  24535503.740    24535533.220                   128935114.7160  100469033.1500

  22108715.240    22108716.620    22108720.960   116182405.3210   90531825.6900
  86759681.0070
  21090921.460    21090924.960    21090924.120   110833627.6050   86363926.1590
  82765473.9320
  20682362.920    20682364.900    20682365.460   108686804.3160   84691134.2060
  81162359.5910
  25945887.400    25945920.440                   136346089.4780  106243596.9600

 23  3  1 17  1 38.0000000  0 10G07G08G10G16G18G21G23G26G27G31
  24904249.620    24904252.260                   130872720.0920  101978756.9870

  22931640.100    22931644.520    22931644.240   120506662.4720   93901353.0310
  89988853.8670
  22706306.660    22706311.020    22706309.980   119322995.7920   92979252.2250
  89104826.4150
  20338518.780    20338518.000                   106879730.5760   83282953.8140

  22297504.980    22297505.320    22297510.180   117174393.6230   91304846.2050
  87500566.1820
  24534853.200    24534882.660                   128931696.3100  100466369.4910

  22108543.140    22108544.520    22108548.880   116181500.9500   90531120.9900
  86759005.6730
  21091342.740    21091346.240    21091345.400   110835841.4830   86365651.2570
  82767127.1580
  20682135.800    20682137.780    20682138.340   108685610.8050   84690204.2010
  81161468.3390
  25946516.780    25946549.800                   136349396.9450  106246174.2450

 23  3  1 17  1 39.0000000  0 10G07G08G10G16G18G21G23G26G27G31
  24903864.840    24903867.480                   130870698.0470  101977181.3830

  22931164.360    22931168.760    22931168.480   120504162.4130   93899404.9370
  89986986.9530
  22705808.580    22705812.920    22705811.900   119320378.3010   92977212.6260
  89102871.7900
  20338473.120    20338472.340                   106879490.6650   83282766.8700

  22298028.320    22298028.660    22298033.520   117177143.8150   91306989.2120
  87502619.8870
  24534202.660    24534232.120                   128928278.0150  100463705.9260

  22108371.140    22108372.520    22108376.860   116180597.0810   90530416.6790
  86758330.7030
  21091764.080    21091767.600    21091766.760   110838055.6840   86367376.6090
  82768780.6180
  20681908.700    20681910.700    20681911.260   108684417.4630   84689274.3240
  81160577.2070
  25947146.100    25947179.080                   136352704.0780  106248751.2690

 23  3  1 17  1 40.0000000  0 10G07G08G10G16G18G21G23G26G27G31
  24903480.140    24903482.780                   130868676.4350  101975606.0950

  22930688.640    22930693.060    22930692.760   120501662.5130   93897456.9650
  89985120.1470
  22705310.540    22705314.900    22705313.860   119317761.1560   92975173.2950
  89100917.4340
  20338427.580    20338426.800                   106879251.3320   83282580.3770

  22298551.720    22298552.040    22298556.920   117179894.2790   91309132.4290
  87504673.8090
  24533552.220    24533581.640                   128924859.9010  100461042.5090

  22108199.240    22108200.640    22108204.980   116179693.8270   90529712.8440
  86757656.2030
  21092185.520    21092189.020    21092188.200   110840270.3270   86369102.3040
  82770434.4160
  20681681.680    20681683.680    20681684.220   108683224.4360   84688344.6930
  81159686.3120
  25947775.360    25947808.340                   136356011.0190  106251328.1450

 23  3  1 17  1 41.0000000  0 10G07G08G10G16G18G21G23G26G27G31
  24903095.500    24903098.160                   130866655.0980  101974031.0150

  22930212.900    22930217.320    22930217.020   120499162.5220   93895508.9220
  89983253.2650
  22704812.540    22704816.900    22704815.860   119315144.1540   92973134.0760
  89098963.1810
  20338382.100    20338381.320                   106879012.3620   83282394.1670

  22299075.120    22299075.460    22299080.320   117182644.7990   91311275.6910
  87506727.7640
  24532901.720    24532931.100                   128921441.7630  100458379.0680

  22108027.440    22108028.820    22108033.180   116178790.9830   90529009.3320
  86756982.0050
  21092607.000    21092610.500    21092609.680   110842485.2270   86370828.1980
  82772088.3940
  20681454.680    20681456.660    20681457.220   108682031.4850   84687415.1230
  81158795.4700
  25948404.580    25948437.520                   136359317.5510  106253904.6980

 23  3  1 17  1 42.0000000  0 10G07G08G10G16G18G21G23G26G27G31
  24902710.900    24902713.580                   130864634.0800  101972456.2020

  22929737.160    22929741.600    22929741.280   120496662.4940   93893560.8510
  89981386.3800
  22704314.580    22704318.920    22704317.900   119312527.3410   92971095.0050
  89097009.0770
  20338336.700    20338335.940                   106878773.8020   83282208.2780

  22299598.560    22299598.900    22299603.760   117185395.4630   91313419.0630
  87508781.8260
  24532251.240    24532280.640                   128918023.7350  100455715.7340

  22107855.720    22107857.120    22107861.460   116177888.6200   90528306.1920
  86756308.1620
  21093028.540    21093032.040    21093031.220   110844700.4270   86372554.3280
  82773742.6020
  20681227.680    20681229.680    20681230.220   108680838.6890   84686485.6710
  81157904.7500
  25949033.700    25949066.640                   136362623.7040  106256480.9600

 23  3  1 17  1 43.0000000  0 10G07G08G10G16G18G21G23G26G27G31
  24902326.420    24902329.040                   130862613.5450  101970881.7780

  22929261.460    22929265.880    22929265.580   120494162.6560   93891612.9260
  89979519.6100
  22703816.680    22703821.040    22703820.000   119309910.9080   92969056.2310
  89095055.2460
  20338291.420    20338290.640                   106878535.8490   83282022.8600

  22300122.060    22300122.380    22300127.260   117188146.4290   91315562.6690
  87510836.1210
  24531600.840    24531630.200                   128914605.9290  100453052.5420

  22107684.140    22107685.520    22107689.880   116176986.9010   90527603.5550
  86755634.8040
  21093450.180    21093453.660    21093452.860   110846916.1210   86374280.8410
  82775397.1760
  20681000.760    20681002.760    20681003.300   108679646.2190   84685556.4760
  81157014.2710
  25949662.780    25949695.760                   136365929.7230  106259057.1140

 23  3  1 17  1 44.0000000  0 10G07G08G10G16G18G21G23G26G27G31
  24901942.080    24901944.700                   130860593.7780  101969307.9160

  22928785.840    22928790.260    22928789.940   120491663.2290   93889665.3230
  89977653.1610
  22703318.900    22703323.260    22703322.240   119307295.1230   92967017.9600
  89093101.9050
  20338246.300    20338245.540                   106878298.7600   83281838.1150

  22300645.660    22300645.980    22300650.860   117190897.9740   91317706.7300
  87512890.8400
  24530950.480    24530979.820                   128911188.6030  100450389.7030

  22107512.720    22107514.100    22107518.460   116176086.1010   90526901.6330
  86754962.1310
  21093871.940    21093875.420    21093874.640   110849132.5530   86376007.9290
  82777052.3020
  20680773.960    20680775.960    20680776.500   108678454.3480   84684627.7480
  81156124.2350
  25950291.900    25950324.880                   136369235.8470  106261633.3390

 23  3  1 17  1 45.0000000  0 10G07G08G10G16G18G21G23G26G27G31
  24901557.840    24901560.460                   130858574.5280  101967734.4650

  22928310.260    22928314.680    22928314.360   120489164.0240   93887717.8990
  89975786.8810
  22702821.220    22702825.560    22702824.540   119304679.7600   92964980.0170
  89091148.8830
  20338201.300    20338200.540                   106878062.3180   83281653.8740

  22301169.320    22301169.640    22301174.540   117193649.8760   91319851.0690
  87514945.8340
  24530300.200    24530329.540                   128907771.5790  100447727.1240

  22107341.440    22107342.820    22107347.180   116175186.0110   90526200.2660
  86754289.9900
  21094293.820    21094297.300    21094296.520   110851349.5210   86377735.4360
  82778707.8320
  20680547.240    20680549.240    20680549.760   108677262.8610   84683699.3140
  81155234.4900
  25950920.960    25950953.960                   136372541.8190  106264209.4490

 23  3  1 17  1 46.0000000  0 10G07G08G10G16G18G21G23G26G27G31
  24901173.680    24901176.320                   130856555.7350  101966161.3730

  22927834.700    22927839.120    22927838.800   120486664.9580   93885770.5760
  89973920.6970
  22702323.600    22702327.940    22702326.920   119302064.7200   92962942.3280
  89089196.0930
  20338156.400    20338155.640                   106877826.4160   83281470.0550

  22301693.040    22301693.360    22301698.260   117196402.0320   91321995.6050
  87517001.0170
  24529649.960    24529679.280                   128904354.7130  100445064.7190

  22107170.260    22107171.660    22107176.020   116174286.5170   90525499.3640
  86753618.2880
  21094715.780    21094719.260    21094718.480   110853566.9330   86379463.2880
  82780363.6880
  20680320.540    20680322.540    20680323.080   108676071.6290   84682771.0850
  81154344.9430
  25951550.000    25951583.000                   136375847.5850  106266785.3960

 23  3  1 17  1 47.0000000  0 10G07G08G10G16G18G21G23G26G27G31
  24900789.600    24900792.200                   130854537.3180  101964588.5720

  22927359.140    22927363.560    22927363.240   120484165.9230   93883823.2790
  89972054.5370
  22701826.020    22701830.340    22701829.340   119299449.9350   92960904.8370
  89087243.5000
  20338111.600    20338110.860                   106877591.0090   83281286.6230

  22302216.800    22302217.100    22302222.020   117199154.3780   91324140.2880
  87519056.3370
  24528999.740    24529029.020                   128900937.9960  100442402.4020

  22106999.200    22107000.580    22107004.960   116173387.5560   90524798.8790
  86752946.9920
  21095137.820    21095141.280    21095140.520   110855784.7030   86381191.4200
  82782019.8090
  20680093.900    20680095.920    20680096.420   108674880.6330   84681843.0360
  81153455.5550
  25952179.000    25952211.980                   136379153.0600  106269361.1090

 23  3  1 17  1 48.0000000  0 10G07G08G10G16G18G21G23G26G27G31
  24900405.580    24900408.180                   130852519.2920  101963016.0930

  22926883.600    22926888.020    22926887.700   120481666.9590   93881876.0380
  89970188.4410
  22701328.480    22701332.820    22701331.820   119296835.4320   92958867.5640
  89085291.1210
  20338066.900    20338066.140                   106877356.0860   83281103.5680

  22302740.600    22302740.900    22302745.820   117201906.9370   91326285.1410
  87521111.8290
  24528349.540    24528378.820                   128897521.3900  100439740.1670

  22106828.240    22106829.620    22106834.000   116172489.1550   90524098.8290
  86752276.1120
  21095559.920    21095563.380    21095562.620   110858002.8610   86382919.8550
  82783676.2350
  20679867.300    20679869.320    20679869.820   108673689.8550   84680915.1590
  81152566.3420
  25952807.940    25952840.900                   136382458.3020  106271936.6450

 23  3  1 17  1 49.0000000  0 10G07G08G10G16G18G21G23G26G27G31
  24900021.640    24900024.240                   130850501.6550  101961443.9150

  22926408.080    22926412.500    22926412.180   120479168.0920   93879928.8760
  89968322.4000
  22700831.020    22700835.340    22700834.340   119294221.2250   92956830.5260
  89083338.9590
  20338022.300    20338021.540                   106877121.7000   83280920.9280

  22303264.460    22303264.740    22303269.660   117204659.7370   91328430.1780
  87523167.4790
  24527699.400    24527728.680                   128894104.9290  100437078.0490

  22106657.380    22106658.760    22106663.140   116171591.3270   90523399.2220
  86751605.6580
  21095982.100    21095985.560    21095984.800   110860221.4270   86384648.6070
  82785332.9540
  20679640.760    20679642.760    20679643.280   108672499.3260   84679987.4730
  81151677.3210
  25953436.820    25953469.740                   136385763.2720  106274511.9890

 23  3  1 17  1 50.0000000  0 10G07G08G10G16G18G21G23G26G27G31
  24899637.780    24899640.380                   130848484.4570  101959872.0780

  22925932.580    22925937.000    22925936.660   120476669.3100   93877981.7740
  89966456.4170
  22700333.600    22700337.940    22700336.940   119291607.3120   92954793.7130
  89081387.0120
  20337977.780    20337977.040                   106876887.8150   83280738.6790

  22303788.340    22303788.620    22303793.540   117207412.7300   91330575.3670
  87525223.2870
  24527049.260    24527078.520                   128890688.6330  100434416.0450

  22106486.640    22106488.020    22106492.400   116170694.0590   90522700.0520
  86750935.6160
  21096404.360    21096407.800    21096407.060   110862440.3780   86386377.6590
  82786989.9600
  20679414.260    20679416.260    20679416.760   108671309.0400   84679059.9790
  81150788.4650
  25954065.660    25954098.580                   136389067.9640  106277087.1190

 23  3  1 17  1 51.0000000  0 10G07G08G10G16G18G21G23G26G27G31
  24899254.020    24899256.640                   130846467.7640  101958300.6430

  22925457.120    22925461.520    22925461.200   120474170.7300   93876034.8350
  89964590.6100
  22699836.260    22699840.600    22699839.600   119288993.7970   92952757.2110
  89079435.3600
  20337933.400    20337932.640                   106876654.5570   83280556.9220

  22304312.280    22304312.560    22304317.480   117210166.0690   91332720.8260
  87527279.3540
  24526399.180    24526428.400                   128887272.6100  100431754.2520

  22106316.020    22106317.400    22106321.800   116169797.4630   90522001.4080
  86750266.0880
  21096826.700    21096830.140    21096829.420   110864659.8400   86388107.1070
  82788647.3480
  20679187.820    20679189.820    20679190.320   108670119.1130   84678132.7670
  81149899.8810
  25954694.480    25954727.360                   136392372.5460  106279662.1610

 23  3  1 17  1 52.0000000  0 10G07G08G10G16G18G21G23G26G27G31
  24898870.360    24898873.000                   130844451.6460  101956729.6420

  22924981.700    22924986.100    22924985.780   120471672.4120   93874088.0980
  89962724.9870
  22699339.000    22699343.340    22699342.340   119286380.7280   92950721.0580
  89077484.0490
  20337889.140    20337888.380                   106876421.9790   83280375.6950

  22304836.300    22304836.580    22304841.500   117212919.7910   91334866.5820
  87529335.7060
  24525749.180    24525778.360                   128883856.9080  100429092.6500

  22106145.540    22106146.920    22106151.320   116168901.6060   90521303.3370
  86749597.1040
  21097249.160    21097252.600    21097251.880   110866879.8640   86389836.9960
  82790305.1600
  20678961.460    20678963.460    20678963.960   108668929.5780   84677205.8570
  81149011.6000
  25955323.300    25955356.140                   136395676.9940  106282237.0960

 23  3  1 17  1 53.0000000  0 10G07G08G10G16G18G21G23G26G27G31
  24898486.780    24898489.400                   130842435.8850  101955158.9180

  22924506.300    22924510.700    22924510.360   120469174.1340   93872141.3940
  89960859.3900
  22698841.800    22698846.140    22698845.140   119283767.9240   92948685.1110
  89075532.9270
  20337844.960    20337844.220                   106876189.8670   83280194.8280

  22305360.340    22305360.640    22305365.560   117215673.6850   91337012.4710
  87531392.1920
  24525099.140    24525128.320                   128880441.2590  100426431.1740

  22105975.160    22105976.540    22105980.940   116168006.2690   90520605.6760
  86748928.5120
  21097671.680    21097675.120    21097674.400   110869100.2430   86391567.1610
  82791963.2330
  20678735.120    20678737.140    20678737.640   108667740.2590   84676279.1140
  81148123.4680
  25955952.020    25955984.860                   136398981.1680  106284811.8330

 23  3  1 17  1 54.0000000  0 10G07G08G10G16G18G21G23G26G27G31
  24898103.300    24898105.920                   130840420.5900  101953588.5640

  22924030.920    22924035.320    22924034.980   120466676.0170   93870194.8090
  89958993.9200
  22698344.660    22698349.000    22698348.000   119281155.4590   92946649.4280
  89073582.0660
  20337800.900    20337800.160                   106875958.3460   83280014.4240

  22305884.460    22305884.740    22305889.660   117218427.8910   91339158.6030
  87533448.8910
  24524449.180    24524478.340                   128877025.8380  100423769.8620

  22105804.900    22105806.300    22105810.680   116167111.5670   90519908.5080
  86748260.3880
  21098094.300    21098097.740    21098097.020   110871321.0970   86393297.6950
  82793621.6550
  20678508.860    20678510.880    20678511.380   108666551.2440   84675352.6130
  81147235.5690
  25956580.700    25956613.560                   136402285.1410  106287386.4020

 23  3  1 17  1 55.0000000  0 10G07G08G10G16G18G21G23G26G27G31
  24897719.900    24897722.540                   130838405.7720  101952018.5680

  22923555.580    22923559.960    22923559.620   120464178.0070   93868248.3100
  89957128.5270
  22697847.580    22697851.920    22697850.920   119278543.3050   92944613.9890
  89071631.4450
  20337756.960    20337756.200                   106875727.3740   83279834.4440

  22306408.620    22306408.900    22306413.820   117221182.3390   91341304.9260
  87535505.7840
  24523799.240    24523828.380                   128873610.6220  100421108.7290

  22105634.760    22105636.160    22105640.560   116166217.4620   90519211.8030
  86747592.7170
  21098517.000    21098520.420    21098519.720   110873542.3660   86395028.5540
  82795280.3990
  20678282.660    20678284.660    20678285.160   108665362.4940   84674426.3170
  81146347.8740
  25957209.380    25957242.240                   136405588.9160  106289960.8050

 23  3  1 17  1 56.0000000  0 10G07G08G10G16G18G21G23G26G27G31
  24897336.540    24897339.220                   130836391.4590  101950448.9690

  22923080.280    22923084.620    22923084.300   120461680.1990   93866301.9640
  89955263.2770
  22697350.580    22697354.920    22697353.940   119275931.6050   92942578.9000
  89069681.1580
  20337713.120    20337712.380                   106875497.0640   83279654.9840

  22306932.840    22306933.120    22306938.040   117223937.1520   91343451.5300
  87537562.9530
  24523149.360    24523178.500                   128870195.7080  100418447.8230

  22105464.760    22105466.140    22105470.540   116165324.0750   90518515.6570
  86746925.5820
  21098939.800    21098943.220    21098942.540   110875764.1870   86396759.8430
  82796939.5540
  20678056.520    20678058.520    20678059.020   108664174.1520   84673500.3360
  81145460.4700
  25957838.020    25957870.860                   136408892.5910  106292535.1200

 23  3  1 17  1 57.0000000  0 10G07G08G10G16G18G21G23G26G27G31
  24896953.300    24896955.940                   130834377.5250  101948879.6570

  22922604.960    22922609.300    22922608.980   120459182.4120   93864355.6430
  89953398.0520
  22696853.640    22696857.960    22696856.980   119273320.1490   92940544.0040
  89067731.0370
  20337669.380    20337668.640                   106875267.1980   83279475.8680

  22307457.100    22307457.380    22307462.300   117226692.1280   91345598.2660
  87539620.2410
  24522499.500    24522528.640                   128866780.8940  100415786.9940

  22105294.860    22105296.240    22105300.640   116164431.1970   90517819.9080
  86746258.8210
  21099362.660    21099366.080    21099365.400   110877986.3420   86398491.3920
  82798598.9530
  20677830.420    20677832.420    20677832.920   108662985.9730   84672574.4820
  81144573.2030
  25958466.620    25958499.440                   136412195.9060  106295109.1520

 23  3  1 17  1 58.0000000  0 10G07G08G10G16G18G21G23G26G27G31
  24896570.140    24896572.760                   130832363.9660  101947310.6340

  22922129.660    22922134.020    22922133.680   120456684.7070   93862409.3810
  89951532.8990
  22696356.740    22696361.080    22696360.100   119270708.9820   92938509.3310
  89065781.1470
  20337625.720    20337625.000                   106875037.8580   83279297.1630

  22307981.400    22307981.680    22307986.620   117229447.3400   91347745.1870
  87541677.7000
  24521849.660    24521878.800                   128863366.2190  100413126.3010

  22105125.060    22105126.440    22105130.840   116163538.8890   90517124.6080
  86745592.4870
  21099785.620    21099789.020    21099788.340   110880208.9120   86400223.2650
  82800258.6620
  20677604.380    20677606.360    20677606.860   108661798.0590   84671648.8370
  81143686.1240
  25959095.140    25959127.940                   136415498.9720  106297683.0020

 23  3  1 17  1 59.0000000  0 10G07G08G10G16G18G21G23G26G27G31
  24896187.060    24896189.680                   130830350.8670  101945741.9940

  22921654.380    22921658.740    22921658.400   120454187.1020   93860463.2030
  89949667.8060
  22695859.900    22695864.240    22695863.280   119268098.1260   92936474.9010
  89063831.4870
  20337582.180    20337581.460                   106874809.0430   83279118.8660

  22308505.740    22308506.040    22308510.960   117232202.7710   91349892.2760
  87543735.3270
  24521199.900    24521228.980                   128859951.6890  100410465.6890

  22104955.360    22104956.740    22104961.160   116162647.1490   90516429.7450
  86744926.5860
  21100208.620    21100212.020    21100211.360   110882431.8790   86401955.4450
  82801918.6680
  20677378.360    20677380.360    20677380.840   108660610.3870   84670723.3780
  81142799.2240
  25959723.640    25959756.420                   136418801.8350  106300256.7010

 23  3  1 17  2  0.0000000  0 10G07G08G10G16G18G21G23G26G27G31
  24895804.080    24895806.700                   130828338.2670  101944173.7280

  22921179.140    22921183.500    22921183.160   120451689.7010   93858517.1810
  89947802.8680
  22695363.160    22695367.480    22695366.520   119265487.7080   92934440.8130
  89061882.1550
  20337538.760    20337538.020                   106874580.8570   83278941.0580

  22309030.160    22309030.440    22309035.360   117234958.5510   91352039.6370
  87545793.2150
  24520550.140    24520579.200                   128856537.4580  100407805.3030

  22104785.800    22104787.180    22104791.600   116161756.1130   90515735.4340
  86744261.2040
  21100631.740    21100635.140    21100634.500   110884655.3710   86403688.0360
  82803579.0700
  20677152.440    20677154.420    20677154.900   108659423.0880   84669798.2120
  81141912.6110
  25960352.080    25960384.860                   136422104.5310  106302830.2680

 23  3  1 17  2  1.0000000  0 10G07G08G10G16G18G21G23G26G27G31
  24895421.220    24895423.820                   130826326.3220  101942605.9800

  22920703.960    22920708.320    22920707.960   120449192.6340   93856571.4190
  89945938.1670
  22694866.500    22694870.840    22694869.880   119262877.8130   92932407.1330
  89059933.2120
  20337495.480    20337494.760                   106874353.4450   83278763.8540

  22309554.660    22309554.940    22309559.860   117237714.7910   91354187.3540
  87547851.4480
  24519900.460    24519929.520                   128853123.5870  100405145.1850

  22104616.400    22104617.780    22104622.200   116160865.8890   90515041.7570
  86743596.4220
  21101054.980    21101058.380    21101057.740   110886879.5070   86405421.1270
  82805239.9450
  20676926.580    20676928.580    20676929.060   108658236.2800   84668873.4290
  81141026.3580
  25960980.540    25961013.320                   136425407.2310  106305403.8440

 23  3  1 17  2  2.0000000  0 10G07G08G10G16G18G21G23G26G27G31
  24895038.460    24895041.080                   130824314.8970  101941038.6380

  22920228.800    22920233.160    22920232.820   120446695.7570   93854625.8040
  89944073.6240
  22694369.940    22694374.260    22694373.300   119260268.3040   92930373.7540
  89057984.5530
  20337452.320    20337451.600                   106874126.6320   83278587.1190

  22310079.220    22310079.500    22310084.440   117240471.3560   91356335.3270
  87549909.9140
  24519250.840    24519279.860                   128849710.0030  100402485.2760

  22104447.120    22104448.500    22104452.920   116159976.3220   90514348.5890
  86742932.1370
  21101478.320    21101481.700    21101481.080   110889104.1370   86407154.6050
  82806901.1920
  20676700.820    20676702.800    20676703.280   108657049.8030   84667948.9040
  81140140.3470
  25961608.940    25961641.720                   136428709.7270  106307977.2520

 23  3  1 17  2  3.0000000  0 10G07G08G10G16G18G21G23G26G27G31
  24894655.760    24894658.440                   130822303.8000  101939471.5540

  22919753.660    22919758.020    22919757.680   120444198.8850   93852680.1870
  89942209.0760
  22693873.400    22693877.720    22693876.760   119257659.0110   92928340.5440
  89056036.0680
  20337409.240    20337408.520                   106873900.2640   83278410.7280

  22310603.800    22310604.100    22310609.020   117243228.0720   91358483.4170
  87551968.5010
  24518601.260    24518630.260                   128846296.5060  100399825.4240

  22104277.940    22104279.300    22104283.740   116159087.2590   90513655.8150
  86742268.2280
  21101901.720    21101905.100    21101904.480   110891329.0900   86408888.3350
  82808562.6810
  20676475.060    20676477.040    20676477.520   108655863.5050   84667024.5160
  81139254.4770
  25962237.280    25962270.100                   136432011.9330  106310550.4310

 23  3  1 17  2  4.0000000  0 10G07G08G10G16G18G21G23G26G27G31
  24894273.140    24894275.840                   130820293.2100  101937904.8600

  22919278.560    22919282.900    22919282.580   120441702.2040   93850734.7220
  89940344.6780
  22693376.960    22693381.260    22693380.320   119255050.1540   92926307.6710
  89054087.8920
  20337366.280    20337365.560                   106873674.5470   83278234.8450

  22311128.460    22311128.760    22311133.680   117245985.1420   91360631.7820
  87554027.3520
  24517951.700    24517980.680                   128842883.2520  100397165.7970

  22104108.880    22104110.260    22104114.680   116158198.8880   90512963.5780
  86741604.8380
  21102325.200    21102328.580    21102327.980   110893554.5740   86410622.4760
  82810224.5710
  20676249.400    20676251.380    20676251.840   108654677.5780   84666100.4180
  81138368.8840
  25962865.620    25962898.420                   136435314.0530  106313123.5400

 23  3  1 17  2  5.0000000  0 10G07G08G10G16G18G21G23G26G27G31
  24893890.600    24893893.320                   130818283.0460  101936338.5030

  22918803.480    22918807.820    22918807.480   120439205.5920   93848789.3180
  89938480.3360
  22692880.540    22692884.860    22692883.920   119252441.5620   92924275.0060
  89052139.9270
  20337323.420    20337322.700                   106873449.3190   83278059.3440

  22311653.140    22311653.460    22311658.380   117248742.4090   91362780.3020
  87556086.3460
  24517302.180    24517331.120                   128839470.1380  100394506.2910

  22103939.940    22103941.300    22103945.740   116157311.0650   90512271.7700
  86740941.8510
  21102748.780    21102752.140    21102751.540   110895780.4230   86412356.9040
  82811886.7330
  20676023.760    20676025.740    20676026.200   108653491.8710   84665176.4910
  81137483.4540
  25963493.920    25963526.680                   136438615.8390  106315696.3930

 23  3  1 17  2  6.0000000  0 10G07G08G10G16G18G21G23G26G27G31
  24893508.180    24893510.920                   130816273.4180  101934772.5650

  22918328.420    22918332.760    22918332.420   120436709.1740   93846844.0620
  89936616.1300
  22692384.220    22692388.540    22692387.580   119249833.3910   92922242.6690
  89050192.2690
  20337280.680    20337279.960                   106873224.7210   83277884.3330

  22312177.900    22312178.200    22312183.140   117251500.0020   91364929.0750
  87558145.5910
  24516652.720    24516681.660                   128836057.3030  100391847.0120

  22103771.120    22103772.480    22103776.920   116156423.9180   90511580.4860
  86740279.3790
  21103172.440    21103175.800    21103175.220   110898006.7970   86414091.7410
  82813549.2850
  20675798.200    20675800.180    20675800.640   108652306.5190   84664252.8420
  81136598.2980
  25964122.200    25964154.920                   136441917.4860  106318269.1350

 23  3  1 17  2  7.0000000  0 10G07G08G10G16G18G21G23G26G27G31
  24893125.820    24893128.580                   130814264.0920  101933206.8500

  22917853.380    22917857.700    22917857.360   120434212.7770   93844898.8190
  89934751.9360
  22691887.960    22691892.260    22691891.320   119247225.4560   92920210.5140
  89048244.7790
  20337238.020    20337237.300                   106873000.5650   83277709.6680

  22312702.680    22312702.980    22312707.920   117254257.7550   91367077.9720
  87560204.9510
  24516003.260    24516032.140                   128832644.5280  100389187.7540

  22103602.400    22103603.760    22103608.220   116155537.2750   90510889.5980
  86739617.2780
  21103596.160    21103599.520    21103598.960   110900233.4930   86415826.8280
  82815212.0690
  20675572.660    20675574.640    20675575.100   108651121.3510   84663329.3340
  81135713.2620
  25964750.380    25964783.100                   136445218.8570  106320841.6610

 23  3  1 17  2  8.0000000  0 10G07G08G10G16G18G21G23G26G27G31
  24892743.540    24892746.300                   130812255.1390  101931641.4370

  22917378.360    22917382.660    22917382.320   120431716.4230   93842953.6100
  89932887.7810
  22691391.720    22691396.020    22691395.080   119244617.7260   92918178.5220
  89046297.4680
  20337195.460    20337194.720                   106872776.8740   83277535.3630

  22313227.500    22313227.800    22313232.740   117257015.6820   91369227.0040
  87562264.4320
  24515353.820    24515382.700                   128829231.8600  100386528.5720

  22103433.780    22103435.140    22103439.580   116154651.1480   90510199.1090
  86738955.5590
  21104019.960    21104023.320    21104022.760   110902460.5400   86417562.1880
  82816875.1300
  20675347.160    20675349.140    20675349.600   108649936.3690   84662405.9740
  81134828.3790
  25965378.500    25965411.220                   136448519.8470  106323413.8920

 23  3  1 17  2  9.0000000  0 10G07G08G10G16G18G21G23G26G27G31
  24892361.320    24892364.100                   130810246.6200  101930076.3590

  22916903.340    22916907.640    22916907.300   120429220.2020   93841008.5090
  89931023.7280
  22690895.560    22690899.840    22690898.920   119242010.3800   92916146.8280
  89044350.4220
  20337153.000    20337152.260                   106872553.7580   83277361.5070

  22313752.380    22313752.660    22313757.620   117259773.8740   91371376.2440
  87564324.1260
  24514704.400    24514733.240                   128825819.3740  100383869.5660

  22103265.260    22103266.620    22103271.080   116153765.6510   90509509.1150
  86738294.3130
  21104443.840    21104447.200    21104446.640   110904688.0390   86419297.8990
  82818538.5200
  20675121.720    20675123.700    20675124.160   108648751.6870   84661482.8470
  81133943.7160
  25966006.600    25966039.300                   136451820.6810  106325986.0200

 23  3  1 17  2 10.0000000  0 10G07G08G10G16G18G21G23G26G27G31
  24891979.220    24891982.020                   130808238.7260  101928511.7620

  22916428.380    22916432.680    22916432.320   120426724.2340   93839063.6030
  89929159.8510
  22690399.460    22690403.780    22690402.840   119239403.4850   92914115.4840
  89042403.7170
  20337110.680    20337109.940                   106872331.3100   83277188.1680

  22314277.300    22314277.600    22314282.560   117262532.4520   91373525.7840
  87566384.1040
  24514055.080    24514083.920                   128822407.2560  100381210.8150

  22103096.900    22103098.260    22103102.720   116152880.8790   90508819.6850
  86737633.6090
  21104867.820    21104871.180    21104870.620   110906916.0980   86421034.0470
  82820202.3260
  20674896.360    20674898.340    20674898.800   108647567.4070   84660560.0340
  81133059.3530
  25966634.660    25966667.400                   136455121.4060  106328558.0320

 23  3  1 17  2 11.0000000  0 10G07G08G10G16G18G21G23G26G27G31
  24891597.220    24891600.020                   130806231.3260  101926947.5550

  22915953.440    22915957.720    22915957.400   120424228.4330   93837118.8270
  89927296.1240
  22689903.460    22689907.760    22689906.840   119236796.9930   92912084.4530
  89040457.3140
  20337068.460    20337067.720                   106872109.5030   83277015.3340

  22314802.340    22314802.620    22314807.580   117265291.3780   91375675.5930
  87568444.3380
  24513405.780    24513434.580                   128818995.3770  100378552.2390

  22102928.660    22102930.020    22102934.500   116151996.7950   90508130.7860
  86736973.4230
  21105291.900    21105295.260    21105294.720   110909144.6800   86422770.6020
  82821866.5230
  20674671.060    20674673.060    20674673.500   108646383.5000   84659637.5090
  81132175.2660
  25967262.720    25967295.460                   136458422.0470  106331129.9730

 23  3  1 17  2 12.0000000  0 10G07G08G10G16G18G21G23G26G27G31
  24891215.300    24891218.080                   130804224.2050  101925383.5780

  22915478.500    22915482.760    22915482.440   120421732.6230   93835174.0400
  89925432.3610
  22689407.500    22689411.800    22689410.860   119234190.6610   92910053.5490
  89038511.0350
  20337026.320    20337025.580                   106871888.0740   83276842.7920

  22315327.340    22315327.640    22315332.600   117268050.3840   91377825.4670
  87570504.6350
  24512756.480    24512785.260                   128815583.5350  100375893.7010

  22102760.500    22102761.880    22102766.340   116151113.1420   90507442.2300
  86736313.5540
  21105716.040    21105719.380    21105718.860   110911373.5190   86424507.3600
  82823530.9180
  20674445.800    20674447.780    20674448.220   108645199.6980   84658715.0660
  81131291.2620
  25967890.700    25967923.420                   136461722.2110  106333701.5470

 23  3  1 17  2 13.0000000  0 10G07G08G10G16G18G21G23G26G27G31
  24890833.460    24890836.240                   130802217.6750  101923820.0520

  22915003.600    22915007.880    22915007.560   120419237.0560   93833229.4430
  89923568.7950
  22688911.600    22688915.900    22688914.980   119231584.8180   92908023.0260
  89036565.1170
  20336984.320    20336983.580                   106871667.3390   83276670.7900

  22315852.440    22315852.740    22315857.700   117270809.7950   91379975.6590
  87572565.2320
  24512107.240    24512136.020                   128812171.9760  100373235.4240

  22102592.500    22102593.860    22102598.340   116150230.2470   90506754.2610
  86735654.2530
  21106140.280    21106143.640    21106143.100   110913602.9410   86426244.5720
  82825195.7450
  20674220.600    20674222.600    20674223.040   108644016.3220   84657792.9570
  81130407.5720
  25968518.700    25968551.360                   136465022.3370  106336273.1100

 23  3  1 17  2 14.0000000  0 10G07G08G10G16G18G21G23G26G27G31
  24890451.680    24890454.500                   130800211.5230  101922256.8150

  22914528.720    22914532.980    22914532.680   120416741.5500   93831284.9030
  89921705.2810
  22688415.780    22688420.080    22688419.160   119228979.2420   92905992.7120
  89034619.4050
  20336942.400    20336941.660                   106871447.0980   83276499.1760

  22316377.580    22316377.880    22316382.840   117273569.4170   91382126.0100
  87574625.9850
  24511458.040    24511486.800                   128808760.5940  100370577.2200

  22102424.580    22102425.960    22102430.440   116149347.8950   90506066.7160
  86734995.3630
  21106564.600    21106567.940    21106567.420   110915832.7340   86427982.0730
  82826860.8540
  20673995.460    20673997.440    20673997.880   108642833.1670   84656871.0170
  81129524.0550
  25969146.640    25969179.260                   136468322.2340  106338844.5140

 23  3  1 17  2 15.0000000  0 10G07G08G10G16G18G21G23G26G27G31
  24890070.060    24890072.900                   130798206.1490  101920694.1900

  22914053.920    22914058.180    22914057.880   120414246.4730   93829340.6920
  89919842.0760
  22687920.080    22687924.380    22687923.460   119226374.3210   92903962.9070
  89032674.1700
  20336900.660    20336899.920                   106871227.7100   83276328.2250

  22316902.820    22316903.120    22316908.100   117276329.5820   91384276.7880
  87576687.1530
  24510808.940    24510837.680                   128805349.7000  100367919.4120

  22102256.860    22102258.220    22102262.700   116148466.4650   90505379.8880
  86734337.1430
  21106989.060    21106992.400    21106991.900   110918063.2710   86429720.1520
  82828526.5100
  20673770.420    20673772.400    20673772.840   108641650.5940   84655949.5370
  81128640.9660
  25969774.580    25969807.180                   136471622.1520  106341415.9230

 23  3  1 17  2 16.0000000  0 10G07G08G10G16G18G21G23G26G27G31
  24889688.500    24889691.320                   130796200.9820  101919131.7200

  22913579.100    22913583.340    22913583.040   120411751.2920   93827396.3980
  89917978.7860
  22687424.380    22687428.680    22687427.780   119223769.4870   92901933.1700
  89030729.0070
  20336858.960    20336858.220                   106871008.6460   83276157.5280

  22317428.080    22317428.380    22317433.360   117279089.7840   91386427.5950
  87578748.3330
  24510159.820    24510188.540                   128801938.7770  100365261.5930

  22102089.180    22102090.560    22102095.040   116147585.3850   90504693.3320
  86733679.2010
  21107413.560    21107416.900    21107416.400   110920294.0070   86431458.3860
  82830192.3180
  20673545.400    20673547.380    20673547.800   108640468.0720   84655028.0930
  81127757.9110
  25970402.440    25970435.000                   136474921.6310  106343986.9910

 23  3  1 17  2 17.0000000  0 10G07G08G10G16G18G21G23G26G27G31
  24889307.000    24889309.800                   130794196.1360  101917569.5110

  22913104.280    22913108.540    22913108.240   120409256.1120   93825452.1040
  89916115.5160
  22686928.740    22686933.040    22686932.120   119221164.8840   92899903.6130
  89028784.0050
  20336817.360    20336816.620                   106870790.0240   83275987.1740

  22317953.360    22317953.660    22317958.640   117281850.1260   91388578.5100
  87580809.6270
  24509510.700    24509539.420                   128798527.8840  100362603.8190

  22101921.620    22101923.000    22101927.480   116146704.8190   90504007.1810
  86733021.6320
  21107838.120    21107841.440    21107840.960   110922525.0670   86433196.8740
  82831858.3630
  20673320.400    20673322.380    20673322.800   108639285.7260   84654106.7860
  81126874.9860
  25971030.220    25971062.780                   136478220.8050  106346557.8190

 23  3  1 17  2 18.0000000  0 10G07G08G10G16G18G21G23G26G27G31
  24888925.660    24888928.420                   130792192.0390  101916007.8650

  22912629.560    22912633.800    22912633.480   120406761.3600   93823508.1500
  89914252.5520
  22686433.200    22686437.500    22686436.600   119218560.8950   92897874.5350
  89026839.4780
  20336775.920    20336775.180                   106870572.2550   83275817.4850

  22318478.740    22318479.040    22318484.020   117284611.0320   91390729.8660
  87582871.3390
  24508861.720    24508890.400                   128795117.5020  100359946.4450

  22101754.220    22101755.600    22101760.100   116145825.1450   90503321.7230
  86732364.7400
  21108262.820    21108266.140    21108265.660   110924756.8570   86434935.9290
  82833524.9590
  20673095.500    20673097.500    20673097.920   108638103.9450   84653185.9180
  81125992.4930
  25971657.980    25971690.540                   136481520.0270  106349128.6680

 23  3  1 17  2 19.0000000  0 10G07G08G10G16G18G21G23G26G27G31
  24888544.400    24888547.140                   130790188.5600  101914446.7060

  22912154.860    22912159.100    22912158.800   120404266.9030   93821564.4190
  89912389.8100
  22685937.780    22685942.080    22685941.180   119215957.4300   92895845.8650
  89024895.3400
  20336734.600    20336733.880                   106870355.2330   83275648.3760

  22319004.220    22319004.520    22319009.500   117287372.3820   91392881.5630
  87584933.3780
  24508212.760    24508241.420                   128791707.5180  100357289.3790

  22101586.980    22101588.360    22101592.860   116144946.2720   90502636.8900
  86731708.4410
  21108687.620    21108690.960    21108690.480   110926989.2690   86436675.4710
  82835192.0170
  20672870.720    20672872.700    20672873.120   108636922.6440   84652265.4260
  81125110.3510
  25972285.780    25972318.320                   136484819.2090  106351699.5000

 23  3  1 17  2 20.0000000  0 10G07G08G10G16G18G21G23G26G27G31
  24888163.240    24888165.960                   130788185.5950  101912885.9480

  22911680.220    22911684.460    22911684.160   120401772.6210   93819620.8190
  89910527.1970
  22685442.420    22685446.720    22685445.820   119213354.3510   92893817.4940
  89022951.4880
  20336693.420    20336692.700                   106870138.8070   83275479.7300

  22319529.740    22319530.040    22319535.020   117290134.0240   91395033.4940
  87586995.6530
  24507563.860    24507592.520                   128788297.7480  100354632.4780

  22101419.860    22101421.240    22101425.740   116144068.0470   90501952.5580
  86731052.6280
  21109112.540    21109115.860    21109115.380   110929222.1650   86438415.3900
  82836859.4450
  20672645.980    20672647.960    20672648.380   108635741.6640   84651345.1840
  81124228.4610
  25972913.560    25972946.080                   136488118.2680  106354270.2420

 23  3  1 17  2 21.0000000  0 10G07G08G10G16G18G21G23G26G27G31
  24887782.120    24887784.900                   130786182.8930  101911325.4130

  22911205.560    22911209.780    22911209.480   120399278.2400   93817677.1490
  89908664.5190
  22684947.100    22684951.400    22684950.500   119210751.4260   92891789.2450
  89021007.7500
  20336652.300    20336651.580                   106869922.7490   83275311.3730

  22320055.280    22320055.580    22320060.580   117292895.7400   91397185.4780
  87589057.9770
  24506914.960    24506943.600                   128784887.9900  100351975.5760

  22101252.820    22101254.200    22101258.700   116143190.2600   90501268.5690
  86730397.1310
  21109537.500    21109540.800    21109540.340   110931455.3060   86440155.4980
  82838527.0500
  20672421.260    20672423.240    20672423.660   108634560.7920   84650425.0220
  81123346.6370
  25973541.220    25973573.720                   136491416.8800  106356840.6300

 23  3  1 17  2 22.0000000  0 10G07G08G10G16G18G21G23G26G27G31
  24887401.060    24887403.900                   130784180.4910  101909765.1040

  22910730.900    22910735.100    22910734.820   120396783.8580   93815733.4810
  89906801.8360
  22684451.820    22684456.100    22684455.220   119208148.7070   92889761.1570
  89019064.1650
  20336611.260    20336610.540                   106869707.1130   83275143.3480

  22320580.840    22320581.140    22320586.140   117295657.5870   91399337.5650
  87591120.3940
  24506266.120    24506294.700                   128781478.2810  100349318.7240

  22101085.860    22101087.260    22101091.760   116142312.9290   90500584.9370
  86729741.9870
  21109962.500    21109965.820    21109965.360   110933688.7670   86441895.8570
  82840194.8900
  20672196.580    20672198.560    20672198.960   108633380.0670   84649504.9780
  81122464.9260
  25974168.900    25974201.360                   136494715.1980  106359410.7830

 23  3  1 17  2 23.0000000  0 10G07G08G10G16G18G21G23G26G27G31
  24887020.060    24887022.920                   130782178.4140  101908205.0460

  22910256.220    22910260.440    22910260.160   120394289.5190   93813789.8440
  89904939.1850
  22683956.560    22683960.860    22683959.980   119205546.1880   92887733.2210
  89017120.7270
  20336570.300    20336569.580                   106869491.9120   83274975.6590

  22321106.440    22321106.720    22321111.740   117298419.5860   91401489.7740
  87593182.9180
  24505617.240    24505645.800                   128778068.6510  100346661.9240

  22100919.020    22100920.400    22100924.900   116141436.0920   90499901.6870
  86729087.2110
  21110387.580    21110390.880    21110390.440   110935922.5350   86443636.4530
  82841862.9600
  20671971.920    20671973.900    20671974.300   108632199.5000   84648585.0580
  81121583.3400
  25974796.460    25974828.880                   136498013.0690  106361980.5690

 23  3  1 17  2 24.0000000  0 10G07G08G10G16G18G21G23G26G27G31
  24886639.200    24886642.080                   130780176.9290  101906645.4570

  22909781.620    22909785.840    22909785.560   120391795.4660   93811846.4300
  89903076.7390
  22683461.420    22683465.700    22683464.820   119202944.1330   92885705.6530
  89015177.6420
  20336529.480    20336528.760                   106869277.4040   83274808.5100

  22321632.100    22321632.400    22321637.400   117301181.9690   91403642.2800
  87595245.7380
  24504968.460    24504997.020                   128774659.3600  100344005.3950

  22100752.300    22100753.680    22100758.200   116140560.0040   90499219.0220
  86728432.9910
  21110812.760    21110816.060    21110815.640   110938156.8790   86445377.5010
  82843531.4650
  20671747.360    20671749.320    20671749.720   108631019.3690   84647665.4770
  81120702.0690
  25975424.000    25975456.440                   136501311.0030  106364550.4060

 23  3  1 17  2 25.0000000  0 10G07G08G10G16G18G21G23G26G27G31
  24886258.440    24886261.340                   130778175.9930  101905086.2740

  22909307.060    22909311.280    22909310.980   120389301.6260   93809903.1800
  89901214.4640
  22682966.340    22682970.620    22682969.740   119200342.5180   92883678.4260
  89013234.8810
  20336488.780    20336488.060                   106869063.5420   83274641.8640

  22322157.840    22322158.120    22322163.140   117303944.7170   91405795.0710
  87597308.8270
  24504319.680    24504348.220                   128771250.2930  100341349.0100

  22100585.720    22100587.120    22100591.620   116139684.6330   90498536.9190
  86727779.3010
  21111238.040    21111241.340    21111240.920   110940391.7590   86447118.9650
  82845200.3670
  20671522.860    20671524.820    20671525.220   108629839.5970   84646746.1770
  81119821.0750
  25976051.480    25976083.940                   136504608.7110  106367120.0710

 23  3  1 17  2 26.0000000  0 10G07G08G10G16G18G21G23G26G27G31
  24885877.740    24885880.640                   130776175.5110  101903527.4570

  22908832.520    22908836.720    22908836.440   120386807.9280   93807960.0430
  89899352.2910
  22682471.320    22682475.620    22682474.720   119197741.2460   92881651.4650
  89011292.3710
  20336448.200    20336447.460                   106868850.2540   83274475.6690

  22322683.640    22322683.920    22322688.940   117306707.7280   91407948.0640
  87599372.1110
  24503671.000    24503699.480                   128767841.4980  100338692.8490

  22100419.260    22100420.660    22100425.160   116138809.8670   90497855.2870
  86727126.0690
  21111663.420    21111666.700    21111666.300   110942627.0800   86448860.7720
  82846869.5970
  20671298.400    20671300.360    20671300.760   108628660.1230   84645827.1060
  81118940.3030
  25976678.980    25976711.420                   136507906.2590  106369689.6300

 23  3  1 17  2 27.0000000  0 10G07G08G10G16G18G21G23G26G27G31
  24885497.160    24885500.060                   130774175.4970  101901969.0010

  22908358.020    22908362.200    22908361.940   120384314.3740   93806017.0140
  89897490.2270
  22681976.380    22681980.660    22681979.780   119195140.3400   92879624.7890
  89009350.1400
  20336407.720    20336406.980                   106868637.5460   83274309.9210

  22323209.460    22323209.760    22323214.780   117309471.0120   91410101.2750
  87601435.6140
  24503022.320    24503050.820                   128764432.9220  100336036.8650

  22100252.920    22100254.320    22100258.820   116137935.7390   90497174.1480
  86726473.3130
  21112088.880    21112092.160    21112091.760   110944862.8610   86450602.9370
  82848539.1760
  20671074.020    20671075.980    20671076.380   108627480.9670   84644908.2830
  81118059.7640
  25977306.440    25977338.880                   136511203.6200  106372259.0440

 23  3  1 17  2 28.0000000  0 10G07G08G10G16G18G21G23G26G27G31
  24885116.660    24885119.600                   130772176.0060  101900410.9430

  22907883.540    22907887.720    22907887.460   120381820.9960   93804074.1240
  89895628.2930
  22681481.520    22681485.800    22681484.940   119192539.8410   92877598.4260
  89007408.2170
  20336367.360    20336366.620                   106868425.4500   83274144.6490

  22323735.360    22323735.660    22323740.680   117312234.6490   91412254.7540
  87603499.3530
  24502373.640    24502402.180                   128761024.5370  100333381.0280

  22100086.700    22100088.100    22100092.620   116137062.2860   90496493.5360
  86725821.0590
  21112514.420    21112517.700    21112517.320   110947099.1470   86452345.4980
  82850209.1290
  20670849.700    20670851.660    20670852.060   108626302.1520   84643989.7300
  81117179.4840
  25977933.840    25977966.240                   136514500.7660  106374828.2870

 23  3  1 17  2 29.0000000  0 10G07G08G10G16G18G21G23G26G27G31
  24884736.260    24884739.240                   130770177.0590  101898853.3340

  22907409.120    22907413.300    22907413.040   120379327.8420   93802131.4150
  89893766.5320
  22680986.740    22680991.020    22680990.160   119189939.7760   92875572.4070
  89005466.6210
  20336327.140    20336326.400                   106868214.0320   83273979.9100

  22324261.340    22324261.620    22324266.660   117314998.6210   91414408.5010
  87605563.3720
  24501725.080    24501753.620                   128757616.5310  100330725.4880

  22099920.620    22099922.040    22099926.540   116136189.5380   90495813.4760
  86725169.3410
  21112940.080    21112943.360    21112942.980   110949335.9660   86454088.4730
  82851879.4830
  20670625.460    20670627.400    20670627.800   108625123.7340   84643071.4820
  81116299.4980
  25978561.260    25978593.620                   136517797.8780  106377397.5060

 23  3  1 17  2 30.0000000  0 10G07G08G10G16G18G21G23G26G27G31
  24884355.940    24884358.940                   130768178.5080  101897296.0370

  22906934.700    22906938.880    22906938.620   120376834.7950   93800188.7850
  89891904.8350
  22680492.000    22680496.300    22680495.440   119187340.0200   92873546.6260
  89003525.2450
  20336287.000    20336286.260                   106868003.1180   83273815.5640

  22324787.360    22324787.640    22324792.680   117317762.8360   91416562.4320
  87607627.5500
  24501076.500    24501105.040                   128754208.6330  100328070.0180

  22099754.640    22099756.060    22099760.580   116135317.3780   90495133.8710
  86724518.0510
  21113365.800    21113369.080    21113368.700   110951573.2000   86455831.7710
  82853550.1410
  20670401.260    20670403.200    20670403.600   108623945.5650   84642153.4290
  81115419.6930
  25979188.580    25979220.960                   136521094.6870  106379966.5000

 23  3  1 17  2 31.0000000  0 10G07G08G10G16G18G21G23G26G27G31
  24883975.700    24883978.760                   130766180.3470  101895739.0280

  22906460.280    22906464.440    22906464.200   120374341.7590   93798246.1620
  89890043.1560
  22679997.320    22680001.620    22680000.760   119184740.4830   92871521.0140
  89001584.0320
  20336246.940    20336246.200                   106867792.6720   83273651.5780

  22325313.400    22325313.680    22325318.720   117320527.2000   91418716.4800
  87609691.8440
  24500427.980    24500456.520                   128750800.8260  100325414.6540

  22099588.780    22099590.200    22099594.700   116134445.7100   90494454.6510
  86723867.1340
  21113791.600    21113794.880    21113794.500   110953810.7550   86457575.3180
  82855221.0360
  20670177.100    20670179.040    20670179.420   108622767.5680   84641235.5100
  81114540.0260
  25979815.840    25979848.260                   136524391.1790  106382535.2290

 23  3  1 17  2 32.0000000  0 10G07G08G10G16G18G21G23G26G27G31
  24883595.560    24883598.560                   130764182.6610  101894182.3970

  22905985.920    22905990.080    22905989.820   120371848.9200   93796303.6920
  89888181.6210
  22679502.720    22679507.000    22679506.160   119182141.3580   92869495.7260
  88999643.1370
  20336207.020    20336206.280                   106867582.8570   83273488.0860

  22325839.500    22325839.800    22325844.820   117323291.8900   91420870.7840
  87611756.3870
  24499779.520    24499808.040                   128747393.2960  100322759.4860

  22099423.020    22099424.460    22099428.960   116133574.7270   90493775.9650
  86723216.7250
  21114217.500    21114220.760    21114220.400   110956048.8190   86459319.2640
  82856892.3200
  20669953.000    20669954.940    20669955.320   108621589.9270   84640317.8710
  81113660.6170
  25980443.100    25980475.520                   136527687.5730  106385103.8870

 23  3  1 17  2 33.0000000  0 10G07G08G10G16G18G21G23G26G27G31
  24883215.460    24883218.500                   130762185.3400  101892626.0310

  22905511.540    22905515.700    22905515.460   120369356.0650   93794361.2070
  89886320.0870
  22679008.160    22679012.440    22679011.600   119179542.4750   92867470.6270
  88997702.4110
  20336167.180    20336166.420                   106867373.4840   83273324.9370

  22326365.640    22326365.940    22326370.960   117326056.7370   91423025.2120
  87613821.0380
  24499131.080    24499159.560                   128743985.8440  100320104.3760

  22099257.380    22099258.820    22099263.320   116132704.2380   90493097.6660
  86722566.6860
  21114643.460    21114646.700    21114646.360   110958287.2150   86461063.4660
  82858563.8450
  20669728.920    20669730.860    20669731.240   108620412.4550   84639400.3620
  81112781.3440
  25981070.260    25981102.720                   136530983.6370  106387672.2770

 23  3  1 17  2 34.0000000  0 10G07G08G10G16G18G21G23G26G27G31
  24882835.460    24882838.500                   130760188.4320  101891069.9970

  22905037.180    22905041.360    22905041.100   120366863.3050   93792418.8010
  89884458.6120
  22678513.660    22678517.940    22678517.100   119176943.8940   92865445.7650
  88995761.9200
  20336127.420    20336126.680                   106867164.6220   83273162.1900

  22326891.820    22326892.100    22326897.140   117328821.7820   91425179.7900
  87615885.8480
  24498482.660    24498511.120                   128740578.5320  100317449.3750

  22099091.840    22099093.280    22099097.780   116131834.3220   90492419.8100
  86721917.0740
  21115069.480    21115072.740    21115072.380   110960525.9960   86462807.9710
  82860235.6650
  20669504.900    20669506.840    20669507.220   108619235.2300   84638483.0460
  81111902.2470
  25981697.380    25981729.880                   136534279.4080  106390240.4110

 23  3  1 17  2 35.0000000  0 10G07G08G10G16G18G21G23G26G27G31
  24882455.540    24882458.560                   130758191.8340  101889514.2080

  22904562.800    22904567.000    22904566.740   120364370.5390   93790476.3970
  89882597.1370
  22678019.220    22678023.480    22678022.640   119174345.5230   92863421.0650
  88993821.5840
  20336087.760    20336087.020                   106866956.1860   83272999.7770

  22327418.020    22327418.300    22327423.340   117331586.9790   91427334.4890
  87617950.7620
  24497834.220    24497862.680                   128737171.3010  100314794.4410

  22098926.380    22098927.820    22098932.340   116130964.8870   90491742.3300
  86721267.8240
  21115495.560    21115498.820    21115498.480   110962765.0930   86464552.7220
  82861907.7160
  20669280.920    20669282.860    20669283.220   108618058.1600   84637565.8500
  81111023.2660
  25982324.460    25982356.880                   136537574.8070  106392808.2760

 23  3  1 17  2 36.0000000  0 10G07G08G10G16G18G21G23G26G27G31
  24882075.680    24882078.700                   130756195.7850  101887958.8530

  22904088.480    22904092.680    22904092.420   120361877.9950   93788534.1580
  89880735.8240
  22677524.820    22677529.100    22677528.260   119171747.5680   92861396.6900
  88991881.5590
  20336048.220    20336047.480                   106866748.4050   83272837.8670

  22327944.280    22327944.560    22327949.600   117334352.5120   91429489.4480
  87620015.9370
  24497185.880    24497214.300                   128733764.3460  100312139.7360

  22098761.060    22098762.520    22098767.040   116130096.1460   90491065.3900
  86720619.0980
  21115921.760    21115925.000    21115924.660   110965004.7110   86466297.8790
  82863580.1590
  20669057.000    20669058.940    20669059.300   108616881.4660   84636648.9450
  81110144.5680
  25982951.480    25982983.920                   136540870.1000  106395376.0700

 23  3  1 17  2 37.0000000  0 10G07G08G10G16G18G21G23G26G27G31
  24881695.960    24881699.000                   130754200.2950  101886403.9310

  22903614.240    22903618.420    22903618.160   120359385.7180   93786592.1240
  89878874.7060
  22677030.560    22677034.800    22677033.980   119169150.0960   92859372.6880
  88989941.8900
  20336008.800    20336008.060                   106866541.3120   83272676.5000

  22328470.620    22328470.900    22328475.960   117337118.4480   91431644.7230
  87622081.4030
  24496537.520    24496565.960                   128730357.7270  100309485.2520

  22098595.880    22098597.360    22098601.860   116129228.1580   90490389.0390
  86719970.9200
  21116348.040    21116351.300    21116350.980   110967244.9170   86468043.4920
  82865253.0360
  20668833.160    20668835.100    20668835.460   108615705.1890   84635732.3680
  81109266.1810
  25983578.540    25983610.940                   136544165.3620  106397943.8560

 23  3  1 17  2 38.0000000  0 10G07G08G10G16G18G21G23G26G27G31
  24881316.300    24881319.340                   130752205.2080  101884849.3280

  22903139.960    22903144.140    22903143.900   120356893.4570   93784650.1070
  89877013.6120
  22676536.320    22676540.560    22676539.740   119166552.8890   92857348.8920
  88988002.4170
  20335969.480    20335968.740                   106866334.7020   83272515.5030

  22328997.000    22328997.280    22329002.340   117339884.5570   91433800.1300
  87624147.0070
  24495889.240    24495917.680                   128726951.1920  100306830.8710

  22098430.820    22098432.280    22098436.800   116128360.6970   90489713.0960
  86719323.1480
  21116774.420    21116777.660    21116777.340   110969485.4640   86469789.3750
  82866926.1680
  20668609.360    20668611.300    20668611.660   108614529.1330   84634815.9610
  81108387.9540
  25984205.480    25984237.880                   136547460.2280  106400511.3200

 23  3  1 17  2 39.0000000  0 10G07G08G10G16G18G21G23G26G27G31
  24880936.740    24880939.780                   130750210.6430  101883295.1210

  22902665.740    22902669.920    22902669.660   120354401.3850   93782708.2370
  89875152.6550
  22676042.160    22676046.400    22676045.580   119163956.0790   92855325.4080
  88986063.2490
  20335930.280    20335929.540                   106866128.7100   83272354.9920

  22329523.440    22329523.720    22329528.760   117342650.9940   91435955.7980
  87626212.8490
  24495241.040    24495269.460                   128723544.9470  100304176.7030

  22098265.860    22098267.340    22098271.860   116127493.9130   90489037.6820
  86718675.8720
  21117200.880    21117204.100    21117203.800   110971726.5130   86471535.6430
  82868599.6830
  20668385.640    20668387.560    20668387.920   108613353.4060   84633899.8100
  81107509.9790
  25984832.420    25984864.820                   136550755.0220  106403078.7370

 23  3  1 17  2 40.0000000  0 10G07G08G10G16G18G21G23G26G27G31
  24880557.320    24880560.320                   130748216.6700  101881741.3680

  22902191.560    22902195.740    22902195.480   120351909.5940   93780766.5860
  89873291.8960
  22675548.080    22675552.320    22675551.500   119161359.7240   92853302.2800
  88984124.4200
  20335891.220    20335890.460                   106865923.4040   83272195.0130

  22330049.960    22330050.240    22330055.280   117345417.8220   91438111.7680
  87628278.9890
  24494592.860    24494621.280                   128720139.0030  100301522.7740

  22098101.060    22098102.540    22098107.060   116126627.8800   90488362.8540
  86718029.1620
  21117627.440    21117630.680    21117630.380   110973968.1380   86473282.3610
  82870273.6180
  20668161.980    20668163.900    20668164.260   108612178.1090   84632983.9980
  81106632.3170
  25985459.340    25985491.720                   136554049.6690  106405646.0400

 23  3  1 17  2 41.0000000  0 10G07G08G10G16G18G21G23G26G27G31
  24880178.120    24880181.120                   130746224.0290  101880188.6520

  22901717.580    22901721.760    22901721.520   120349418.8230   93778825.7310
  89871431.9180
  22675054.240    22675058.480    22675057.680   119158764.6220   92851280.1270
  88982186.5230
  20335852.420    20335851.680                   106865719.5660   83272036.1750

  22330576.700    22330576.980    22330582.020   117348185.8280   91440268.6560
  87630346.0070
  24493944.900    24493973.320                   128716734.1760  100298869.7340

  22097936.560    22097938.040    22097942.540   116125763.3640   90487689.2050
  86717383.5830
  21118054.260    21118057.500    21118057.200   110976211.1080   86475030.1320
  82871948.5690
  20667938.560    20667940.480    20667940.840   108611003.9970   84632069.1040
  81105755.5570
  25986086.440    25986118.780                   136557345.1070  106408213.9510

 23  3  1 17  2 42.0000000  0 10G07G08G10G16G18G21G23G26G27G31
  24879799.220    24879802.220                   130744232.7570  101878637.0120

  22901243.780    22901247.960    22901247.720   120346929.0660   93776885.6630
  89869572.6940
  22674560.640    22674564.880    22674564.060   119156170.7420   92849258.9250
  88980249.5380
  20335813.920    20335813.160                   106865517.1760   83271878.4700

  22331103.640    22331103.920    22331108.980   117350954.9720   91442426.4300
  87632413.8740
  24493297.120    24493325.540                   128713330.4190  100296217.5190

  22097772.320    22097773.820    22097778.320   116124900.3480   90487016.7270
  86716739.1230
  21118481.340    21118484.560    21118484.280   110978455.4100   86476778.9370
  82873624.5050
  20667715.340    20667717.260    20667717.620   108609831.0660   84631155.1310
  81104879.6660
  25986713.640    25986745.960                   136560641.1440  106410782.3340

 23  3  1 17  2 43.0000000  0 10G07G08G10G16G18G21G23G26G27G31
  24879420.380    24879423.340                   130742241.8580  101877085.6620

  22900770.020    22900774.180    22900773.960   120344439.3700   93774945.6440
  89867713.4970
  22674067.080    22674071.320    22674070.520   119153577.1450   92847237.9430
  88978312.7680
  20335775.500    20335774.740                   106865315.2810   83271721.1510

  22331630.640    22331630.920    22331635.960   117353724.3260   91444584.3660
  87634481.8900
  24492649.400    24492677.820                   128709926.7950  100293565.3980

  22097608.200    22097609.700    22097614.200   116124037.8860   90486344.6790
  86716095.0790
  21118908.500    21118911.720    21118911.440   110980700.0910   86478528.0370
  82875300.7210
  20667492.200    20667494.100    20667494.460   108608658.3650   84630241.3430
  81104003.9460
  25987340.740    25987373.100                   136563936.8740  106413350.4740

 23  3  1 17  2 44.0000000  0 10G07G08G10G16G18G21G23G26G27G31
  24879041.580    24879044.540                   130740251.3260  101875534.6070

  22900296.260    22900300.400    22900300.180   120341949.6990   93773005.6430
  89865854.3440
  22673573.580    22673577.820    22673577.020   119150983.8110   92845217.1680
  88976376.1890
  20335737.160    20335736.400                   106865113.8660   83271564.2040

  22332157.660    22332157.940    22332163.000   117356493.8630   91446742.4450
  87636550.0490
  24492001.700    24492030.100                   128706523.2980  100290913.3760

  22097444.180    22097445.680    22097450.180   116123175.9520   90485673.0440
  86715451.4330
  21119335.720    21119338.920    21119338.660   110982945.1290   86480277.4170
  82876977.2190
  20667269.080    20667270.980    20667271.340   108607485.8690   84629327.7120
  81103128.3870
  25987967.860    25988000.180                   136567232.4090  106415918.4690

 23  3  1 17  2 45.0000000  0 10G07G08G10G16G18G21G23G26G27G31
  24878662.900    24878665.880                   130738261.3340  101873983.9670

  22899822.520    22899826.660    22899826.460   120339460.2450   93771065.8120
  89863995.3250
  22673080.160    22673084.380    22673083.600   119148390.8850   92843196.7100
  88974439.9150
  20335698.960    20335698.200                   106864913.0890   83271407.7570

  22332684.740    22332685.040    22332690.080   117359263.7300   91448900.7840
  87638618.4580
  24491354.020    24491382.420                   128703120.0450  100288261.5150

  22097280.300    22097281.800    22097286.300   116122314.7070   90485001.9460
  86714808.2960
  21119763.020    21119766.240    21119765.980   110985190.6920   86482027.2040
  82878654.0890
  20667046.020    20667047.940    20667048.280   108606313.7360   84628414.3640
  81102253.0910
  25988594.900    25988627.220                   136570527.7340  106418486.2830

 23  3  1 17  2 46.0000000  0 10G07G08G10G16G18G21G23G26G27G31
  24878284.240    24878287.220                   130736271.5830  101872433.5100

  22899348.760    22899352.920    22899352.720   120336970.7060   93769125.9100
  89862136.2660
  22672586.780    22672590.980    22672590.200   119145798.0920   92841176.3560
  88972503.7490
  20335660.820    20335660.060                   106864712.6750   83271251.5880

  22333211.840    22333212.140    22333217.180   117362033.6530   91451059.1650
  87640686.9070
  24490706.360    24490734.800                   128699716.8290  100285609.7070

  22097116.480    22097117.980    22097122.480   116121453.8750   90484331.1700
  86714165.4700
  21120190.380    21120193.600    21120193.340   110987436.4710   86483777.1600
  82880331.1350
  20666823.000    20666824.900    20666825.240   108605141.6870   84627501.0770
  81101377.8600
  25989221.880    25989254.200                   136573822.6440  106421053.7740

 23  3  1 17  2 47.0000000  0 10G07G08G10G16G18G21G23G26G27G31
  24877905.660    24877908.620                   130734282.1050  101870883.2780

  22898875.000    22898879.140    22898878.960   120334481.0800   93767185.9480
  89860277.1360
  22672093.400    22672097.620    22672096.840   119143205.4440   92839156.1150
  88970567.6820
  20335622.740    20335621.980                   106864512.6080   83271095.6920

  22333738.960    22333739.240    22333744.300   117364803.6300   91453217.5860
  87642755.3940
  24490058.700    24490087.100                   128696313.5890  100282957.8630

  22096952.760    22096954.240    22096958.760   116120593.4520   90483660.7100
  86713522.9470
  21120617.800    21120621.000    21120620.740   110989682.4910   86485527.3080
  82882008.3560
  20666599.980    20666601.880    20666602.220   108603969.7150   84626587.8530
  81100502.6910
  25989848.760    25989881.080                   136577117.1520  106423620.9540

 23  3  1 17  2 48.0000000  0 10G07G08G10G16G18G21G23G26G27G31
  24877527.140    24877530.060                   130732292.9190  101869333.2610

  22898401.240    22898405.380    22898405.200   120331991.4390   93765245.9710
  89858418.0000
  22671600.080    22671604.280    22671603.500   119140613.0120   92837136.0400
  88968631.7790
  20335584.760    20335583.980                   106864312.9770   83270940.1390

  22334266.100    22334266.380    22334271.440   117367573.7460   91455376.1160
  87644823.9870
  24489411.100    24489439.460                   128692910.4390  100280306.1170

  22096789.120    22096790.600    22096795.120   116119733.5130   90482990.6280
  86712880.7840
  21121045.260    21121048.460    21121048.220   110991928.8220   86487277.6930
  82883685.8090
  20666376.980    20666378.880    20666379.240   108602797.9100   84625674.7610
  81099627.6390
  25990475.600    25990507.900                   136580411.3130  106426187.8570

 23  3  1 17  2 49.0000000  0 10G07G08G10G16G18G21G23G26G27G31
  24877148.680    24877151.620                   130730304.2220  101867783.6350

  22897927.500    22897931.640    22897931.460   120329501.9730   93763306.1320
  89856558.9770
  22671106.820    22671111.020    22671110.240   119138020.9210   92835116.2310
  88966696.1270
  20335546.880    20335546.100                   106864113.9190   83270785.0270

  22334793.280    22334793.560    22334798.620   117370344.1190   91457534.8480
  87646892.7760
  24488763.500    24488791.840                   128689507.4560  100277654.5030

  22096625.580    22096627.100    22096631.600   116118874.1960   90482321.0350
  86712239.0910
  21121472.800    21121476.000    21121475.760   110994175.6020   86489028.4310
  82885363.6010
  20666154.040    20666155.960    20666156.300   108601626.3920   84624761.8890
  81098752.8090
  25991102.400    25991134.660                   136583705.2580  106428754.6030

 23  3  1 17  2 50.0000000  0 10G07G08G10G16G18G21G23G26G27G31
  24876770.260    24876773.220                   130728315.6540  101866234.1050

  22897453.720    22897457.860    22897457.700   120327012.3160   93761366.1420
  89854699.8220
  22670613.560    22670617.760    22670617.000   119135428.8750   92833096.4590
  88964760.5170
  20335509.040    20335508.260                   106863915.1210   83270630.1220

  22335320.460    22335320.740    22335325.800   117373114.4710   91459693.5600
  87648961.5380
  24488115.880    24488144.240                   128686104.3930  100275002.8190

  22096462.120    22096463.640    22096468.120   116118015.1950   90481651.6850
  86711597.6310
  21121900.380    21121903.580    21121903.340   110996422.5290   86490779.2810
  82887041.4950
  20665931.100    20665933.020    20665933.360   108600454.8690   84623849.0160
  81097877.9690
  25991729.120    25991761.340                   136586998.6680  106431320.9410

 23  3  1 17  2 51.0000000  0 10G07G08G10G16G18G21G23G26G27G31
  24876391.940    24876394.900                   130726327.5450  101864684.9310

  22896979.980    22896984.100    22896983.960   120324522.7540   93759426.2250
  89852840.7330
  22670120.360    22670124.560    22670123.800   119132837.1490   92831076.9380
  88962825.1480
  20335471.320    20335470.540                   106863716.8510   83270475.6280

  22335847.680    22335847.980    22335853.020   117375885.0340   91461852.4400
  87651030.4680
  24487468.280    24487496.640                   128682701.4550  100272351.2320

  22096298.760    22096300.280    22096304.780   116117156.7720   90480982.7840
  86710956.6020
  21122328.040    21122331.240    21122331.000   110998669.8580   86492530.4490
  82888719.6960
  20665708.220    20665710.140    20665710.460   108599283.6080   84622936.3470
  81097003.3200
  25992355.760    25992387.980                   136590291.8570  106433887.1090

 23  3  1 17  2 52.0000000  0 10G07G08G10G16G18G21G23G26G27G31
  24876013.720    24876016.640                   130724339.8940  101863136.1120

  22896506.260    22896510.400    22896510.240   120322033.3670   93757486.4480
  89850981.7830
  22669627.240    22669631.440    22669630.680   119130245.8100   92829057.7170
  88960890.0550
  20335433.700    20335432.920                   106863519.1700   83270321.5880

  22336374.960    22336375.260    22336380.300   117378655.9190   91464011.5730
  87653099.6280
  24486820.700    24486849.100                   128679298.7540  100269699.8200

  22096135.540    22096137.060    22096141.540   116116299.0030   90480314.3990
  86710316.0650
  21122755.780    21122758.960    21122758.740   111000917.6600   86494281.9810
  82890398.2490
  20665485.400    20665487.300    20665487.640   108598112.6600   84622023.9200
  81096128.9200
  25992982.400    25993014.600                   136593584.8980  106436453.1650

 23  3  1 17  2 53.0000000  0 10G07G08G10G16G18G21G23G26G27G31
  24875635.500    24875638.400                   130722352.4550  101861587.4500

  22896032.500    22896036.640    22896036.500   120319543.8360   93755546.5530
  89849122.7260
  22669134.140    22669138.320    22669137.580   119127654.5330   92827038.5440
  88958955.0120
  20335396.140    20335395.360                   106863321.7780   83270167.7800

  22336902.220    22336902.540    22336907.580   117381426.7760   91466170.6820
  87655168.7790
  24486173.160    24486201.520                   128675896.0190  100267048.4030

  22095972.360    22095973.900    22095978.380   116115441.5750   90479646.2750
  86709675.7820
  21123183.560    21123186.740    21123186.520   111003165.6270   86496033.6420
  82892076.9260
  20665262.580    20665264.480    20665264.820   108596941.7330   84621111.5140
  81095254.5310
  25993608.920    25993641.120                   136596877.3990  106439018.8090

 23  3  1 17  2 54.0000000  0 10G07G08G10G16G18G21G23G26G27G31
  24875257.320    24875260.280                   130720365.0980  101860038.8560

  22895558.720    22895562.860    22895562.720   120317054.1260   93753606.5200
  89847263.5190
  22668641.040    22668645.220    22668644.480   119125063.2600   92825019.3740
  88957019.9800
  20335358.600    20335357.840                   106863124.6140   83270014.1440

  22337429.480    22337429.800    22337434.860   117384197.5540   91468329.7280
  87657237.8720
  24485525.580    24485553.920                   128672493.1550  100264396.8660

  22095809.260    22095810.800    22095815.280   116114584.4350   90478978.3750
  86709035.7070
  21123611.360    21123614.540    21123614.320   111005413.7030   86497785.3890
  82893755.6840
  20665039.740    20665041.640    20665041.980   108595770.7640   84620199.0700
  81094380.1040
  25994235.360    25994267.540                   136600169.4130  106441584.0580

 23  3  1 17  2 55.0000000  0 10G07G08G10G16G18G21G23G26G27G31
  24874879.200    24874882.140                   130718378.0480  101858490.5180

  22895084.920    22895089.080    22895088.940   120314564.3620   93751666.4450
  89845404.2870
  22668147.960    22668152.140    22668151.400   119122472.1780   92823000.3490
  88955085.0750
  20335321.160    20335320.380                   106862927.8470   83269860.8210

  22337956.760    22337957.080    22337962.140   117386968.4500   91470488.8660
  87659307.0380
  24484877.980    24484906.320                   128669090.2590  100261745.2880

  22095646.220    22095647.780    22095652.240   116113727.7400   90478310.8190
  86708395.9680
  21124039.200    21124042.380    21124042.180   111007662.0540   86499537.3480
  82895434.6430
  20664816.940    20664818.840    20664819.180   108594599.9130   84619286.7190
  81093505.7710
  25994861.680    25994893.880                   136603461.0310  106444148.9790

 23  3  1 17  2 56.0000000  0 10G07G08G10G16G18G21G23G26G27G31
  24874501.160    24874504.120                   130716391.4900  101856942.5460

  22894611.160    22894615.320    22894615.180   120312074.7750   93749726.5140
  89843545.1820
  22667654.980    22667659.140    22667658.400   119119881.4850   92820981.6340
  88953150.4770
  20335283.840    20335283.060                   106862731.6770   83269707.9590

  22338484.100    22338484.440    22338489.480   117389739.6430   91472648.2350
  87661376.4370
  24484230.460    24484258.740                   128665687.6630  100259093.9490

  22095483.320    22095484.880    22095489.340   116112871.7050   90477643.7830
  86707756.7250
  21124467.140    21124470.320    21124470.120   111009910.8960   86501289.6930
  82897113.9720
  20664594.200    20664596.100    20664596.440   108593429.4040   84618374.6360
  81092631.6920
  25995487.960    25995520.180                   136606752.4300  106446713.7220

 23  3  1 17  2 57.0000000  0 10G07G08G10G16G18G21G23G26G27G31
  24874123.220    24874126.140                   130714405.4800  101855394.9920

  22894137.460    22894141.620    22894141.460   120309585.3920   93747786.7450
  89841686.2310
  22667162.060    22667166.220    22667165.500   119117291.2090   92818963.2390
  88951216.1900
  20335246.620    20335245.840                   106862536.1500   83269555.6030

  22339011.500    22339011.840    22339016.880   117392511.1700   91474807.8680
  87663446.0840
  24483583.000    24483611.260                   128662285.3430  100256442.8760

  22095320.560    22095322.120    22095326.580   116112016.3540   90476977.2780
  86707117.9940
  21124895.180    21124898.360    21124898.160   111012160.2460   86503042.4330
  82898793.6810
  20664371.520    20664373.420    20664373.760   108592259.2410   84617462.8230
  81091757.8730
  25996114.280    25996146.460                   136610043.7220  106449278.3820

 23  3  1 17  2 58.0000000  0 10G07G08G10G16G18G21G23G26G27G31
  24873745.340    24873748.320                   130712419.6730  101853847.6160

  22893663.720    22893667.880    22893667.740   120307095.9000   93745846.8850
  89839827.2050
  22666669.180    22666673.320    22666672.600   119114701.0680   92816944.9510
  88949281.9920
  20335209.480    20335208.700                   106862340.9540   83269403.5020

  22339538.920    22339539.260    22339544.300   117395282.7410   91476967.5340
  87665515.7640
  24482935.540    24482963.740                   128658882.9810  100253791.7030

  22095157.860    22095159.440    22095163.880   116111161.4170   90476311.0960
  86706479.5620
  21125323.260    21125326.420    21125326.240   111014409.8160   86504795.3450
  82900473.5570
  20664148.860    20664150.760    20664151.100   108591089.1760   84616551.0840
  81090884.1210
  25996740.480    25996772.660                   136613334.5720  106451842.6990

 23  3  1 17  2 59.0000000  0 10G07G08G10G16G18G21G23G26G27G31
  24873367.520    24873370.500                   130710434.3160  101852300.5740

  22893190.000    22893194.160    22893194.020   120304606.5000   93743907.0890
  89837968.2390
  22666176.340    22666180.460    22666179.760   119112111.2050   92814926.8810
  88947348.0130
  20335172.440    20335171.640                   106862146.2920   83269251.8170

  22340066.380    22340066.720    22340071.760   117398054.5330   91479127.3700
  87667585.6040
  24482288.080    24482316.280                   128655480.7790  100251140.7210

  22094995.260    22094996.860    22095001.300   116110307.0350   90475645.3430
  86705841.5550
  21125751.420    21125754.580    21125754.400   111016659.7890   86506548.5680
  82902153.7330
  20663926.260    20663928.140    20663928.480   108589919.3420   84615639.5270
  81090010.5460
  25997366.620    25997398.820                   136616625.1390  106454406.7890

 23  3  1 17  3  0.0000000  0 10G07G08G10G16G18G21G23G26G27G31
  24872989.860    24872992.820                   130708449.6490  101850754.0770

  22892716.340    22892720.500    22892720.360   120302117.4420   93741967.5680
  89836109.5310
  22665683.620    22665687.740    22665687.040   119109521.9280   92812909.2660
  88945414.4600
  20335135.540    20335134.760                   106861952.4100   83269100.7400

  22340593.920    22340594.260    22340599.300   117400826.8030   91481287.5790
  87669655.8080
  24481640.740    24481668.900                   128652079.0310  100248490.0520

  22094832.840    22094834.440    22094838.880   116109453.4990   90474980.2520
  86705204.1730
  21126179.700    21126182.860    21126182.680   111018910.4260   86508302.3120
  82903834.3960
  20663703.740    20663705.640    20663705.960   108588750.0230   84614728.3700
  81089137.3510
  25997992.780    25998024.980                   136619915.7320  106456970.9140

 23  3  1 17  3  1.0000000  0 10G07G08G10G16G18G21G23G26G27G31
  24872612.260    24872615.200                   130706465.3980  101849207.9190

  22892242.700    22892246.860    22892246.740   120299628.4870   93740028.1260
  89834250.8990
  22665190.940    22665195.060    22665194.380   119106932.9590   92810891.8920
  88943481.1450
  20335098.740    20335097.960                   106861759.0670   83268950.0850

  22341121.520    22341121.860    22341126.900   117403599.3210   91483447.9840
  87671726.1910
  24480993.360    24481021.540                   128648677.4360  100245839.5360

  22094670.540    22094672.120    22094676.560   116108600.5490   90474315.6200
  86704567.2370
  21126608.060    21126611.220    21126611.060   111021161.4780   86510056.3740
  82905515.3760
  20663481.280    20663483.160    20663483.500   108587580.9670   84613817.4190
  81088264.3560
  25998618.900    25998651.100                   136623206.1350  106459534.9040

 23  3  1 17  3  2.0000000  0 10G07G08G10G16G18G21G23G26G27G31
  24872234.740    24872237.700                   130704481.6480  101847662.1520

  22891769.100    22891773.240    22891773.140   120297139.6940   93738088.8130
  89832392.3760
  22664698.340    22664702.460    22664701.780   119104344.3650   92808874.8100
  88941548.1100
  20335062.060    20335061.280                   106861566.3230   83268799.8930

  22341649.160    22341649.520    22341654.560   117406372.1400   91485608.6230
  87673796.8010
  24480346.080    24480374.220                   128645276.0460  100243189.1140

  22094508.340    22094509.940    22094514.380   116107748.2560   90473651.4950
  86703930.7900
  21127036.520    21127039.680    21127039.500   111023413.0090   86511810.8130
  82907196.7140
  20663258.880    20663260.760    20663261.100   108586412.2340   84612906.7180
  81087391.6070
  25999244.960    25999277.160                   136626496.2680  106462098.6790

 23  3  1 17  3  3.0000000  0 10G07G08G10G16G18G21G23G26G27G31
  24871857.320    24871860.240                   130702498.2290  101846116.6310

  22891295.500    22891299.640    22891299.540   120294650.8990   93736149.5000
  89830533.8770
  22664205.800    22664209.900    22664209.240   119101756.0080   92806857.9120
  88939615.2520
  20335025.460    20335024.680                   106861374.0300   83268650.0570

  22342176.840    22342177.200    22342182.240   117409145.0880   91487769.3570
  87675867.5170
  24479698.800    24479726.920                   128641874.7380  100240538.7830

  22094346.240    22094347.860    22094352.280   116106896.4650   90472987.7660
  86703294.7140
  21127465.040    21127468.180    21127468.020   111025664.8620   86513565.5070
  82908878.2930
  20663036.500    20663038.400    20663038.720   108585243.6880   84611996.1660
  81086518.9930
  25999870.960    25999903.160                   136629786.1410  106464662.2590

 23  3  1 17  3  4.0000000  0 10G07G08G10G16G18G21G23G26G27G31
  24871479.960    24871482.860                   130700515.2500  101844571.4560

  22890821.940    22890826.060    22890825.960   120292162.2400   93734210.2900
  89828675.4710
  22663713.320    22663717.400    22663716.740   119099167.9820   92804841.2730
  88937682.6390
  20334988.980    20334988.200                   106861182.2850   83268500.6470

  22342704.560    22342704.920    22342709.960   117411918.2970   91489930.2950
  87677938.4130
  24479051.560    24479079.660                   128638473.6760  100237888.6440

  22094184.260    22094185.880    22094190.300   116106045.2780   90472324.5050
  86702659.0900
  21127893.640    21127896.780    21127896.620   111027917.1440   86515320.5270
  82910560.1920
  20662814.180    20662816.080    20662816.400   108584075.4060   84611085.8170
  81085646.5760
  26000496.940    26000529.140                   136633075.7940  106467225.6680

 23  3  1 17  3  5.0000000  0 10G07G08G10G16G18G21G23G26G27G31
  24871102.700    24871105.640                   130698532.7190  101843026.6340

  22890348.360    22890352.500    22890352.400   120289673.6600   93732271.1340
  89826817.1220
  22663220.880    22663224.980    22663224.320   119096580.2790   92802824.8830
  88935750.2690
  20334952.600    20334951.800                   106860991.0700   83268351.6480

  22343232.320    22343232.700    22343237.720   117414691.7420   91492091.4210
  87680009.4880
  24478404.340    24478432.400                   128635072.7120  100235238.5770

  22094022.400    22094024.020    22094028.420   116105194.6820   90471661.7040
  86702023.9040
  21128322.300    21128325.440    21128325.300   111030169.8330   86517075.8700
  82912242.3970
  20662591.920    20662593.800    20662594.140   108582907.3880   84610175.6730
  81084774.3600
  26001122.860    26001155.080                   136636365.1650  106469788.8490

 23  3  1 17  3  6.0000000  0 10G07G08G10G16G18G21G23G26G27G31
  24870725.480    24870728.340                   130696550.3730  101841481.9420

  22889874.780    22889878.940    22889878.820   120287184.9910   93730331.9140
  89824958.7000
  22662728.460    22662732.560    22662731.920   119093992.6840   92800808.5810
  88933817.9800
  20334916.280    20334915.480                   106860800.1730   83268202.9010

  22343760.100    22343760.460    22343765.500   117417465.2050   91494252.5610
  87682080.5770
  24477757.140    24477785.200                   128631671.7820  100232588.5550

  22093860.600    22093862.220    22093866.620   116104344.4490   90470999.1860
  86701388.9940
  21128751.020    21128754.160    21128754.020   111032422.7300   86518831.3740
  82913924.7510
  20662369.660    20662371.540    20662371.880   108581739.4220   84609265.5720
  81083902.1740
  26001748.720    26001780.920                   136639654.0970  106472351.6840

 23  3  1 17  3  7.0000000  0 10G07G08G10G16G18G21G23G26G27G31
  24870348.320    24870351.180                   130694568.4050  101839937.5490

  22889401.220    22889405.360    22889405.260   120284696.3850   93728392.7420
  89823100.3240
  22662236.120    22662240.200    22662239.560   119091405.3700   92798792.4980
  88931885.9040
  20334880.040    20334879.240                   106860609.7720   83268054.5350

  22344287.900    22344288.280    22344293.320   117420238.8550   91496413.8460
  87684151.8090
  24477109.960    24477138.000                   128628270.9200  100229938.6080

  22093698.900    22093700.540    22093704.940   116103494.7780   90470337.1050
  86700754.4990
  21129179.800    21129182.940    21129182.800   111034675.9920   86520587.1620
  82915607.3750
  20662147.460    20662149.340    20662149.660   108580571.6720   84608355.6390
  81083030.1580
  26002374.520    26002406.720                   136642942.7450  106474914.3020

 23  3  1 17  3  8.0000000  0 10G07G08G10G16G18G21G23G26G27G31
  24869971.300    24869974.140                   130692587.1460  101838393.7050

  22888927.720    22888931.840    22888931.760   120282208.0940   93726453.8180
  89821242.1940
  22661743.860    22661747.960    22661747.320   119088818.6180   92796776.8510
  88929954.2350
  20334843.960    20334843.160                   106860420.1280   83267906.7610

  22344815.800    22344816.180    22344821.200   117423012.9590   91498575.4860
  87686223.3820
  24476462.840    24476490.860                   128624870.4860  100227288.9850

  22093537.380    22093539.020    22093543.400   116102645.9160   90469675.6540
  86700120.6090
  21129608.700    21129611.840    21129611.700   111036929.8850   86522343.4400
  82917290.4770
  20661925.320    20661927.200    20661927.540   108579404.4050   84607446.0820
  81082158.4940
  26003000.320    26003032.480                   136646231.3180  106477476.8580

 23  3  1 17  3  9.0000000  0 10G07G08G10G16G18G21G23G26G27G31
  24869594.400    24869597.220                   130690606.5520  101836850.3810

  22888454.280    22888458.420    22888458.340   120279720.1950   93724515.2000
  89819384.3450
  22661251.740    22661255.800    22661255.180   119086232.4470   92794761.6570
  88928023.0110
  20334808.020    20334807.220                   106860231.2890   83267759.6150

  22345343.800    22345344.180    22345349.200   117425787.5910   91500737.5350
  87688295.3360
  24475815.820    24475843.820                   128621470.4910  100224639.6830

  22093376.000    22093377.640    22093382.020   116101797.9220   90469014.8830
  86699487.3610
  21130037.740    21130040.860    21130040.740   111039184.4710   86524100.2610
  82918974.0930
  20661703.300    20661705.180    20661705.500   108578237.6770   84606536.9450
  81081287.2360
  26003626.120    26003658.280                   136649520.0110  106480039.5150

 23  3  1 17  3 10.0000000  0 10G07G08G10G16G18G21G23G26G27G31
  24869217.560    24869220.380                   130688626.3100  101835307.3500

  22887980.840    22887984.980    22887984.900   120277232.2980   93722576.5790
  89817526.5080
  22660759.640    22660763.720    22660763.100   119083646.5040   92792746.6370
  88926091.9500
  20334772.180    20334771.360                   106860042.8960   83267612.8150

  22345871.820    22345872.220    22345877.220   117428562.3550   91502899.6870
  87690367.4020
  24475168.800    24475196.760                   128618070.5800  100221990.4430

  22093214.720    22093216.360    22093220.740   116100950.4180   90468354.4950
  86698854.4930
  21130466.840    21130469.960    21130469.840   111041439.3860   86525857.3370
  82920657.9580
  20661481.320    20661483.180    20661483.520   108577071.1350   84605627.9520
  81080416.1170
  26004251.820    26004284.000                   136652808.3180  106482601.8750

 23  3  1 17  3 11.0000000  0 10G07G08G10G16G18G21G23G26G27G31
  24868840.820    24868843.660                   130686646.4310  101833764.5970

  22887507.400    22887511.540    22887511.480   120274744.4640   93720638.0110
  89815668.7160
  22660267.600    22660271.660    22660271.060   119081060.8380   92790731.8380
  88924161.0970
  20334736.420    20334735.600                   106859854.9970   83267466.3980

  22346399.860    22346400.260    22346405.280   117431337.3080   91505061.9880
  87692439.6050
  24474521.820    24474549.760                   128614670.8060  100219341.2910

  22093053.540    22093055.200    22093059.560   116100103.4560   90467694.5250
  86698222.0290
  21130896.000    21130899.120    21130899.000   111043694.6580   86527614.6900
  82922342.0930
  20661259.360    20661261.240    20661261.580   108575904.7930   84604719.1140
  81079545.1530
  26004877.480    26004909.680                   136656096.3750  106485164.0310

 23  3  1 17  3 12.0000000  0 10G07G08G10G16G18G21G23G26G27G31
  24868464.220    24868467.060                   130684667.3270  101832222.4340

  22887034.060    22887038.220    22887038.160   120272257.0830   93718699.7940
  89813811.2460
  22659775.680    22659779.740    22659779.140   119078475.8040   92788717.5280
  88922230.7290
  20334700.820    20334700.000                   106859667.9570   83267320.6550

  22346928.020    22346928.440    22346933.460   117434112.8160   91507224.7210
  87694512.2240
  24473874.920    24473902.820                   128611271.5390  100216692.5730

  22092892.540    22092894.220    22092898.560   116099257.4170   90467035.2770
  86697590.2500
  21131325.300    21131328.420    21131328.320   111045950.6760   86529372.6260
  82924026.7800
  20661037.520    20661039.400    20661039.740   108574739.0530   84603810.7470
  81078674.6370
  26005503.140    26005535.360                   136659384.4670  106487726.2110

 23  3  1 17  3 13.0000000  0 10G07G08G10G16G18G21G23G26G27G31
  24868087.620    24868090.480                   130682688.4380  101830680.4400

  22886560.700    22886564.860    22886564.800   120269769.5670   93716761.4720
  89811953.6990
  22659283.780    22659287.840    22659287.240   119075890.8940   92786703.3150
  88920300.4370
  20334665.300    20334664.460                   106859481.2320   83267175.1560

  22347456.200    22347456.600    22347461.620   117436888.3470   91509387.4700
  87696584.8610
  24473228.020    24473255.900                   128607872.2040  100214043.7830

  22092731.620    22092733.300    22092737.640   116098411.7550   90466376.3210
  86696958.7460
  21131754.640    21131757.760    21131757.660   111048206.8910   86531130.7140
  82925711.6120
  20660815.700    20660817.580    20660817.900   108573573.3520   84602902.4100
  81077804.1440
  26006128.760    26006160.960                   136662672.1480  106490288.0850

 23  3  1 17  3 14.0000000  0 10G07G08G10G16G18G21G23G26G27G31
  24867711.140    24867714.020                   130680710.0140  101829138.7990

  22886087.380    22886091.520    22886091.480   120267282.2300   93714823.2930
  89810096.2860
  22658791.960    22658796.000    22658795.420   119073306.3310   92784689.3720
  88918370.4160
  20334629.880    20334629.040                   106859295.1150   83267030.1290

  22347984.420    22347984.820    22347989.840   117439664.1690   91511550.4490
  87698657.7180
  24472581.160    24472609.020                   128604473.1050  100211395.2010

  22092570.800    22092572.500    22092576.820   116097566.7380   90465717.8690
  86696327.7280
  21132184.080    21132187.200    21132187.100   111050463.5740   86532889.1680
  82927396.8000
  20660593.940    20660595.820    20660596.140   108572407.9740   84601994.3240
  81076933.8980
  26006754.320    26006786.520                   136665959.5490  106492849.7310

 23  3  1 17  3 15.0000000  0 10G07G08G10G16G18G21G23G26G27G31
  24867334.780    24867337.600                   130678732.1370  101827597.6020

  22885614.100    22885618.240    22885618.200   120264795.0770   93712885.2520
  89808238.9940
  22658300.200    22658304.240    22658303.680   119070722.1780   92782675.7500
  88916440.6970
  20334594.580    20334593.740                   106859109.6040   83266885.5730

  22348512.700    22348513.120    22348518.120   117442440.2920   91513713.6590
  87700730.7980
  24471934.320    24471962.180                   128601074.2530  100208746.8000

  22092410.140    22092411.820    22092416.140   116096722.3720   90465059.9220
  86695697.2030
  21132613.600    21132616.720    21132616.620   111052720.7490   86534648.0030
  82929082.3500
  20660372.240    20660374.100    20660374.440   108571242.9360   84601086.5040
  81076063.9040
  26007379.860    26007412.040                   136669246.8330  106495411.2950

 23  3  1 17  3 16.0000000  0 10G07G08G10G16G18G21G23G26G27G31
  24866958.460    24866961.320                   130676754.6860  101826056.7210

  22885140.820    22885144.980    22885144.920   120262308.0500   93710947.3130
  89806381.7910
  22657808.520    22657812.560    22657811.980   119068138.3660   92780662.3940
  88914511.2330
  20334559.380    20334558.540                   106858924.6350   83266741.4470

  22349041.040    22349041.440    22349046.460   117445216.6900   91515877.0860
  87702804.0750
  24471287.540    24471315.420                   128597675.6170  100206098.5880

  22092249.580    22092251.260    22092255.580   116095878.6310   90464402.4660
  86695067.1390
  21133043.200    21133046.320    21133046.240   111054978.3620   86536407.1820
  82930768.2300
  20660150.600    20660152.460    20660152.800   108570078.1780   84600178.9020
  81075194.1160
  26008005.360    26008037.580                   136672534.0210  106497972.7830

 23  3  1 17  3 17.0000000  0 10G07G08G10G16G18G21G23G26G27G31
  24866582.280    24866585.100                   130674777.7940  101824516.2940

  22884667.580    22884671.740    22884671.700   120259821.2300   93709009.5340
  89804524.7640
  22657316.900    22657320.940    22657320.380   119065554.9880   92778649.3790
  88912582.0910
  20334524.300    20334523.460                   106858740.3270   83266597.8290

  22349569.440    22349569.840    22349574.860   117447993.4240   91518040.7760
  87704877.6080
  24470640.820    24470668.660                   128594277.2590  100203450.5610

  22092089.140    22092090.840    22092095.140   116095035.5970   90463745.5560
  86694437.6030
  21133472.920    21133476.020    21133475.940   111057236.4980   86538166.7690
  82932454.4990
  20659929.020    20659930.880    20659931.220   108568913.8010   84599271.5960
  81074324.6190
  26008630.800    26008663.040                   136675820.9620  106500534.0550

 23  3  1 17  3 18.0000000  0 10G07G08G10G16G18G21G23G26G27G31
  24866206.180    24866209.060                   130672801.3800  101822976.2500

  22884194.380    22884198.540    22884198.500   120257334.5610   93707071.8750
  89802667.8380
  22656825.360    22656829.400    22656828.860   119062971.9860   92776636.6560
  88910653.2240
  20334489.340    20334488.500                   106858556.6090   83266454.6700

  22350097.880    22350098.280    22350103.300   117450770.4270   91520204.6720
  87706951.3460
  24469994.120    24470022.000                   128590879.0900  100200802.7160

  22091928.840    22091930.540    22091934.840   116094193.1970   90463089.1420
  86693808.5310
  21133902.720    21133905.820    21133905.740   111059495.0910   86539926.7100
  82934141.1120
  20659707.500    20659709.360    20659709.700   108567749.7300   84598364.5310
  81073455.3430
  26009256.240    26009288.480                   136679107.7370  106503095.2010

 23  3  1 17  3 19.0000000  0 10G07G08G10G16G18G21G23G26G27G31
  24865830.180    24865833.060                   130670825.4870  101821436.5910

  22883721.220    22883725.400    22883725.360   120254848.1490   93705134.4130
  89800811.1010
  22656333.920    22656337.960    22656337.400   119060389.4280   92774624.2770
  88908724.7000
  20334454.500    20334453.660                   106858373.5600   83266312.0360

  22350626.400    22350626.800    22350631.840   117453547.8130   91522368.8660
  87709025.3740
  24469347.500    24469375.340                   128587481.2710  100198155.1010

  22091768.660    22091770.380    22091774.660   116093351.5190   90462433.2930
  86693180.0170
  21134332.620    21134335.720    21134335.640   111061754.2330   86541687.0800
  82935828.1320
  20659486.060    20659487.920    20659488.260   108566586.0700   84597457.7840
  81072586.3790
  26009881.620    26009913.880                   136682394.3650  106505656.2330

 23  3  1 17  3 20.0000000  0 10G07G08G10G16G18G21G23G26G27G31
  24865454.240    24865457.120                   130668850.0060  101819897.2590

  22883248.080    22883252.240    22883252.220   120252361.7630   93703196.9760
  89798954.3910
  22655842.520    22655846.540    22655846.020   119057807.1220   92772612.0920
  88906796.3640
  20334419.760    20334418.920                   106858190.9950   83266169.7800

  22351154.960    22351155.360    22351160.380   117456325.3850   91524533.2070
  87711099.5270
  24468700.900    24468728.720                   128584083.5550  100195507.5870

  22091608.600    22091610.320    22091614.580   116092510.3820   90461777.8620
  86692551.8920
  21134762.580    21134765.680    21134765.620   111064013.7360   86543447.7290
  82937515.4170
  20659264.660    20659266.520    20659266.860   108565422.6110   84596551.1940
  81071717.5610
  26010506.980    26010539.240                   136685680.7610  106508217.0940

 23  3  1 17  3 21.0000000  0 10G07G08G10G16G18G21G23G26G27G31
  24865078.420    24865081.320                   130666875.0720  101818358.3470

  22882774.960    22882779.120    22882779.100   120249875.5690   93701259.6820
  89797097.8150
  22655351.200    22655355.220    22655354.700   119055225.2650   92770600.2580
  88904868.3430
  20334385.140    20334384.300                   106858009.0550   83266028.0090

  22351683.580    22351683.980    22351689.000   117459103.2840   91526697.8050
  87713173.9260
  24468054.360    24468082.140                   128580686.1060  100192860.2530

  22091448.680    22091450.400    22091454.640   116091669.9390   90461122.9760
  86691924.2860
  21135192.660    21135195.740    21135195.680   111066273.7530   86545208.7820
  82939203.0900
  20659043.340    20659045.200    20659045.520   108564259.5160   84595644.8860
  81070849.0210
  26011132.300    26011164.560                   136688966.9080  106510777.7550

 23  3  1 17  3 22.0000000  0 10G07G08G10G16G18G21G23G26G27G31
  24864702.720    24864705.600                   130664900.7130  101816819.8960

  22882301.880    22882306.060    22882306.040   120247389.6190   93699322.5820
  89795241.4380
  22654859.980    22654863.980    22654863.480   119052643.8580   92768588.7740
  88902940.6820
  20334350.660    20334349.800                   106857827.8170   83265886.7860

  22352212.260    22352212.660    22352217.700   117461881.5610   91528862.6940
  87715248.6210
  24467407.900    24467435.620                   128577289.0200  100190213.1990

  22091288.880    22091290.600    22091294.840   116090830.2370   90460468.6620
  86691297.2400
  21135622.820    21135625.920    21135625.860   111068534.3220   86546970.2640
  82940891.1820
  20658822.080    20658823.940    20658824.280   108563096.8320   84594738.8990
  81069980.7820
  26011757.600    26011789.840                   136692253.0110  106513338.3890

 23  3  1 17  3 23.0000000  0 10G07G08G10G16G18G21G23G26G27G31
  24864327.040    24864329.900                   130662926.5750  101815281.6000

  22881828.800    22881833.000    22881832.980   120244903.5800   93697385.4110
  89793384.9760
  22654368.760    22654372.760    22654372.260   119050062.5370   92766577.3590
  88901013.0720
  20334316.220    20334315.380                   106857646.8650   83265745.7850

  22352740.960    22352741.360    22352746.400   117464659.8450   91531027.5910
  87717323.3040
  24466761.420    24466789.100                   128573891.8230  100187566.0540

  22091129.160    22091130.880    22091135.120   116089990.8760   90459814.6150
  86690670.4470
  21136053.040    21136056.120    21136056.060   111070795.0860   86548731.8960
  82942579.4060
  20658600.840    20658602.700    20658603.020   108561934.1760   84593832.9370
  81069112.5680
  26012382.820    26012415.060                   136695538.6430  106515898.6750

 23  3  1 17  3 24.0000000  0 10G07G08G10G16G18G21G23G26G27G31
  24863951.420    24863954.300                   130660952.7260  101813743.5360

  22881355.700    22881359.900    22881359.900   120242417.5200   93695448.2250
  89791528.5160
  22653877.600    22653881.600    22653881.100   119047481.4470   92764566.1270
  88899085.6510
  20334281.860    20334281.020                   106857466.3730   83265605.1410

  22353269.680    22353270.080    22353275.120   117467438.2800   91533192.6030
  87719398.1070
  24466114.940    24466142.580                   128570494.7130  100184919.0130

  22090969.520    22090971.260    22090975.480   116089152.0260   90459160.9670
  86690044.0400
  21136483.300    21136486.380    21136486.340   111073056.1570   86550493.7700
  82944267.8720
  20658379.640    20658381.480    20658381.800   108560771.6990   84592927.1110
  81068244.4860
  26013007.980    26013040.200                   136698823.9680  106518458.7230

 23  3  1 17  3 25.0000000  0 10G07G08G10G16G18G21G23G26G27G31
  24863575.920    24863578.760                   130658979.4200  101812205.8850

  22880882.660    22880886.860    22880886.840   120239931.6460   93693511.1850
  89789672.1780
  22653386.500    22653390.500    22653390.000   119044900.7600   92762555.2050
  88897158.5110
  20334247.620    20334246.780                   106857286.4770   83265464.9630

  22353798.460    22353798.860    22353803.880   117470217.0060   91535357.8420
  87721473.1280
  24465468.520    24465496.120                   128567097.8720  100182272.1430

  22090810.020    22090811.760    22090815.980   116088313.8450   90458507.8410
  86689418.1240
  21136913.660    21136916.740    21136916.700   111075317.7240   86552256.0260
  82945956.6970
  20658158.480    20658160.320    20658160.660   108559609.5540   84592021.5430
  81067376.6500
  26013633.100    26013665.320                   136702109.0790  106521018.6080

 23  3  1 17  3 26.0000000  0 10G07G08G10G16G18G21G23G26G27G31
  24863200.480    24863203.360                   130657006.5650  101810668.6010

  22880409.640    22880413.840    22880413.840   120237445.9510   93691574.2820
  89787815.9880
  22652895.480    22652899.460    22652898.980   119042320.4430   92760544.5730
  88895231.6580
  20334213.520    20334212.660                   106857107.1810   83265325.2510

  22354327.280    22354327.680    22354332.720   117472996.0130   91537523.3020
  87723548.3710
  24464822.100    24464849.720                   128563701.2950  100179625.5200

  22090650.620    22090652.380    22090656.580   116087476.2970   90457855.2090
  86688792.6880
  21137344.120    21137347.200    21137347.140   111077579.7540   86554018.6490
  82947645.8820
  20657937.400    20657939.240    20657939.560   108558447.7180   84591116.2180
  81066509.0490
  26014258.160    26014290.420                   136705394.0310  106523578.3560

 23  3  1 17  3 27.0000000  0 10G07G08G10G16G18G21G23G26G27G31
  24862825.160    24862828.040                   130655034.2420  101809131.7350

  22879936.660    22879940.880    22879940.860   120234960.4410   93689637.5240
  89785959.9140
  22652404.540    22652408.520    22652408.040   119039740.5250   92758534.2510
  88893305.0980
  20334179.520    20334178.660                   106856928.5040   83265186.0250

  22354856.180    22354856.580    22354861.620   117475775.3490   91539689.0180
  87725623.8390
  24464175.740    24464203.340                   128560304.8950  100176979.0270

  22090491.380    22090493.120    22090497.340   116086639.4300   90457203.1090
  86688167.7510
  21137774.660    21137777.740    21137777.700   111079842.2780   86555781.6530
  82949335.4250
  20657716.380    20657718.200    20657718.540   108557286.2390   84590211.1720
  81065641.7110
  26014883.200    26014915.460                   136708678.8430  106526137.9850

 23  3  1 17  3 28.0000000  0 10G07G08G10G16G18G21G23G26G27G31
  24862449.900    24862452.740                   130653062.3210  101807595.1730

  22879463.680    22879467.900    22879467.900   120232474.9740   93687700.8020
  89784103.9060
  22651913.660    22651917.620    22651917.160   119037160.8940   92756524.1510
  88891378.7600
  20334145.600    20334144.760                   106856750.3300   83265047.1860

  22355385.100    22355385.500    22355390.540   117478554.8870   91541854.8920
  87727699.4720
  24463529.440    24463557.020                   128556908.6890  100174332.6970

  22090332.240    22090333.980    22090338.180   116085803.1260   90456551.4430
  86687543.2480
  21138205.280    21138208.360    21138208.320   111082105.1860   86557544.9570
  82951025.2600
  20657495.400    20657497.220    20657497.560   108556124.9950   84589306.3060
  81064774.5520
  26015508.200    26015540.440                   136711963.3350  106528697.3550

 23  3  1 17  3 29.0000000  0 10G07G08G10G16G18G21G23G26G27G31
  24862074.760    24862077.640                   130651090.9370  101806059.0250

  22878990.760    22878994.960    22878994.980   120229989.7580   93685764.2750
  89782248.0560
  22651422.840    22651426.800    22651426.360   119034581.7090   92754514.4010
  88889452.7460
  20334111.820    20334110.960                   106856572.7880   83264908.8420

  22355914.100    22355914.500    22355919.540   117481334.7590   91544021.0240
  87729775.3400
  24462883.180    24462910.740                   128553512.7430  100171686.5710

  22090173.200    22090174.980    22090179.160   116084967.5010   90455900.3110
  86686919.2410
  21138636.000    21138639.060    21138639.020   111084368.6090   86559308.6590
  82952715.4730
  20657274.480    20657276.320    20657276.640   108554964.1100   84588401.7230
  81063907.6520
  26016133.160    26016165.380                   136715247.6850  106531256.6100

 23  3  1 17  3 30.0000000  0 10G07G08G10G16G18G21G23G26G27G31
  24861699.720    24861702.580                   130649120.1230  101804523.3180

  22878517.880    22878522.080    22878522.100   120227504.7380   93683827.8960
  89780392.3660
  22650932.120    22650936.080    22650935.640   119032002.9740   92752504.9990
  88887527.0670
  20334078.160    20334077.320                   106856395.9140   83264771.0180

  22356443.160    22356443.560    22356448.600   117484114.9800   91546187.4280
  87731851.4810
  24462236.980    24462264.520                   128550117.0970  100169040.6620

  22090014.340    22090016.100    22090020.280   116084132.6050   90455249.7400
  86686295.7770
  21139066.820    21139069.880    21139069.840   111086632.5720   86561072.7870
  82954406.0910
  20657053.660    20657055.480    20657055.820   108553803.6090   84587497.4380
  81063041.0460
  26016758.140    26016790.340                   136718531.9560  106533815.8230

 23  3  1 17  3 31.0000000  0 10G07G08G10G16G18G21G23G26G27G31
  24861324.800    24861327.660                   130647149.8760  101802988.0620

  22878045.040    22878049.260    22878049.260   120225019.9630   93681891.7100
  89778536.8560
  22650441.480    22650445.440    22650445.000   119029424.6860   92750495.9470
  88885601.7230
  20334044.640    20334043.780                   106856219.7130   83264633.7200

  22356972.300    22356972.700    22356977.740   117486895.5770   91548354.1270
  87733927.8950
  24461590.820    24461618.360                   128546721.7680  100166395.0250

  22089855.580    22089857.360    22089861.540   116083298.4210   90454599.7310
  86685672.8590
  21139497.740    21139500.800    21139500.760   111088897.0670   86562837.3280
  82956097.1160
  20656832.900    20656834.720    20656835.060   108552643.5070   84586593.4630
  81062174.7400
  26017383.040    26017415.260                   136721816.0640  106536374.9150

 23  3  1 17  3 32.0000000  0 10G07G08G10G16G18G21G23G26G27G31
  24860949.960    24860952.820                   130645180.1470  101801453.2070

  22877572.240    22877576.440    22877576.460   120222535.3850   93679955.6770
  89776681.4930
  22649950.920    22649954.880    22649954.440   119026846.8150   92748487.2190
  88883676.7000
  20334011.220    20334010.360                   106856044.1390   83264496.9080

  22357501.480    22357501.900    22357506.920   117489676.4810   91550521.0650
  87736004.5600
  24460944.740    24460972.240                   128543326.6820  100163749.5250

  22089696.980    22089698.740    22089702.920   116082464.9400   90453950.2680
  86685050.4510
  21139928.740    21139931.820    21139931.780   111091162.0900   86564602.2790
  82957788.5270
  20656612.200    20656614.020    20656614.360   108551483.7740   84585689.7720
  81061308.7030
  26018007.920    26018040.160                   136725100.1330  106538933.9540

 23  3  1 17  3 33.0000000  0 10G07G08G10G16G18G21G23G26G27G31
  24860575.200    24860578.080                   130643210.8430  101799918.6900

  22877099.460    22877103.660    22877103.680   120220050.9170   93678019.7300
  89774826.2050
  22649460.420    22649464.380    22649463.960   119024269.2650   92746478.7440
  88881751.9120
  20333977.920    20333977.060                   106855869.1050   83264360.5190

  22358030.720    22358031.120    22358036.160   117492457.6590   91552688.2150
  87738081.4000
  24460298.680    24460326.140                   128539931.7790  100161104.1900

  22089538.480    22089540.240    22089544.420   116081632.0440   90453301.2570
  86684428.4890
  21140359.840    21140362.900    21140362.880   111093427.5220   86566367.5510
  82959480.2440
  20656391.560    20656393.380    20656393.720   108550324.3000   84584786.2890
  81060442.8650
  26018632.720    26018665.020                   136728383.9200  106541492.7660

 23  3  1 17  3 34.0000000  0 10G07G08G10G16G18G21G23G26G27G31
  24860200.520    24860203.400                   130641241.8290  101798384.4060

  22876626.660    22876630.860    22876630.880   120217566.3650   93676083.7220
  89772970.8600
  22648969.960    22648973.900    22648973.480   119021691.8430   92744470.3680
  88879827.2160
  20333944.680    20333943.820                   106855694.4300   83264224.4070

  22358559.960    22358560.360    22358565.420   117495238.8680   91554855.3930
  87740158.2690
  24459652.620    24459680.040                   128536536.8900  100158458.8810

  22089380.060    22089381.840    22089386.000   116080799.5670   90452652.5760
  86683806.8240
  21140790.980    21140794.040    21140794.020   111095693.1810   86568132.9990
  82961172.1280
  20656170.940    20656172.760    20656173.100   108549164.9130   84583882.8720
  81059577.0870
  26019257.480    26019289.760                   136731667.2900  106544051.2670

 23  3  1 17  3 35.0000000  0 10G07G08G10G16G18G21G23G26G27G31
  24859825.940    24859828.780                   130639273.3130  101796850.4960

  22876153.900    22876158.100    22876158.140   120215082.0500   93674147.8960
  89771115.6950
  22648479.580    22648483.500    22648483.100   119019114.8870   92742462.3540
  88877902.8730
  20333911.560    20333910.700                   106855520.4150   83264088.8100

  22359089.280    22359089.680    22359094.740   117498020.4340   91557022.8450
  87742235.4210
  24459006.620    24459034.040                   128533142.2940  100155813.8150

  22089221.780    22089223.560    22089227.720   116079967.8110   90452004.4560
  86683185.7110
  21141222.240    21141225.280    21141225.260   111097959.3890   86569898.8730
  82962864.4240
  20655950.380    20655952.200    20655952.540   108548005.9180   84582979.7590
  81058711.6050
  26019882.240    26019914.500                   136734950.4520  106546609.6160

 23  3  1 17  3 36.0000000  0 10G07G08G10G16G18G21G23G26G27G31
  24859451.440    24859454.280                   130637305.3290  101795317.0110

  22875681.180    22875685.380    22875685.420   120212597.8790   93672212.1840
  89769260.6500
  22647989.260    22647993.200    22647992.800   119016538.3030   92740454.6310
  88875978.8050
  20333878.560    20333877.680                   106855346.9800   83263953.6690

  22359618.640    22359619.040    22359624.100   117500802.2930   91559190.5270
  87744312.7820
  24458360.640    24458388.040                   128529747.9150  100153168.8770

  22089063.620    22089065.400    22089069.560   116079136.6820   90451356.8280
  86682565.0750
  21141653.560    21141656.620    21141656.600   111100226.0540   86571665.1060
  82964557.0670
  20655729.900    20655731.720    20655732.060   108546847.2300   84582076.8870
  81057846.3590
  26020506.960    26020539.180                   136738233.4830  106549167.8590

 23  3  1 17  3 37.0000000  0 10G07G08G10G16G18G21G23G26G27G31
  24859077.060    24859079.900                   130635337.8650  101793783.9180

  22875208.480    22875212.680    22875212.740   120210113.9050   93670276.6180
  89767405.7150
  22647499.020    22647502.960    22647502.560   119013962.1140   92738447.2150
  88874055.0370
  20333845.680    20333844.800                   106855174.1630   83263819.0080

  22360148.080    22360148.480    22360153.540   117503584.4740   91561358.4560
  87746390.3770
  24457714.740    24457742.100                   128526353.8110  100150524.1570

  22088905.580    22088907.380    22088911.520   116078306.2420   90450709.7320
  86681944.9370
  21142085.000    21142088.040    21142088.020   111102493.2130   86573431.7210
  82966250.0740
  20655509.480    20655511.300    20655511.620   108545688.8940   84581174.2920
  81056981.3720
  26021131.620    26021163.860                   136741516.3070  106551725.9400

 23  3  1 17  3 38.0000000  0 10G07G08G10G16G18G21G23G26G27G31
  24858702.780    24858705.620                   130633371.0390  101792251.3250

  22874735.860    22874740.060    22874740.120   120207630.2470   93668341.3060
  89765551.0480
  22647008.900    22647012.820    22647012.440   119011386.5030   92736440.2470
  88872131.6890
  20333812.940    20333812.060                   106855002.1240   83263684.9530

  22360677.580    22360678.000    22360683.060   117506367.1180   91563526.7500
  87748468.3240
  24457068.880    24457096.240                   128522960.1270  100147879.8060

  22088747.700    22088749.520    22088753.640   116077476.6320   90450063.2870
  86681325.4220
  21142516.540    21142519.580    21142519.580   111104761.0230   86575198.8460
  82967943.5690
  20655289.140    20655290.960    20655291.300   108544531.0730   84580272.0940
  81056116.7610
  26021756.300    26021788.500                   136744799.1140  106554284.0060

 23  3  1 17  3 39.0000000  0 10G07G08G10G16G18G21G23G26G27G31
  24858328.620    24858331.480                   130631404.8620  101790719.2390

  22874263.280    22874267.480    22874267.540   120205146.8800   93666406.2190
  89763696.5960
  22646518.880    22646522.780    22646522.420   119008811.4170   92734433.6890
  88870208.7420
  20333780.340    20333779.460                   106854830.8280   83263551.4740

  22361207.180    22361207.600    22361212.660   117509150.1840   91565695.3750
  87750546.5900
  24456423.120    24456450.480                   128519566.7900  100145235.7340

  22088589.980    22088591.800    22088595.920   116076647.8050   90449417.4480
  86680706.5000
  21142948.220    21142951.240    21142951.240   111107029.4510   86576966.4500
  82969637.5190
  20655068.900    20655070.720    20655071.060   108543373.6930   84579370.2390
  81055252.4880
  26022380.980    26022413.180                   136748081.9870  106556842.1160

 23  3  1 17  3 40.0000000  0 10G07G08G10G16G18G21G23G26G27G31
  24857954.540    24857957.400                   130629438.9820  101789187.3850

  22873790.720    22873794.920    22873794.980   120202663.4940   93664471.1140
  89761842.1220
  22646028.900    22646032.780    22646032.440   119006236.5130   92732427.2740
  88868285.9310
  20333747.820    20333746.940                   106854659.9210   83263418.3020

  22361736.780    22361737.220    22361742.280   117511933.3480   91567864.0730
  87752624.9260
  24455777.360    24455804.700                   128516173.5140  100142591.6510

  22088432.340    22088434.160    22088438.280   116075819.4300   90448771.9630
  86680087.9090
  21143379.920    21143382.960    21143382.960   111109298.1500   86578734.2650
  82971331.6730
  20654848.700    20654850.500    20654850.840   108542216.4480   84578468.4920
  81054388.3130
  26023005.580    26023037.760                   136751364.4240  106559399.8980

 23  3  1 17  3 41.0000000  0 10G07G08G10G16G18G21G23G26G27G31
  24857580.540    24857583.380                   130627473.5910  101787655.9130

  22873318.160    22873322.380    22873322.440   120200180.2690   93662536.1330
  89759987.7710
  22645538.980    22645542.860    22645542.520   119003662.0030   92730421.1680
  88866363.4100
  20333715.400    20333714.520                   106854489.6190   83263285.5990

  22362266.460    22362266.880    22362271.960   117514716.8200   91570033.0090
  87754703.4850
  24455131.640    24455158.940                   128512780.4800  100139947.7590

  22088274.840    22088276.660    22088280.760   116074991.7150   90448126.9900
  86679469.8150
  21143811.740    21143814.760    21143814.780   111111567.3350   86580502.4610
  82973026.1940
  20654628.540    20654630.360    20654630.700   108541059.5380   84577567.0060
  81053524.3860
  26023630.100    26023662.320                   136754646.6910  106561957.5390

 23  3  1 17  3 42.0000000  0 10G07G08G10G16G18G21G23G26G27G31
  24857206.580    24857209.400                   130625508.4280  101786124.6200

  22872845.620    22872849.840    22872849.880   120197696.9840   93660601.1120
  89758133.3720
  22645049.080    22645052.960    22645052.640   119001087.6160   92728415.1550
  88864440.9800
  20333683.060    20333682.180                   106854319.6470   83263153.1530

  22362796.140    22362796.560    22362801.640   117517500.3200   91572201.9710
  87756782.0730
  24454485.920    24454513.200                   128509387.4160  100137303.8010

  22088117.400    22088119.220    22088123.340   116074164.3990   90447482.3320
  86678852.0150
  21144243.580    21144246.620    21144246.620   111113836.7220   86582270.8150
  82974720.8680
  20654408.400    20654410.220    20654410.560   108539902.7000   84576665.5740
  81052660.5110
  26024254.520    26024286.820                   136757928.5550  106564514.8500

 23  3  1 17  3 43.0000000  0 10G07G08G10G16G18G21G23G26G27G31
  24856832.660    24856835.500                   130623543.6070  101784593.5860

  22872373.060    22872377.280    22872377.320   120195213.6930   93658666.0840
  89756278.9690
  22644559.220    22644563.100    22644562.780   118998513.4210   92726409.2950
  88862518.7090
  20333650.800    20333649.920                   106854150.0990   83263021.0380

  22363325.860    22363326.280    22363331.360   117520283.9310   91574371.0180
  87758860.7470
  24453840.220    24453867.460                   128505994.4000  100134659.9370

  22087960.040    22087961.880    22087965.980   116073337.5560   90446838.0430
  86678234.5710
  21144675.480    21144678.520    21144678.540   111116106.4030   86584039.3960
  82976415.7600
  20654188.280    20654190.100    20654190.440   108538745.9930   84575764.2460
  81051796.7380
  26024878.920    26024911.220                   136761209.9650  106567071.8130

 23  3  1 17  3 44.0000000  0 10G07G08G10G16G18G21G23G26G27G31
  24856458.860    24856461.700                   130621579.2150  101783062.8930

  22871900.520    22871904.760    22871904.800   120192730.5180   93656731.1470
  89754424.6520
  22644069.440    22644073.320    22644073.000   118995939.5810   92724403.7110
  88860596.6820
  20333618.640    20333617.760                   106853981.1260   83262889.3720

  22363855.600    22363856.040    22363861.120   117523067.8070   91576540.2700
  87760939.6080
  24453194.540    24453221.780                   128502601.6070  100132016.2620

  22087802.820    22087804.660    22087808.760   116072511.3330   90446194.2330
  86677617.5840
  21145107.460    21145110.520    21145110.520   111118376.5360   86585808.3310
  82978110.9820
  20653968.220    20653970.040    20653970.380   108537589.5750   84574863.1430
  81050933.1810
  26025503.260    26025535.580                   136764491.1930  106569628.6510

 23  3  1 17  3 45.0000000  0 10G07G08G10G16G18G21G23G26G27G31
  24856085.120    24856087.960                   130619615.2030  101781532.5020

  22871428.000    22871432.220    22871432.260   120190247.3640   93654796.2260
  89752570.3540
  22643579.700    22643583.560    22643583.260   118993365.9670   92722398.3020
  88858674.8370
  20333586.580    20333585.700                   106853812.6040   83262758.0570

  22364385.380    22364385.820    22364390.900   117525851.8220   91578709.6350
  87763018.5840
  24452548.880    24452576.100                   128499208.8830  100129372.6380

  22087645.680    22087647.540    22087651.620   116071685.6120   90445550.8160
  86677000.9760
  21145539.520    21145542.560    21145542.580   111120646.9800   86587577.5050
  82979806.4460
  20653748.200    20653750.020    20653750.360   108536433.3440   84573962.1840
  81050069.7680
  26026127.560    26026159.860                   136767772.1030  106572185.2580

 23  3  1 17  3 46.0000000  0 10G07G08G10G16G18G21G23G26G27G31
  24855711.480    24855714.320                   130617651.7350  101780002.5250

  22870955.500    22870959.720    22870959.780   120187764.4150   93652861.4600
  89750716.2160
  22643090.040    22643093.900    22643093.600   118990792.8130   92720393.2500
  88856753.3290
  20333554.640    20333553.760                   106853644.7450   83262627.2580

  22364915.220    22364915.660    22364920.740   117528636.2030   91580879.2800
  87765097.8310
  24451903.300    24451930.520                   128495816.4400  100126729.2230

  22087488.680    22087490.540    22087494.620   116070860.6060   90444907.9560
  86676384.9100
  21145971.680    21145974.720    21145974.720   111122917.9720   86589347.1100
  82981502.3190
  20653528.260    20653530.060    20653530.420   108535277.5020   84573061.5270
  81049206.6390
  26026751.820    26026784.180                   136771052.8800  106574741.7540

 23  3  1 17  3 47.0000000  0 10G07G08G10G16G18G21G23G26G27G31
  24855337.940    24855340.760                   130615688.7590  101778472.9370

  22870483.060    22870487.280    22870487.320   120185281.6740   93650926.8580
  89748862.2160
  22642600.460    22642604.320    22642604.020   118988220.0790   92718388.5250
  88854832.1280
  20333522.800    20333521.920                   106853477.4880   83262496.9280

  22365445.140    22365445.580    22365450.660   117531420.8880   91583049.1600
  87767177.2920
  24451257.740    24451285.000                   128492424.2880  100124086.0570

  22087331.820    22087333.680    22087337.760   116070036.2770   90444265.6220
  86675769.3380
  21146403.920    21146406.960    21146406.980   111125189.4480   86591117.0910
  82983198.5480
  20653308.380    20653310.180    20653310.540   108534121.9980   84572161.1370
  81048343.7630
  26027376.080    26027408.400                   136774333.5060  106577298.1320

 23  3  1 17  3 48.0000000  0 10G07G08G10G16G18G21G23G26G27G31
  24854964.480    24854967.300                   130613726.3210  101776943.7690

  22870010.620    22870014.840    22870014.900   120182799.1060   93648992.3940
  89747008.3540
  22642110.960    22642114.800    22642114.520   118985647.7180   92716384.0920
  88852911.2190
  20333491.100    20333490.220                   106853310.8540   83262367.0830

  22365975.100    22365975.540    22365980.620   117534205.8810   91585219.2840
  87769256.9990
  24450612.240    24450639.460                   128489032.3540  100121443.0410

  22087175.080    22087176.940    22087181.020   116069212.6160   90443623.8100
  86675154.2640
  21146836.260    21146839.300    21146839.320   111127461.4150   86592887.4510
  82984895.1390
  20653088.560    20653090.360    20653090.720   108532966.8340   84571261.0110
  81047481.1440
  26028000.300    26028032.620                   136777613.9490  106579854.3580

 23  3  1 17  3 49.0000000  0 10G07G08G10G16G18G21G23G26G27G31
  24854591.140    24854593.980                   130611764.4480  101775415.0430

  22869538.260    22869542.460    22869542.540   120180316.7980   93647058.1340
  89745154.6770
  22641621.540    22641625.380    22641625.100   118983075.8300   92714380.0270
  88850990.6510
  20333459.520    20333458.640                   106853144.8970   83262237.7660

  22366505.140    22366505.580    22366510.660   117536991.2470   91587389.6990
  87771336.9800
  24449966.840    24449994.020                   128485640.7680  100118800.3160

  22087018.480    22087020.340    22087024.420   116068389.6800   90442982.5630
  86674539.7380
  21147268.720    21147271.740    21147271.760   111129733.9320   86594658.2450
  82986592.1480
  20652868.800    20652870.620    20652870.960   108531812.0790   84570361.2020
  81046618.8210
  26028624.480    26028656.820                   136780894.2710  106582410.4960

 23  3  1 17  3 50.0000000  0 10G07G08G10G16G18G21G23G26G27G31
  24854217.900    24854220.720                   130609803.0480  101773886.6810

  22869065.900    22869070.100    22869070.200   120177834.6260   93645123.9770
  89743301.1330
  22641132.200    22641136.040    22641135.760   118980504.3330   92712376.2660
  88849070.3900
  20333428.060    20333427.160                   106852979.5390   83262108.9160

  22367035.220    22367035.680    22367040.760   117539776.8990   91589560.3380
  87773417.1760
  24449321.460    24449348.620                   128482249.3960  100116157.7590

  22086862.000    22086863.860    22086867.940   116067567.4060   90442341.8320
  86673925.7060
  21147701.240    21147704.280    21147704.300   111132006.9190   86596429.4020
  82988289.5120
  20652649.120    20652650.940    20652651.300   108530657.6480   84569461.6470
  81045756.7520
  26029248.640    26029281.000                   136784174.4640  106584966.5380

 23  3  1 17  3 51.0000000  0 10G07G08G10G16G18G21G23G26G27G31
  24853844.720    24853847.540                   130607841.9950  101772358.5760

  22868593.560    22868597.740    22868597.860   120175352.4760   93643189.8400
  89741447.5710
  22640642.880    22640646.720    22640646.460   118977933.0290   92710372.6560
  88847150.2640
  20333396.660    20333395.780                   106852814.5970   83261980.3910

  22367565.340    22367565.800    22367570.880   117542562.6770   91591731.0720
  87775497.4640
  24448676.080    24448703.220                   128478858.0620  100113515.1730

  22086705.620    22086707.480    22086711.560   116066745.6030   90441701.4680
  86673312.0260
  21148133.840    21148136.860    21148136.880   111134280.2050   86598200.7920
  82989987.0980
  20652429.480    20652431.280    20652431.640   108529503.3660   84568562.2070
  81044894.7900
  26029872.780    26029905.120                   136787454.3000  106587522.2930

 23  3  1 17  3 52.0000000  0 10G07G08G10G16G18G21G23G26G27G31
  24853471.640    24853474.480                   130605881.4730  101770830.8940

  22868121.240    22868125.460    22868125.560   120172870.5330   93641255.8620
  89739594.1800
  22640153.660    22640157.500    22640157.240   118975362.1710   92708369.3920
  88845230.4730
  20333365.400    20333364.520                   106852650.3170   83261852.3790

  22368095.520    22368095.980    22368101.060   117545348.8000   91593902.0740
  87777578.0060
  24448030.760    24448057.880                   128475467.0610  100110872.8530

  22086549.360    22086551.240    22086555.300   116065924.5110   90441061.6570
  86672698.8730
  21148566.540    21148569.560    21148569.580   111136554.0220   86599972.5970
  82991685.0740
  20652209.900    20652211.700    20652212.060   108528349.4550   84567663.0550
  81044033.1050
  26030496.840    26030529.180                   136790733.9390  106590077.8820

 23  3  1 17  3 53.0000000  0 10G07G08G10G16G18G21G23G26G27G31
  24853098.660    24853101.440                   130603921.3860  101769303.5560

  22867648.960    22867653.180    22867653.280   120170388.7270   93639321.9880
  89737740.8780
  22639664.520    22639668.340    22639668.100   118972791.6730   92706366.4090
  88843310.9490
  20333334.240    20333333.360                   106852486.5750   83261724.7900

  22368625.760    22368626.200    22368631.280   117548135.1670   91596073.2650
  87779658.7300
  24447385.460    24447412.580                   128472076.2330  100108230.6840

  22086393.240    22086395.100    22086399.160   116065104.0190   90440422.3140
  86672086.1760
  21148999.300    21149002.320    21149002.340   111138828.2570   86601744.7240
  82993383.3600
  20651990.360    20651992.180    20651992.540   108527195.8410   84566764.1370
  81043171.6360
  26031120.860    26031153.200                   136794013.4120  106592633.3440

 23  3  1 17  3 54.0000000  0 10G07G08G10G16G18G21G23G26G27G31
  24852725.780    24852728.540                   130601961.7760  101767776.5740

  22867176.700    22867180.920    22867181.040   120167907.0180   93637388.1920
  89735887.6690
  22639175.440    22639179.240    22639179.000   118970221.4930   92704363.6790
  88841391.6670
  20333303.180    20333302.300                   106852323.3930   83261597.6350

  22369156.040    22369156.500    22369161.560   117550921.7860   91598244.6550
  87781739.6410
  24446740.200    24446767.340                   128468685.5980  100105588.7060

  22086237.220    22086239.080    22086243.140   116064284.1440   90439783.4520
  86671473.9280
  21149432.160    21149435.180    21149435.200   111141102.9280   86603517.1950
  82995081.9760
  20651770.880    20651772.700    20651773.060   108526042.4730   84565865.4110
  81042310.3630
  26031744.840    26031777.180                   136797292.6070  106595188.5980

 23  3  1 17  3 55.0000000  0 10G07G08G10G16G18G21G23G26G27G31
  24852352.980    24852355.720                   130600002.5780  101766249.9200

  22866704.460    22866708.680    22866708.800   120165425.4120   93635454.4750
  89734034.5160
  22638686.400    22638690.200    22638689.980   118967651.6180   92702361.1810
  88839472.6100
  20333272.240    20333271.340                   106852160.7130   83261470.8730

  22369686.340    22369686.800    22369691.880   117553708.5870   91600416.1840
  87783820.7040
  24446095.020    24446122.140                   128465295.1590  100102946.8740

  22086081.300    22086083.160    22086087.240   116063464.8340   90439145.0310
  86670862.1050
  21149865.080    21149868.100    21149868.120   111143377.9720   86605289.9550
  82996780.8770
  20651551.460    20651553.280    20651553.640   108524889.3660   84564966.8880
  81041449.2760
  26032368.800    26032401.120                   136800571.5750  106597743.6690

 23  3  1 17  3 56.0000000  0 10G07G08G10G16G18G21G23G26G27G31
  24851980.200    24851982.960                   130598043.6950  101764723.5290

  22866232.220    22866236.440    22866236.560   120162943.8000   93633520.7560
  89732181.3680
  22638197.420    22638201.220    22638201.000   118965081.9790   92700358.8710
  88837553.7260
  20333241.360    20333240.480                   106851998.4950   83261344.4680

  22370216.680    22370217.160    22370222.220   117556495.5450   91602587.8390
  87785901.8660
  24445449.780    24445476.900                   128461904.7210  100100305.0390

  22085925.480    22085927.360    22085931.420   116062646.0050   90438506.9850
  86670250.6520
  21150298.060    21150301.100    21150301.100   111145653.3340   86607062.9660
  82998480.0050
  20651332.060    20651333.880    20651334.240   108523736.4110   84564068.4820
  81040588.3040
  26032992.660    26033024.980                   136803850.1530  106600298.4270

 23  3  1 17  3 57.0000000  0 10G07G08G10G16G18G21G23G26G27G31
  24851607.560    24851610.280                   130596085.3740  101763197.5730

  22865760.020    22865764.240    22865764.380   120160462.4140   93631587.2110
  89730328.3910
  22637708.520    22637712.320    22637712.100   118962512.8000   92698356.9180
  88835635.1870
  20333210.620    20333209.720                   106851836.9110   83261218.5600

  22370747.100    22370747.560    22370752.620   117559282.8470   91604759.7630
  87787983.2910
  24444804.660    24444831.740                   128458514.6000  100097663.4500

  22085769.820    22085771.680    22085775.720   116061827.9090   90437869.5110
  86669639.7320
  21150731.160    21150734.180    21150734.200   111147929.2270   86608836.3870
  83000179.5410
  20651112.740    20651114.540    20651114.920   108522583.8580   84563170.3910
  81039727.6330
  26033616.480    26033648.800                   136807128.6350  106602853.1130

 23  3  1 17  3 58.0000000  0 10G07G08G10G16G18G21G23G26G27G31
  24851235.020    24851237.760                   130594127.6770  101761672.1160

  22865287.860    22865292.100    22865292.220   120157981.2920   93629653.8700
  89728475.6050
  22637219.720    22637223.500    22637223.280   118959944.0990   92696355.3370
  88833717.0070
  20333180.000    20333179.120                   106851676.0670   83261093.2270

  22371277.580    22371278.060    22371283.120   117562070.5590   91606932.0070
  87790065.0200
  24444159.560    24444186.640                   128455124.8500  100095022.1300

  22085614.280    22085616.140    22085620.200   116061010.5800   90437232.6320
  86669029.3870
  21151164.360    21151167.380    21151167.380   111150205.7130   86610610.2730
  83001879.5130
  20650893.500    20650895.300    20650895.700   108521431.7370   84562272.6360
  81038867.2860
  26034240.340    26034272.640                   136810407.0920  106605407.7770

 23  3  1 17  3 59.0000000  0 10G07G08G10G16G18G21G23G26G27G31
  24850862.560    24850865.340                   130592170.4990  101760147.0590

  22864815.760    22864820.000    22864820.120   120155500.3450   93627720.6670
  89726622.9570
  22636730.980    22636734.760    22636734.560   118957375.8210   92694354.0860
  88831799.1450
  20333149.520    20333148.620                   106851515.8540   83260968.3860

  22371808.140    22371808.600    22371813.660   117564858.5950   91609104.5020
  87792147.0060
  24443514.540    24443541.580                   128451735.3630  100092380.9890

  22085458.880    22085460.740    22085464.800   116060193.9350   90436596.2880
  86668419.5640
  21151597.660    21151600.680    21151600.680   111152482.7180   86612384.5600
  83003579.8710
  20650674.320    20650676.140    20650676.520   108520279.9910   84561375.1730
  81038007.2160
  26034864.140    26034896.420                   136813685.2800  106607962.2280

 23  3  1 17  4  0.0000000  0 10G07G08G10G16G18G21G23G26G27G31
  24850490.160    24850492.920                   130590213.4220  101758622.0580

  22864343.600    22864347.820    22864347.960   120153019.1900   93625787.3040
  89724770.1410
  22636242.260    22636246.040    22636245.840   118954807.5460   92692352.8360
  88829881.2850
  20333119.080    20333118.180                   106851355.8460   83260843.7070

  22372338.660    22372339.120    22372344.200   117567646.5510   91611276.9330
  87794228.9080
  24442869.440    24442896.480                   128448345.7260  100089739.7460

  22085303.520    22085305.380    22085309.440   116059377.5650   90435960.1560
  86667809.9350
  21152030.960    21152034.000    21152034.000   111154759.8010   86614158.9080
  83005280.2930
  20650455.140    20650456.960    20650457.340   108519128.1710   84560477.6530
  81037147.0930
  26035487.860    26035520.120                   136816963.0010  106610516.3410

 23  3  1 17  4  1.0000000  0 10G07G08G10G16G18G21G23G26G27G31
  24850116.940    24850119.700                   130588252.1710  101757093.7900

  22863870.580    22863874.820    22863874.960   120150533.4580   93623850.3740
  89722913.9350
  22635752.700    22635756.480    22635756.280   118952234.9440   92690348.2150
  88827960.1860
  20333087.840    20333086.940                   106851191.7210   83260715.8170

  22372868.340    22372868.820    22372873.880   117570430.0650   91613445.9050
  87796307.5080
  24442223.540    24442250.600                   128444951.6350  100087095.0290

  22085147.400    22085149.260    22085153.320   116058557.1170   90435320.8500
  86667197.2730
  21152463.480    21152466.500    21152466.500   111157032.6320   86615929.9500
  83006977.5350
  20650235.120    20650236.940    20650237.340   108517971.9580   84559576.7080
  81036283.6890
  26036110.620    26036142.860                   136820235.8000  106613066.6220

 23  3  1 17  4  2.0000000  0 10G07G08G10G16G18G21G23G26G27G31
  24849744.020    24849746.740                   130586292.4610  101755566.7510

  22863397.800    22863402.060    22863402.180   120148049.0170   93621914.4540
  89721058.6620
  22635263.440    22635267.200    22635267.020   118949663.8390   92688344.7590
  88826040.2050
  20333056.940    20333056.040                   106851029.2960   83260589.2520

  22373398.280    22373398.760    22373403.840   117573214.9760   91615615.9680
  87798387.1480
  24441577.860    24441604.940                   128441558.8580  100084451.3580

  22084991.620    22084993.480    22084997.520   116057738.4430   90434682.9250
  86666585.9160
  21152896.280    21152899.300    21152899.300   111159307.0490   86617702.2200
  83008675.9590
  20650015.380    20650017.180    20650017.580   108516817.1800   84558676.8830
  81035421.3530
  26036733.540    26036765.800                   136823509.4850  106615617.5860

 23  3  1 17  4  3.0000000  0 10G07G08G10G16G18G21G23G26G27G31
  24849371.380    24849374.060                   130584334.1090  101754040.7650

  22862925.220    22862929.480    22862929.600   120145565.6210   93619979.3400
  89719204.1760
  22634774.400    22634778.160    22634777.980   118947093.9500   92686342.2540
  88824121.1390
  20333026.300    20333025.400                   106850868.3390   83260463.8330

  22373928.460    22373928.940    22373934.000   117576001.0410   91617786.9250
  87800467.6490
  24440932.380    24440959.460                   128438167.1240  100081808.5360

  22084836.120    22084837.960    22084842.020   116056921.2720   90434046.1700
  86665975.6960
  21153329.320    21153332.360    21153332.360   111161582.7890   86619475.5240
  83010375.3730
  20649795.860    20649797.660    20649798.080   108515663.5840   84557777.9790
  81034559.9030
  26037356.600    26037388.860                   136826783.8530  106618169.0840

 23  3  1 17  4  4.0000000  0 10G07G08G10G16G18G21G23G26G27G31
  24848998.780    24849001.520                   130582376.2510  101752515.1610

  22862452.660    22862456.920    22862457.040   120143082.3330   93618044.3110
  89717349.7850
  22634285.440    22634289.200    22634289.020   118944524.4300   92684340.0330
  88822202.3410
  20332995.780    20332994.880                   106850707.9400   83260338.8460

  22374458.680    22374459.160    22374464.220   117578787.3580   91619958.0790
  87802548.3420
  24440286.980    24440314.040                   128434775.6920  100079165.8990

  22084680.740    22084682.580    22084686.620   116056104.7130   90433409.8940
  86665365.9340
  21153762.460    21153765.500    21153765.500   111163858.9630   86621249.1660
  83012075.1140
  20649576.380    20649578.200    20649578.600   108514510.2660   84556879.2920
  81033698.6700
  26037979.640    26038011.880                   136830058.0160  106620720.4190

 23  3  1 17  4  5.0000000  0 10G07G08G10G16G18G21G23G26G27G31
  24848626.320    24848629.060                   130580419.0080  101750990.0240

  22861980.180    22861984.420    22861984.560   120140599.3790   93616109.5470
  89715495.6320
  22633796.580    22633800.320    22633800.160   118941955.4190   92682338.2120
  88820283.9410
  20332965.400    20332964.500                   106850548.2790   83260214.4370

  22374988.980    22374989.460    22374994.520   117581574.1080   91622129.5710
  87804629.3570
  24439641.620    24439668.680                   128431384.6150  100076523.5540

  22084525.500    22084527.340    22084531.400   116055288.9580   90432774.2430
  86664756.7710
  21154195.720    21154198.760    21154198.760   111166135.7620   86623023.2920
  83013775.3190
  20649357.020    20649358.820    20649359.240   108513357.4350   84555980.9840
  81032837.7850
  26038602.660    26038634.880                   136833332.0710  106623271.6760

 23  3  1 17  4  6.0000000  0 10G07G08G10G16G18G21G23G26G27G31
  24848254.080    24848256.820                   130578462.8920  101749465.7780

  22861507.820    22861512.080    22861512.220   120138117.2310   93614175.4080
  89713642.0880
  22633307.900    22633311.660    22633311.480   118939387.4330   92680337.1860
  88818366.2890
  20332935.260    20332934.340                   106850389.8500   83260090.9840

  22375519.460    22375519.920    22375525.000   117584361.7790   91624301.7780
  87806711.0570
  24438996.460    24439023.500                   128427994.4290  100073881.8900

  22084370.500    22084372.360    22084376.400   116054474.4880   90432139.5910
  86664148.5620
  21154629.180    21154632.240    21154632.220   111168413.6600   86624798.2790
  83015476.3440
  20649137.820    20649139.620    20649140.040   108512205.5470   84555083.4090
  81031977.6130
  26039225.760    26039257.980                   136836606.7070  106625823.3870

 23  3  1 17  4  7.0000000  0 10G07G08G10G16G18G21G23G26G27G31
  24847882.100    24847884.860                   130576508.0500  101747942.5290

  22861035.660    22861039.920    22861040.060   120135636.0060   93612241.9900
  89711789.2310
  22632819.460    22632823.200    22632823.040   118936820.6080   92678337.0690
  88816449.5160
  20332905.380    20332904.460                   106850232.8060   83259968.6120

  22376050.140    22376050.620    22376055.680   117587150.5230   91626474.8260
  87808793.5570
  24438351.500    24438378.500                   128424605.1940  100071240.9600

  22084215.780    22084217.640    22084221.700   116053661.4470   90431506.0530
  86663541.4280
  21155062.900    21155065.940    21155065.920   111170692.8030   86626574.2340
  83017178.3060
  20648918.840    20648920.640    20648921.060   108511054.7570   84554186.6920
  81031118.2610
  26039848.980    26039881.180                   136839881.8660  106628375.5040

 23  3  1 17  4  8.0000000  0 10G07G08G10G16G18G21G23G26G27G31
  24847510.380    24847513.160                   130574554.6450  101746420.4020

  22860563.680    22860567.960    22860568.100   120133155.8790   93610309.4230
  89709937.1960
  22632331.260    22632335.000    22632334.840   118934255.1310   92676337.9960
  88814533.7420
  20332875.780    20332874.860                   106850077.2960   83259847.4380

  22376581.040    22376581.540    22376586.600   117589940.5030   91628648.8380
  87810876.9870
  24437706.760    24437733.740                   128421217.1800  100068601.0190

  22084061.380    22084063.220    22084067.280   116052850.0170   90430873.7720
  86662935.4900
  21155496.880    21155499.920    21155499.900   111172973.3730   86628351.3000
  83018881.3270
  20648700.100    20648701.900    20648702.320   108509905.2580   84553290.9780
  81030259.8660
  26040472.320    26040504.580                   136843157.7500  106630928.1720

 23  3  1 17  4  9.0000000  0 10G07G08G10G16G18G21G23G26G27G31
  24847138.920    24847141.660                   130572602.5020  101744899.2470

  22860091.920    22860096.160    22860096.320   120130676.6820   93608377.5880
  89708085.8460
  22631843.280    22631847.020    22631846.860   118931690.8030   92674339.8240
  88812618.8200
  20332846.440    20332845.540                   106849923.1530   83259727.3240

  22377112.160    22377112.660    22377117.720   117592731.5290   91630823.6630
  87812961.1990
  24437062.220    24437089.160                   128417830.1630  100065961.8070

  22083907.240    22083909.080    22083913.140   116052039.9930   90430242.5860
  86662330.6010
  21155931.080    21155934.120    21155934.100   111175255.1700   86630129.3190
  83020585.2600
  20648481.560    20648483.360    20648483.800   108508756.8330   84552396.1040
  81029402.2760
  26041095.780    26041128.040                   136846434.2590  106633481.3000

 23  3  1 17  4 10.0000000  0 10G07G08G10G16G18G21G23G26G27G31
  24846767.640    24846770.360                   130570651.4970  101743378.9750

  22859620.300    22859624.540    22859624.700   120128198.2860   93606446.3740
  89706235.1000
  22631355.500    22631359.240    22631359.080   118929127.4960   92672342.4450
  88810704.6660
  20332817.360    20332816.440                   106849770.2390   83259608.1730

  22377643.460    22377643.960    22377649.020   117595523.5030   91632999.2230
  87815046.0970
  24436417.800    24436444.740                   128414444.0130  100063323.3120

  22083753.340    22083755.180    22083759.240   116051231.2590   90429612.4060
  86661726.6800
  21156365.520    21156368.560    21156368.520   111177538.0800   86631908.2090
  83022290.0330
  20648263.200    20648265.000    20648265.440   108507609.3750   84551501.9800
  81028545.4100
  26041719.340    26041751.580                   136849711.2100  106636034.7810

 23  3  1 17  4 11.0000000  0 10G07G08G10G16G18G21G23G26G27G31
  24846396.580    24846399.280                   130568701.6260  101741859.6020

  22859148.800    22859153.060    22859153.220   120125720.6920   93604515.7860
  89704384.9500
  22630867.900    22630871.640    22630871.500   118926565.2090   92670345.8620
  88808791.2680
  20332788.500    20332787.560                   106849618.5610   83259489.9810

  22378174.920    22378175.440    22378180.480   117598316.3910   91635175.5000
  87817131.6910
  24435773.540    24435800.480                   128411058.6900  100060685.4660

  22083599.680    22083601.540    22083605.580   116050423.8200   90428983.2350
  86661123.7210
  21156800.140    21156803.180    21156803.140   111179822.0900   86633687.9580
  83023995.6170
  20648045.040    20648046.820    20648047.280   108506462.8730   84550608.6050
  81027689.2550
  26042342.980    26042375.200                   136852988.5970  106638588.6170

 23  3  1 17  4 12.0000000  0 10G07G08G10G16G18G21G23G26G27G31
  24846025.680    24846028.360                   130566752.5810  101740340.8610

  22858677.440    22858681.680    22858681.840   120123243.6150   93602585.5980
  89702535.1870
  22630380.460    22630384.180    22630384.060   118924003.6480   92668349.8420
  88806878.4270
  20332759.820    20332758.880                   106849467.8230   83259372.5230

  22378706.500    22378707.020    22378712.080   117601109.8970   91637352.2540
  87819217.7590
  24435129.400    24435156.380                   128407674.0130  100058048.1130

  22083446.220    22083448.060    22083452.120   116049617.3820   90428354.8440
  86660521.5110
  21157234.920    21157237.980    21157237.940   111182106.9130   86635468.3360
  83025701.8180
  20647827.000    20647828.780    20647829.240   108505317.0360   84549715.7450
  81026833.5950
  26042966.640    26042998.860                   136856266.1600  106641142.6050

 23  3  1 17  4 13.0000000  0 10G07G08G10G16G18G21G23G26G27G31
  24845655.200    24845657.880                   130564805.6880  101738823.8070

  22858206.400    22858210.660    22858210.820   120120768.3520   93600656.8270
  89700686.7900
  22629893.400    22629897.120    22629896.980   118921444.1330   92666355.4200
  88804967.1050
  20332731.560    20332730.620                   106849319.3420   83259256.8240

  22379238.480    22379238.980    22379244.040   117603905.3740   91639530.5470
  87821305.2840
  24434485.640    24434512.640                   128404291.2000  100055412.1690

  22083293.200    22083295.040    22083299.100   116048813.2490   90427728.2460
  86659921.0250
  21157670.120    21157673.180    21157673.120   111184393.8730   86637250.3850
  83027409.6130
  20647609.320    20647611.100    20647611.580   108504173.1890   84548824.4350
  81025979.4310
  26043590.580    26043622.800                   136859545.1890  106643697.7440

 23  3  1 17  4 14.0000000  0 10G07G08G10G16G18G21G23G26G27G31
  24845285.080    24845287.780                   130562860.6200  101737308.1780

  22857735.640    22857739.920    22857740.060   120118294.5860   93598729.2220
  89698839.4910
  22629406.660    22629410.380    22629410.260   118918886.3180   92664362.3200
  88803057.0520
  20332703.660    20332702.740                   106849172.7860   83259142.6250

  22379770.740    22379771.240    22379776.300   117606702.4370   91641710.0770
  87823394.0020
  24433842.160    24433869.140                   128400909.9520  100052777.4690

  22083140.560    22083142.400    22083146.460   116048011.0750   90427103.1820
  86659322.0020
  21158105.660    21158108.700    21158108.660   111186682.6150   86639033.8180
  83029118.7360
  20647391.980    20647393.740    20647394.220   108503030.9700   84547934.3940
  81025126.4770
  26044214.720    26044246.940                   136862825.3110  106646253.7180

 23  3  1 17  4 15.0000000  0 10G07G08G10G16G18G21G23G26G27G31
  24844915.100    24844917.800                   130560916.3280  101735793.1580

  22857264.980    22857269.280    22857269.420   120115821.2800   93596801.9680
  89696992.5490
  22628920.040    22628923.760    22628923.640   118916329.1910   92662369.7580
  88801147.5100
  20332675.940    20332675.020                   106849027.1090   83259029.1120

  22380303.120    22380303.620    22380308.680   117609500.0870   91643890.0600
  87825483.1560
  24433198.780    24433225.760                   128397529.2330  100050143.2100

  22082988.100    22082989.920    22082994.000   116047209.8530   90426478.8530
  86658723.6930
  21158541.320    21158544.380    21158544.320   111188972.1150   86640817.8420
  83030828.4320
  20647174.740    20647176.520    20647177.000   108501889.3820   84547044.8470
  81024273.9930
  26044838.940    26044871.120                   136866105.6220  106648809.8440

 23  3  1 17  4 16.0000000  0 10G07G08G10G16G18G21G23G26G27G31
  24844545.120    24844547.800                   130558972.0670  101734278.1410

  22856794.260    22856798.560    22856798.700   120113347.6740   93594874.4870
  89695145.3780
  22628433.420    22628437.140    22628437.020   118913771.9730   92660377.1260
  88799237.9100
  20332648.240    20332647.320                   106848881.5790   83258915.7120

  22380835.440    22380835.960    22380841.020   117612297.5680   91646069.9150
  87827572.1800
  24432555.380    24432582.320                   128394148.2640  100047508.7400

  22082835.660    22082837.480    22082841.560   116046408.8260   90425854.6780
  86658125.5250
  21158977.000    21158980.060    21158980.000   111191261.6290   86642601.8790
  83032538.1260
  20646957.460    20646959.240    20646959.720   108500747.6440   84546155.1830
  81023421.3980
  26045462.980    26045495.180                   136869385.2320  106651365.4270

 23  3  1 17  4 17.0000000  0 10G07G08G10G16G18G21G23G26G27G31
  24844175.080    24844177.780                   130557027.4260  101732762.8220

  22856323.420    22856327.700    22856327.840   120110873.3460   93592946.4480
  89693297.6760
  22627946.700    22627950.420    22627950.300   118911214.2630   92658384.1080
  88797327.9380
  20332620.500    20332619.580                   106848735.7590   83258802.0840

  22381367.680    22381368.200    22381373.260   117615094.4580   91648249.3080
  87829660.7690
  24431911.800    24431938.780                   128390766.6830  100044873.8200

  22082683.200    22082685.000    22082689.100   116045607.5690   90425230.3240
  86657527.1900
  21159412.600    21159415.660    21159415.600   111193550.7330   86644385.5940
  83034247.5240
  20646740.100    20646741.880    20646742.360   108499605.3590   84545265.0910
  81022568.3980
  26046086.860    26046119.040                   136872663.8360  106653920.2320

 23  3  1 17  4 18.0000000  0 10G07G08G10G16G18G21G23G26G27G31
  24843805.000    24843807.640                   130555082.4870  101731247.3000

  22855852.440    22855856.720    22855856.880   120108398.3950   93591017.9160
  89691449.4840
  22627459.920    22627463.620    22627463.520   118908656.1430   92656390.7740
  88795417.6580
  20332592.720    20332591.780                   106848589.7350   83258688.3010

  22381899.820    22381900.340    22381905.400   117617890.8330   91650428.2980
  87831748.9660
  24431268.180    24431295.140                   128387384.5240  100042238.3850

  22082530.700    22082532.500    22082536.600   116044806.1740   90424605.8620
  86656928.7390
  21159848.140    21159851.200    21159851.120   111195839.5010   86646169.0500
  83035956.6660
  20646522.640    20646524.400    20646524.900   108498462.5840   84544374.6190
  81021715.0280
  26046710.480    26046742.720                   136875941.3490  106656474.1750

 23  3  1 17  4 19.0000000  0 10G07G08G10G16G18G21G23G26G27G31
  24843434.800    24843437.440                   130553137.1550  101729731.4560

  22855381.320    22855385.600    22855385.760   120105922.6820   93589088.7900
  89689600.7490
  22626973.020    22626976.720    22626976.620   118906097.5160   92654397.0410
  88793506.9970
  20332564.860    20332563.940                   106848443.4010   83258574.2740

  22382431.840    22382432.340    22382437.420   117620686.5990   91652606.8160
  87833836.7090
  24430624.420    24430651.360                   128384001.7100  100039602.5020

  22082378.140    22082379.960    22082384.040   116044004.5180   90423981.2000
  86656330.1100
  21160283.600    21160286.660    21160286.580   111198127.8450   86647952.1750
  83037665.4970
  20646305.060    20646306.840    20646307.340   108497319.2510   84543483.7100
  81020861.2410
  26047333.940    26047366.200                   136879217.8350  106659027.3160

 23  3  1 17  4 20.0000000  0 10G07G08G10G16G18G21G23G26G27G31
  24843064.540    24843067.180                   130551191.4230  101728215.3160

  22854910.080    22854914.360    22854914.520   120103446.2860   93587159.1360
  89687751.4930
  22626486.040    22626489.740    22626489.640   118903538.4170   92652402.9430
  88791595.9850
  20332536.980    20332536.040                   106848296.8270   83258460.0610

  22382963.740    22382964.260    22382969.320   117623481.8000   91654784.8950
  87835924.0340
  24429980.540    24430007.480                   128380618.2820  100036966.1240

  22082225.560    22082227.360    22082231.460   116043202.6730   90423356.3860
  86655731.3280
  21160718.980    21160722.060    21160721.960   111200415.8010   86649734.9960
  83039374.0360
  20646087.400    20646089.160    20646089.680   108496175.3790   84542592.3860
  81020007.0510
  26047957.220    26047989.440                   136882493.2460  106661579.6210

 23  3  1 17  4 21.0000000  0 10G07G08G10G16G18G21G23G26G27G31
  24842694.240    24842696.900                   130549245.5070  101726699.0210

  22854438.720    22854443.000    22854443.160   120100969.3150   93585229.0310
  89685901.8180
  22625999.020    22626002.700    22626002.600   118900978.9990   92650408.5940
  88789684.7390
  20332509.060    20332508.120                   106848150.1280   83258345.7520

  22383495.560    22383496.100    22383501.160   117626276.5640   91656962.6350
  87838011.0410
  24429336.580    24429363.480                   128377234.3810  100034329.3920

  22082072.960    22082074.760    22082078.860   116042400.7600   90422731.5200
  86655132.5020
  21161154.320    21161157.380    21161157.300   111202703.5230   86651517.6340
  83041082.3950
  20645869.660    20645871.420    20645871.940   108495031.1270   84541700.7610
  81019152.5730
  26048580.300    26048612.540                   136885767.7690  106664131.2320

 23  3  1 17  4 22.0000000  0 10G07G08G10G16G18G21G23G26G27G31
  24842323.880    24842326.540                   130547299.2700  101725182.4800

  22853967.240    22853971.540    22853971.700   120098491.7280   93583298.4460
  89684051.6720
  22625511.880    22625515.560    22625515.480   118898419.1580   92648413.9170
  88787773.1750
  20332481.100    20332480.180                   106848003.2310   83258231.2870

  22384027.300    22384027.840    22384032.900   117629070.8400   91659139.9910
  87840097.6660
  24428692.500    24428719.360                   128373849.8800  100031692.1120

  22081920.340    22081922.140    22081926.240   116041598.7050   90422106.5420
  86654533.5690
  21161589.600    21161592.660    21161592.560   111204990.9140   86653300.0170
  83042790.5080
  20645651.820    20645653.580    20645654.100   108493886.3910   84540808.7590
  81018297.7390
  26049203.180    26049235.440                   136889041.3820  106666682.1230

 23  3  1 17  4 23.0000000  0 10G07G08G10G16G18G21G23G26G27G31
  24841953.500    24841956.160                   130545352.8810  101723665.8050

  22853495.660    22853499.960    22853500.140   120096013.6290   93581367.4640
  89682201.1520
  22625024.720    22625028.380    22625028.300   118895859.0410   92646419.0270
  88785861.4020
  20332453.140    20332452.200                   106847856.2630   83258116.7690

  22384558.940    22384559.500    22384564.560   117631864.7220   91661317.0420
  87842184.0020
  24428048.360    24428075.200                   128370464.9810  100029054.6040

  22081767.720    22081769.500    22081773.620   116040796.6450   90421481.5620
  86653934.6220
  21162024.840    21162027.900    21162027.800   111207278.0970   86655082.2370
  83044498.4710
  20645433.920    20645435.680    20645436.200   108492741.3060   84539916.4880
  81017442.6450
  26049825.920    26049858.200                   136892314.1000  106669232.2990

 23  3  1 17  4 24.0000000  0 10G07G08G10G16G18G21G23G26G27G31
  24841583.100    24841585.740                   130543406.4470  101722149.0910

  22853024.020    22853028.340    22853028.500   120093535.1790   93579436.2080
  89680350.3630
  22624537.520    22624541.180    22624541.100   118893298.7880   92644424.0280
  88783949.5270
  20332425.180    20332424.240                   106847709.3720   83258002.3060

  22385090.560    22385091.120    22385096.180   117634658.3720   91663493.9100
  87844270.1740
  24427404.140    24427430.980                   128367079.8080  100026416.8850

  22081615.120    22081616.900    22081621.000   116039994.7050   90420856.6790
  86653335.7730
  21162460.060    21162463.120    21162463.020   111209565.2250   86656864.4130
  83046206.3920
  20645215.980    20645217.740    20645218.260   108491596.0310   84539024.0650
  81016587.4040
  26050448.540    26050480.780                   136895586.0980  106671781.9070

 23  3  1 17  4 25.0000000  0 10G07G08G10G16G18G21G23G26G27G31
  24841212.780    24841215.400                   130541460.3130  101720632.6290

  22852552.380    22852556.700    22852556.860   120091056.6940   93577504.9230
  89678499.5500
  22624050.360    22624054.020    22624053.920   118890738.7160   92642429.1710
  88782037.7980
  20332397.320    20332396.380                   106847562.8910   83257888.1650

  22385622.180    22385622.740    22385627.800   117637452.1010   91665670.8420
  87846356.4040
  24426759.920    24426786.740                   128363694.6430  100023779.1200

  22081462.580    22081464.380    22081468.500   116039193.2130   90420232.1390
  86652737.2660
  21162895.340    21162898.420    21162898.280   111211852.6370   86658646.8100
  83047914.5220
  20644998.060    20644999.820    20645000.360   108490450.8720   84538131.7370
  81015732.2580
  26051071.120    26051103.280                   136898857.6840  106674331.2230

 23  3  1 17  4 26.0000000  0 10G07G08G10G16G18G21G23G26G27G31
  24840842.480    24840845.120                   130539514.3610  101719116.2960

  22852080.700    22852085.020    22852085.180   120088578.0380   93575573.5050
  89676648.6100
  22623563.200    22623566.860    22623566.780   118888178.7200   92640434.3750
  88780126.1190
  20332369.500    20332368.540                   106847416.6610   83257774.2220

  22386153.820    22386154.360    22386159.440   117640245.8120   91667847.7550
  87848442.6150
  24426115.700    24426142.520                   128360309.4460  100021141.3230

  22081310.140    22081311.920    22081316.040   116038392.0690   90419607.8710
  86652139.0030
  21163330.640    21163333.720    21163333.600   111214140.1960   86660429.3230
  83049622.7620
  20644780.140    20644781.900    20644782.440   108489305.7260   84537239.4160
  81014877.1210
  26051693.540    26051725.680                   136902128.7120  106676880.1300

 23  3  1 17  4 27.0000000  0 10G07G08G10G16G18G21G23G26G27G31
  24840472.240    24840474.880                   130537568.7420  101717600.2310

  22851609.020    22851613.360    22851613.520   120086099.4270   93573642.1280
  89674797.6950
  22623076.100    22623079.760    22623079.660   118885618.9950   92638439.7860
  88778214.6320
  20332341.760    20332340.820                   106847270.9180   83257660.6560

  22386685.460    22386686.020    22386691.100   117643039.6890   91670024.8020
  87850528.9390
  24425471.500    24425498.260                   128356924.3020  100018503.5490

  22081157.780    22081159.560    22081163.700   116037591.4410   90418984.0090
  86651541.1380
  21163766.020    21163769.100    21163768.960   111216428.0890   86662212.0970
  83051331.2590
  20644562.260    20644564.020    20644564.580   108488160.7670   84536347.2400
  81014022.1210
  26052315.900    26052348.040                   136905399.4560  106679428.8130

 23  3  1 17  4 28.0000000  0 10G07G08G10G16G18G21G23G26G27G31
  24840102.060    24840104.680                   130535623.5270  101716084.4820

  22851137.360    22851141.680    22851141.860   120083620.8580   93571710.7780
  89672946.8210
  22622589.060    22622592.700    22622592.620   118883059.5350   92636445.4040
  88776303.3550
  20332314.120    20332313.160                   106847125.6560   83257547.4640

  22387217.160    22387217.720    22387222.780   117645833.7230   91672201.9690
  87852615.3990
  24424827.320    24424854.120                   128353539.3150  100015865.9190

  22081005.540    22081007.300    22081011.440   116036791.3620   90418360.5710
  86650943.6740
  21164201.440    21164204.540    21164204.400   111218716.3390   86663995.1490
  83053040.0100
  20644344.440    20644346.180    20644346.740   108487016.0260   84535455.2350
  81013167.2820
  26052938.220    26052970.360                   136908669.9170  106681977.2650

 23  3  1 17  4 29.0000000  0 10G07G08G10G16G18G21G23G26G27G31
  24839731.960    24839734.620                   130533678.7150  101714569.0410

  22850665.700    22850670.040    22850670.220   120081142.3780   93569779.4950
  89671096.0160
  22622102.060    22622105.700    22622105.620   118880500.3700   92634451.2550
  88774392.3000
  20332286.580    20332285.620                   106846980.8900   83257434.6620

  22387748.880    22387749.440    22387754.520   117648627.9560   91674379.2920
  87854702.0000
  24424183.160    24424209.920                   128350154.4240  100013228.3840

  22080853.380    22080855.160    22080859.300   116035991.8290   90417737.5620
  86650346.6260
  21164636.960    21164640.060    21164639.900   111221004.9700   86665778.4960
  83054749.0460
  20644126.640    20644128.400    20644128.960   108485871.5210   84534563.4140
  81012312.6190
  26053560.500    26053592.660                   136911940.1570  106684525.5350

 23  3  1 17  4 30.0000000  0 10G07G08G10G16G18G21G23G26G27G31
  24839361.980    24839364.660                   130531734.4410  101713054.0250

  22850194.100    22850198.440    22850198.620   120078664.1090   93567848.3780
  89669245.3590
  22621615.140    22621618.800    22621618.720   118877941.6540   92632457.4540
  88772481.5740
  20332259.160    20332258.200                   106846836.7680   83257322.3590

  22388280.660    22388281.220    22388286.300   117651422.5240   91676556.8770
  87856788.8450
  24423539.080    24423565.840                   128346769.8580  100010591.1480

  22080701.380    22080703.140    22080707.280   116035192.9980   90417115.0990
  86649750.0960
  21165072.560    21165075.660    21165075.500   111223294.0970   86667562.2310
  83056458.4660
  20643908.920    20643910.680    20643911.220   108484727.3710   84533671.8700
  81011458.2220
  26054182.760    26054214.880                   136915210.1850  106687073.6470

 23  3  1 17  4 31.0000000  0 10G07G08G10G16G18G21G23G26G27G31
  24838992.120    24838994.800                   130529790.8000  101711539.5000

  22849722.560    22849726.880    22849727.060   120076186.1000   93565917.4630
  89667394.9110
  22621128.340    22621131.980    22621131.900   118875383.4390   92630464.0430
  88770571.2190
  20332231.860    20332230.900                   106846693.3500   83257210.6030

  22388812.520    22388813.100    22388818.180   117654217.4880   91678734.7710
  87858875.9970
  24422895.060    24422921.780                   128343385.6590  100007954.1720

  22080549.520    22080551.260    22080555.420   116034394.9290   90416493.2290
  86649154.1480
  21165508.280    21165511.380    21165511.220   111225583.8190   86669346.4280
  83058168.3250
  20643691.260    20643693.020    20643693.600   108483583.6570   84532780.6670
  81010604.1550
  26054804.980    26054837.080                   136918480.1330  106689621.7020

 23  3  1 17  4 32.0000000  0 10G07G08G10G16G18G21G23G26G27G31
  24838622.340    24838625.040                   130527847.6560  101710025.3620

  22849251.040    22849255.360    22849255.560   120073708.3000   93563986.7170
  89665544.6080
  22620641.600    22620645.240    22620645.160   118872825.6510   92628470.9630
  88768661.1840
  20332204.700    20332203.740                   106846550.5820   83257099.3550

  22389344.460    22389345.020    22389350.100   117657012.7880   91680912.9280
  87860963.3870
  24422251.060    24422277.800                   128340001.6640  100005317.3840

  22080397.780    22080399.520    22080403.700   116033597.5690   90415871.9120
  86648558.7110
  21165944.100    21165947.200    21165947.020   111227874.0580   86671131.0300
  83059878.5640
  20643473.700    20643475.460    20643476.020   108482440.3250   84531889.7600
  81009750.3620
  26055427.200    26055459.280                   136921749.9710  106692169.6750

 23  3  1 17  4 33.0000000  0 10G07G08G10G16G18G21G23G26G27G31
  24838252.700    24838255.360                   130525905.1670  101708511.7520

  22848779.580    22848783.920    22848784.100   120071230.7880   93562056.1940
  89663694.5250
  22620154.960    22620158.600    22620158.520   118870268.3610   92626478.2760
  88766751.5260
  20332177.660    20332176.700                   106846408.5140   83256988.6550

  22389876.460    22389877.040    22389882.120   117659808.4780   91683091.3850
  87863051.0770
  24421607.160    24421633.880                   128336618.1300  100002680.9530

  22080246.200    22080247.940    22080252.100   116032800.9670   90415251.1860
  86647963.8490
  21166380.020    21166383.140    21166382.940   111230164.8750   86672916.0800
  83061589.2350
  20643256.200    20643257.960    20643258.540   108481297.4150   84530999.1810
  81008896.8920
  26056049.380    26056081.500                   136925019.7410  106694717.5920

 23  3  1 17  4 34.0000000  0 10G07G08G10G16G18G21G23G26G27G31
  24837883.160    24837885.860                   130523963.2580  101706998.5760

  22848308.180    22848312.520    22848312.700   120068753.5950   93560125.9160
  89661844.6760
  22619668.420    22619672.060    22619671.980   118867711.5740   92624485.9780
  88764842.2460
  20332150.780    20332149.800                   106846267.1670   83256878.5160

  22390408.540    22390409.120    22390414.200   117662604.5820   91685270.1630
  87865139.0810
  24420963.320    24420990.020                   128333234.8460  100000044.6870

  22080094.760    22080096.480    22080100.660   116032005.1410   90414631.0650
  86647369.5680
  21166816.060    21166819.180    21166818.980   111232456.2780   86674701.5890
  83063300.3480
  20643038.820    20643040.560    20643041.140   108480154.9600   84530108.9540
  81008043.7620
  26056671.500    26056703.640                   136928289.4530  106697265.4380

 23  3  1 17  4 35.0000000  0 10G07G08G10G16G18G21G23G26G27G31
  24837513.760    24837516.440                   130522021.9820  101705485.9020

  22847836.840    22847841.180    22847841.360   120066276.6770   93558195.8530
  89659995.0290
  22619181.980    22619185.620    22619185.520   118865155.2670   92622494.0570
  88762933.3200
  20332124.020    20332123.040                   106846126.5260   83256768.9240

  22390940.700    22390941.280    22390946.360   117665401.0810   91687449.2530
  87867227.3720
  24420319.560    24420346.260                   128329852.0170   99997408.7470

  22079943.480    22079945.180    22079949.380   116031210.0830   90414011.5390
  86646775.8520
  21167252.220    21167255.340    21167255.120   111234748.2640   86676487.5500
  83065011.8900
  20642821.500    20642823.240    20642823.820   108479012.9300   84529219.0650
  81007190.9480
  26057293.660    26057325.780                   136931559.0310  106699813.1700

 23  3  1 17  4 36.0000000  0 10G07G08G10G16G18G21G23G26G27G31
  24837144.420    24837147.120                   130520081.1920  101703973.5880

  22847365.540    22847369.860    22847370.060   120063799.9730   93556265.9550
  89658145.5410
  22618695.600    22618699.240    22618699.160   118862599.3810   92620502.4590
  88761024.7090
  20332097.360    20332096.400                   106845986.5110   83256659.8230

  22391472.900    22391473.500    22391478.580   117668197.8740   91689628.5700
  87869315.8900
  24419675.840    24419702.500                   128326469.3300   99994772.9210

  22079792.320    22079794.020    22079798.200   116030415.6950   90413392.5370
  86646182.6440
  21167688.460    21167691.580    21167691.360   111237040.7310   86678273.8860
  83066723.8000
  20642604.240    20642605.980    20642606.560   108477871.2340   84528329.4340
  81006338.3910
  26057915.760    26057947.860                   136934828.4490  106702360.7800

 23  3  1 17  4 37.0000000  0 10G07G08G10G16G18G21G23G26G27G31
  24836775.220    24836777.900                   130518141.0460  101702461.7820

  22846894.280    22846898.620    22846898.800   120061323.5450   93554336.2750
  89656296.2640
  22618209.340    22618212.960    22618212.880   118860044.0120   92618511.2670
  88759116.4790
  20332070.860    20332069.900                   106845847.2210   83256551.2860

  22392005.200    22392005.800    22392010.880   117670995.1060   91691808.2340
  87871404.7220
  24419032.200    24419058.840                   128323087.0730   99992137.4630

  22079641.300    22079642.980    22079647.200   116029622.0850   90412774.1400
  86645590.0150
  21168124.820    21168127.940    21168127.720   111239333.7980   86680060.6930
  83068436.1540
  20642387.060    20642388.820    20642389.400   108476730.0010   84527440.1630
  81005486.1690
  26058537.860    26058569.960                   136938097.8160  106704908.3680

 23  3  1 17  4 38.0000000  0 10G07G08G10G16G18G21G23G26G27G31
  24836406.140    24836408.800                   130516201.5390  101700950.4770

  22846423.100    22846427.420    22846427.620   120058847.4460   93552406.8510
  89654447.2410
  22617723.180    22617726.800    22617726.720   118857489.2050   92616520.5130
  88757208.6810
  20332044.500    20332043.540                   106845708.6960   83256443.3440

  22392537.580    22392538.180    22392543.260   117673792.7840   91693988.2410
  87873493.8970
  24418388.580    24418415.220                   128319705.2270   99989502.3000

  22079490.440    22079492.120    22079496.340   116028829.3050   90412156.3910
  86644998.0080
  21168561.300    21168564.420    21168564.180   111241627.5080   86681847.9970
  83070148.9920
  20642170.000    20642171.740    20642172.320   108475589.2640   84526551.2770
  81004634.3260
  26059159.980    26059192.040                   136941367.1630  106707455.9380

 23  3  1 17  4 39.0000000  0 10G07G08G10G16G18G21G23G26G27G31
  24836037.160    24836039.800                   130514262.4810  101699439.5310

  22845951.920    22845956.260    22845956.440   120056371.4370   93550477.4950
  89652598.2690
  22617237.080    22617240.700    22617240.600   118854934.7250   92614530.0100
  88755301.1180
  20332018.240    20332017.280                   106845570.7010   83256335.8180

  22393070.000    22393070.600    22393075.680   117676590.6860   91696168.4240
  87875583.2340
  24417745.040    24417771.660                   128316323.5560   99986867.2140

  22079339.700    22079341.360    22079345.580   116028037.1170   90411539.1030
  86644406.4380
  21168997.840    21169000.980    21169000.740   111243921.6220   86683635.6190
  83071862.1230
  20641952.960    20641954.720    20641955.300   108474448.7790   84525662.5900
  81003782.6650
  26059782.040    26059814.080                   136944636.2500  106710003.3190

 23  3  1 17  4 40.0000000  0 10G07G08G10G16G18G21G23G26G27G31
  24835668.260    24835670.900                   130512323.9300  101697928.9700

  22845480.780    22845485.120    22845485.300   120053895.5760   93548548.2530
  89650749.4160
  22616751.060    22616754.660    22616754.580   118852380.6490   92612539.8270
  88753393.8560
  20331992.100    20331991.120                   106845433.3290   83256228.7730

  22393602.500    22393603.080    22393608.160   117679388.8870   91698348.8400
  87877672.8000
  24417101.540    24417128.120                   128312942.1090   99984232.3550

  22079189.080    22079190.740    22079194.960   116027245.5950   90410922.3340
  86643815.3630
  21169434.500    21169437.620    21169437.380   111246216.2180   86685423.6140
  83073575.6180
  20641736.000    20641737.760    20641738.340   108473308.6490   84524774.1750
  81002931.2680
  26060404.100    26060436.100                   136947905.1660  106712550.5750

 23  3  1 17  4 41.0000000  0 10G07G08G10G16G18G21G23G26G27G31
  24835299.480    24835302.140                   130510385.8720  101696418.8010

  22845009.660    22845014.020    22845014.200   120051419.8850   93546619.1490
  89648900.6930
  22616265.100    22616268.720    22616268.620   118849826.9640   92610549.9450
  88751486.8870
  20331966.080    20331965.100                   106845296.5510   83256122.1920

  22394135.020    22394135.620    22394140.700   117682187.3720   91700529.4720
  87879762.5770
  24416458.100    24416484.700                   128309560.9090   99981597.7270

  22079038.560    22079040.220    22079044.460   116026454.7070   90410306.0630
  86643224.7810
  21169871.220    21169874.360    21169874.100   111248511.2780   86687211.9710
  83075289.4660
  20641519.100    20641520.840    20641521.440   108472168.8270   84523886.0040
  81002080.1070
  26061026.120    26061058.100                   136951173.9370  106715097.7310

 23  3  1 17  4 42.0000000  0 10G07G08G10G16G18G21G23G26G27G31
  24834930.740    24834933.400                   130508448.2280  101694908.9510

  22844538.560    22844542.900    22844543.100   120048944.2560   93544690.0940
  89647052.0210
  22615779.200    22615782.820    22615782.720   118847273.5480   92608560.2740
  88749580.1290
  20331940.140    20331939.160                   106845160.2670   83256015.9990

  22394667.600    22394668.200    22394673.280   117684986.0460   91702710.2570
  87881852.4960
  24415814.660    24415841.260                   128306179.8430   99978963.2100

  22078888.180    22078889.840    22078894.080   116025664.3920   90409690.2330
  86642634.6160
  21170308.020    21170311.180    21170310.900   111250806.7090   86689000.6180
  83077003.5880
  20641302.240    20641303.980    20641304.580   108471029.2330   84522998.0090
  81001229.1160
  26061648.040    26061680.000                   136954442.3750  106717644.6080

 23  3  1 17  4 43.0000000  0 10G07G08G10G16G18G21G23G26G27G31
  24834562.100    24834564.780                   130506511.0350  101693399.4460

  22844067.480    22844071.840    22844072.040   120046468.7740   93542761.1490
  89645203.4410
  22615293.380    22615296.980    22615296.900   118844720.5260   92606570.9120
  88747673.6470
  20331914.340    20331913.340                   106845024.5880   83255910.2750

  22395200.200    22395200.820    22395205.900   117687785.0040   91704891.2610
  87883942.6250
  24415171.260    24415197.820                   128302799.0050   99976328.7890

  22078737.900    22078739.560    22078743.820   116024874.7330   90409074.9190
  86642044.9280
  21170744.920    21170748.060    21170747.800   111253102.6210   86690789.6400
  83078718.0600
  20641085.440    20641087.200    20641087.780   108469889.9630   84522110.2670
  81000378.3600
  26062269.940    26062301.880                   136957710.5970  106720191.3180

 23  3  1 17  4 44.0000000  0 10G07G08G10G16G18G21G23G26G27G31
  24834193.580    24834196.240                   130504574.4310  101691890.4060

  22843596.460    22843600.800    22843601.000   120043993.4660   93540832.3390
  89643355.0060
  22614807.640    22614811.240    22614811.160   118842167.9340   92604581.8840
  88745767.4950
  20331888.620    20331887.640                   106844889.5310   83255805.0370

  22395732.900    22395733.520    22395738.600   117690584.2830   91707072.5150
  87886032.9960
  24414527.940    24414554.500                   128299418.4620   99973694.6550

  22078587.780    22078589.400    22078593.680   116024085.7580   90408460.1330
  86641455.7620
  21171181.900    21171185.060    21171184.780   111255399.0170   86692579.0370
  83080432.9050
  20640868.720    20640870.460    20640871.060   108468751.0570   84521222.8110
  80999527.8790
  26062891.840    26062923.740                   136960978.7090  106722737.9230

 23  3  1 17  4 45.0000000  0 10G07G08G10G16G18G21G23G26G27G31
  24833825.160    24833827.800                   130502638.3340  101690381.7650

  22843125.460    22843129.780    22843130.000   120041518.3840   93538903.7040
  89641506.7280
  22614321.960    22614325.580    22614325.480   118839615.7600   92602593.1810
  88743861.6650
  20331863.060    20331862.080                   106844755.1250   83255700.3040

  22396265.640    22396266.260    22396271.340   117693383.8850   91709254.0230
  87888123.6130
  24413884.620    24413911.200                   128296038.2050   99971060.7460

  22078437.760    22078439.400    22078443.680   116023297.4820   90407845.8920
  86640867.1120
  21171619.000    21171622.160    21171621.860   111257695.9290   86694368.8370
  83082148.1320
  20640652.060    20640653.800    20640654.400   108467612.5040   84520335.6300
  80998677.6620
  26063513.660    26063545.560                   136964246.7070  106725284.4300

 23  3  1 17  4 46.0000000  0 10G07G08G10G16G18G21G23G26G27G31
  24833456.820    24833459.480                   130500702.8390  101688873.5830

  22842654.500    22842658.840    22842659.060   120039043.5640   93536975.2770
  89639658.6590
  22613836.400    22613840.000    22613839.920   118837064.1040   92600604.8820
  88741956.2080
  20331837.620    20331836.620                   106844621.4290   83255596.1250

  22396798.480    22396799.080    22396804.180   117696183.8960   91711435.8500
  87890214.5290
  24413241.420    24413268.020                   128292658.2660   99968427.1150

  22078287.900    22078289.540    22078293.820   116022509.9670   90407232.2480
  86640279.0390
  21172056.180    21172059.360    21172059.060   111259993.4230   86696159.0920
  83083863.7910
  20640435.500    20640437.240    20640437.840   108466474.4000   84519448.7940
  80997827.7810
  26064135.480    26064167.380                   136967514.5830  106727830.8490

 23  3  1 17  4 47.0000000  0 10G07G08G10G16G18G21G23G26G27G31
  24833088.580    24833091.240                   130498767.6380  101687365.6320

  22842183.540    22842187.880    22842188.120   120036568.7080   93535046.8260
  89637810.5600
  22613350.880    22613354.480    22613354.400   118834512.6320   92598616.7260
  88740050.8950
  20331812.240    20331811.260                   106844488.1190   83255492.2470

  22397331.320    22397331.920    22397337.020   117698983.9900   91713617.7410
  87892305.5020
  24412598.180    24412624.780                   128289278.3740   99965793.4700

  22078138.140    22078139.760    22078144.060   116021722.9050   90406618.9530
  86639691.3040
  21172493.440    21172496.600    21172496.300   111262291.1820   86697949.5540
  83085579.6480
  20640218.940    20640220.680    20640221.280   108465336.4190   84518562.0580
  80996977.9910
  26064757.220    26064789.100                   136970782.0320  106730376.9570

 23  3  1 17  4 48.0000000  0 10G07G08G10G16G18G21G23G26G27G31
  24832720.120    24832722.740                   130496831.3620  101685856.8460

  22841712.320    22841716.660    22841716.900   120034092.4480   93533117.2790
  89635961.3990
  22612865.120    22612868.720    22612868.640   118831959.9880   92596627.6550
  88738144.7000
  20331786.700    20331785.700                   106844353.8400   83255387.6140

  22397863.920    22397864.520    22397869.620   117701782.7950   91715798.6290
  87894395.5130
  24411954.740    24411981.280                   128285897.1690   99963158.8060

  22077988.200    22077989.800    22077994.100   116020934.9280   90406004.9470
  86639102.8760
  21172930.480    21172933.640    21172933.340   111264587.8350   86699739.1510
  83087294.6790
  20640002.160    20640003.900    20640004.500   108464197.1830   84517674.3430
  80996127.2620
  26065378.640    26065410.480                   136974047.6950  106732921.6800

 23  3  1 17  4 49.0000000  0 10G07G08G10G16G18G21G23G26G27G31
  24832351.620    24832354.240                   130494894.8110  101684347.8460

  22841240.980    22841245.340    22841245.560   120031615.5660   93531187.2390
  89634111.7910
  22612379.300    22612382.880    22612382.800   118829406.9400   92594638.2700
  88736238.2090
  20331761.120    20331760.120                   106844219.3770   83255282.8400

  22398396.420    22398397.020    22398402.120   117704581.0960   91717979.1190
  87896485.1520
  24411311.160    24411337.740                   128282515.4170   99960523.6950

  22077838.220    22077839.820    22077844.140   116020146.8120   90405390.8330
  86638514.3550
  21173367.440    21173370.620    21173370.320   111266884.1620   86701528.4970
  83089009.4700
  20639785.280    20639787.020    20639787.620   108463057.4860   84516786.2680
  80995276.1880
  26065999.860    26066031.700                   136977312.4330  106735465.6980

 23  3  1 17  4 50.0000000  0 10G07G08G10G16G18G21G23G26G27G31
  24831983.160    24831985.780                   130492958.6220  101682839.1320

  22840769.640    22840774.000    22840774.240   120029138.7370   93529257.2440
  89632262.2120
  22611893.520    22611897.100    22611897.020   118826854.1670   92592649.1030
  88734331.9190
  20331735.620    20331734.620                   106844085.4080   83255178.4480

  22398928.960    22398929.560    22398934.640   117707379.5600   91720159.7400
  87898574.9180
  24410667.620    24410694.140                   128279133.7360   99957888.6250

  22077688.360    22077689.940    22077694.260   116019359.2350   90404777.1400
  86637926.2270
  21173804.480    21173807.660    21173807.360   111269180.8440   86703318.1170
  83090724.5170
  20639568.440    20639570.180    20639570.780   108461917.9790   84515898.3430
  80994425.2630
  26066621.000    26066652.860                   136980576.8880  106738009.4710

 23  3  1 17  4 51.0000000  0 10G07G08G10G16G18G21G23G26G27G31
  24831614.820    24831617.440                   130491023.1030  101681330.9350

  22840298.380    22840302.740    22840302.980   120026662.2590   93527327.5230
  89630412.8990
  22611407.840    22611411.440    22611411.360   118824301.9620   92590660.3740
  88732426.0620
  20331710.280    20331709.280                   106843952.2030   83255074.6540

  22399461.580    22399462.180    22399467.280   117710178.4890   91722340.7220
  87900665.0310
  24410024.180    24410050.660                   128275752.5200   99955253.9520

  22077538.640    22077540.220    22077544.560   116018572.4900   90404164.0950
  86637338.7310
  21174241.660    21174244.840    21174244.520   111271478.1800   86705108.2490
  83092440.0660
  20639351.700    20639353.440    20639354.040   108460778.9870   84515010.8180
  80993574.7190
  26067242.160    26067274.020                   136983841.2970  106740553.2000

 23  3  1 17  4 52.0000000  0 10G07G08G10G16G18G21G23G26G27G31
  24831246.660    24831249.260                   130489088.3800  101679823.3610

  22839827.200    22839831.560    22839831.800   120024186.2360   93525398.1590
  89628563.9210
  22610922.300    22610925.900    22610925.800   118821750.4320   92588672.1750
  88730520.7040
  20331685.100    20331684.100                   106843819.8970   83254971.5570

  22399994.320    22399994.920    22400000.000   117712978.0200   91724522.1720
  87902755.5740
  24409380.820    24409407.300                   128272371.8560   99952619.7380

  22077389.120    22077390.680    22077395.020   116017786.6940   90403551.7880
  86636751.9390
  21174678.960    21174682.160    21174681.820   111273776.2830   86706898.9770
  83094156.1780
  20639135.060    20639136.820    20639137.400   108459640.6200   84514123.7790
  80992724.6440
  26067863.380    26067895.180                   136987105.8300  106743097.0250

 23  3  1 17  4 53.0000000  0 10G07G08G10G16G18G21G23G26G27G31
  24830878.620    24830881.220                   130487154.3300  101678316.3050

  22839356.100    22839360.460    22839360.700   120021710.5420   93523469.0480
  89626715.1930
  22610436.880    22610440.460    22610440.380   118819199.4620   92586684.4100
  88728615.7590
  20331660.080    20331659.080                   106843688.3500   83254869.0510

  22400527.120    22400527.720    22400532.820   117715777.9790   91726703.9570
  87904846.4610
  24408737.520    24408764.020                   128268991.5540   99949985.8100

  22077239.740    22077241.300    22077245.660   116017001.7370   90402940.1310
  86636165.7620
  21175116.400    21175119.600    21175119.260   111276075.0090   86708690.1920
  83095872.7550
  20638918.540    20638920.280    20638920.880   108458502.7390   84513237.1210
  80991874.9260
  26068484.600    26068516.360                   136990370.3350  106745640.8290

 23  3  1 17  4 54.0000000  0 10G07G08G10G16G18G21G23G26G27G31
  24830510.740    24830513.380                   130485221.1810  101676809.9630

  22838885.080    22838889.440    22838889.700   120019235.4250   93521540.3940
  89624866.8960
  22609951.580    22609955.180    22609955.080   118816649.3010   92584697.2760
  88726711.4220
  20331635.220    20331634.240                   106843557.8200   83254767.3410

  22401060.080    22401060.680    22401065.780   117718578.6530   91728886.3020
  87906937.8710
  24408094.360    24408120.820                   128265611.9360   99947352.4230

  22077090.580    22077092.140    22077096.480   116016217.8380   90402329.3060
  86635580.3890
  21175554.000    21175557.200    21175556.860   111278374.6250   86710482.0990
  83097590.0050
  20638702.140    20638703.880    20638704.480   108457365.6050   84512351.0440
  80991025.7710
  26069105.840    26069137.580                   136993635.0410  106748184.8090

 23  3  1 17  4 55.0000000  0 10G07G08G10G16G18G21G23G26G27G31
  24830143.060    24830145.700                   130483289.0760  101675304.4310

  22838414.220    22838418.580    22838418.820   120016761.0100   93519612.2810
  89623019.1090
  22609466.480    22609470.060    22609469.980   118814100.0300   92582710.8350
  88724807.7560
  20331610.600    20331609.600                   106843428.4150   83254666.5060

  22401593.180    22401593.780    22401598.880   117721380.1260   91731069.2680
  87909029.8780
  24407451.360    24407477.800                   128262233.0370   99944719.5520

  22076941.640    22076943.180    22076947.540   116015435.1210   90401719.3970
  86634995.8890
  21175991.780    21175994.980    21175994.640   111280675.2300   86712274.7780
  83099307.9830
  20638485.920    20638487.660    20638488.260   108456229.3140   84511465.6230
  80990177.2380
  26069727.140    26069758.860                   136996900.1050  106750729.0700

 23  3  1 17  4 56.0000000  0 10G07G08G10G16G18G21G23G26G27G31
  24829775.540    24829778.220                   130481357.7270  101673799.4830

  22837943.440    22837947.800    22837948.040   120014287.0240   93517684.5030
  89621171.6590
  22608981.500    22608985.080    22608985.000   118811551.4380   92580724.9250
  88722904.5900
  20331586.140    20331585.160                   106843299.8880   83254566.3570

  22402126.400    22402127.000    22402132.100   117724182.1660   91733252.6730
  87911122.3040
  24406808.440    24406834.880                   128258854.6850   99942087.1130

  22076792.860    22076794.400    22076798.760   116014653.3160   90401110.2010
  86634412.0850
  21176429.700    21176432.920    21176432.560   111282976.5860   86714068.0400
  83101026.5250
  20638269.800    20638271.540    20638272.140   108455093.6110   84510580.6640
  80989329.1540
  26070348.440    26070380.180                   137000165.2790  106753273.3950

 23  3  1 17  4 57.0000000  0 10G07G08G10G16G18G21G23G26G27G31
  24829408.120    24829410.800                   130479426.9660  101672294.9950

  22837472.720    22837477.060    22837477.320   120011813.3080   93515756.9320
  89619324.4120
  22608496.600    22608500.180    22608500.100   118809003.3420   92578739.3980
  88721001.7950
  20331561.820    20331560.820                   106843172.0460   83254466.7370

  22402659.680    22402660.300    22402665.380   117726984.5840   91735436.3720
  87913215.0250
  24406165.600    24406192.040                   128255476.6540   99939454.9280

  22076644.240    22076645.760    22076650.140   116013872.2790   90400501.6020
  86633828.8450
  21176867.740    21176870.960    21176870.600   111285278.4990   86715861.7390
  83102745.4920
  20638053.760    20638055.500    20638056.100   108453958.3530   84509696.0450
  80988481.3910
  26070969.700    26071001.480                   137003430.3350  106755817.6210

 23  3  1 17  4 58.0000000  0 10G07G08G10G16G18G21G23G26G27G31
  24829040.820    24829043.480                   130477496.8340  101670791.0060

  22837002.040    22837006.400    22837006.640   120009339.8990   93513829.6050
  89617477.3880
  22608011.820    22608015.400    22608015.320   118806455.7820   92576754.2910
  88719099.3990
  20331537.640    20331536.640                   106843044.9470   83254367.7020

  22403193.040    22403193.660    22403198.740   117729787.4280   91737620.4060
  87915308.0540
  24405522.840    24405549.320                   128252098.9980   99936823.0560

  22076495.760    22076497.280    22076501.660   116013092.0300   90399893.6200
  86633246.1970
  21177305.900    21177309.120    21177308.760   111287581.0190   86717655.9080
  83104464.9040
  20637837.800    20637839.560    20637840.160   108452823.5360   84508811.7740
  80987633.9700
  26071590.960    26071622.760                   137006695.3260  106758361.7790

 23  3  1 17  4 59.0000000  0 10G07G08G10G16G18G21G23G26G27G31
  24828673.700    24828676.320                   130475567.5130  101669287.6530

  22836531.440    22836535.800    22836536.040   120006866.9080   93511902.6010
  89615630.6740
  22607527.160    22607530.740    22607530.660   118803908.8800   92574769.6930
  88717197.4990
  20331513.620    20331512.620                   106842918.7160   83254269.3400

  22403726.520    22403727.140    22403732.220   117732590.8320   91739804.8770
  87917401.5050
  24404880.160    24404906.640                   128248721.8730   99934191.5570

  22076347.460    22076348.960    22076353.380   116012312.7160   90399286.3620
  86632664.2400
  21177744.180    21177747.420    21177747.060   111289884.2780   86719450.6550
  83106184.8700
  20637621.960    20637623.720    20637624.320   108451689.3310   84507927.9800
  80986787.0030
  26072212.280    26072244.040                   137009960.4420  106760906.0300

 23  3  1 17  5  0.0000000  0 10G07G08G10G16G18G21G23G26G27G31
  24828306.700    24828309.320                   130473638.8730  101667784.8270

  22836060.920    22836065.280    22836065.520   120004394.2800   93509975.8800
  89613784.2430
  22607042.620    22607046.200    22607046.100   118801362.5710   92572785.5620
  88715296.0360
  20331489.740    20331488.740                   106842793.2890   83254171.6060

  22404260.080    22404260.700    22404265.780   117735394.7300   91741989.7300
  87919495.3150
  24404237.540    24404264.080                   128245345.1720   99931560.4440

  22076199.320    22076200.820    22076205.240   116011534.2580   90398679.7740
  86632082.9280
  21178182.600    21178185.860    21178185.480   111292188.2110   86721245.9280
  83107905.3360
  20637406.240    20637408.000    20637408.600   108450555.6520   84507044.5930
  80985940.4240
  26072833.580    26072865.320                   137013225.5110  106763450.2580

 23  3  1 17  5  1.0000000  0 10G07G08G10G16G18G21G23G26G27G31
  24827939.740    24827942.400                   130471710.5560  101666282.2360

  22835590.380    22835594.760    22835594.980   120001921.6550   93508049.1570
  89611937.7940
  22606558.120    22606561.700    22606561.600   118798816.4930   92570801.6100
  88713394.7480
  20331465.960    20331464.960                   106842668.2900   83254074.2050

  22404793.680    22404794.300    22404799.360   117738198.7330   91744174.6630
  87921589.2190
  24403594.940    24403621.460                   128241968.5640   99928929.3590

  22076051.280    22076052.780    22076057.200   116010756.2950   90398073.5710
  86631501.9780
  21178621.100    21178624.340    21178623.960   111294492.4520   86723041.4380
  83109626.0290
  20637190.540    20637192.300    20637192.900   108449422.1350   84506161.3340
  80985093.9630
  26073454.820    26073486.540                   137016490.2420  106765994.2670

 23  3  1 17  5  2.0000000  0 10G07G08G10G16G18G21G23G26G27G31
  24827572.900    24827575.560                   130469782.7700  101664780.0550

  22835119.900    22835124.260    22835124.500   119999449.2000   93506122.5730
  89610091.4900
  22606073.700    22606077.260    22606077.160   118796270.8090   92568817.9640
  88711493.7580
  20331442.280    20331441.300                   106842543.9170   83253977.2900

  22405327.320    22405327.940    22405333.020   117741003.0460   91746359.8440
  87923683.3470
  24402952.460    24402978.900                   128238592.2490   99926298.4740

  22075903.360    22075904.860    22075909.280   116009978.9960   90397467.8820
  86630921.5310
  21179059.660    21179062.920    21179062.520   111296797.1720   86724837.3190
  83111347.0880
  20636974.900    20636976.660    20636977.260   108448288.9500   84505278.3340
  80984247.7570
  26074075.940    26074107.720                   137019754.8480  106768538.1820

 23  3  1 17  5  3.0000000  0 10G07G08G10G16G18G21G23G26G27G31
  24827206.140    24827208.800                   130467855.4310  101663278.2460

  22834649.420    22834653.780    22834654.020   119996976.8950   93504196.1050
  89608245.2940
  22605589.340    22605592.900    22605592.800   118793725.5060   92566834.6140
  88709593.0470
  20331418.740    20331417.740                   106842420.1110   83253880.8180

  22405861.020    22405861.640    22405866.700   117743807.6130   91748545.2220
  87925777.6690
  24402309.960    24402336.380                   128235216.0800   99923667.7280

  22075755.560    22075757.040    22075761.480   116009202.3260   90396862.6880
  86630341.5540
  21179498.320    21179501.580    21179501.180   111299102.3430   86726633.5570
  83113068.4820
  20636759.300    20636761.080    20636761.680   108447156.0720   84504395.5720
  80983401.7750
  26074697.060    26074728.920                   137023019.2290  106771081.9150

 23  3  1 17  5  4.0000000  0 10G07G08G10G16G18G21G23G26G27G31
  24826839.540    24826842.160                   130465928.7690  101661776.9500

  22834179.020    22834183.380    22834183.640   119994504.9390   93502269.9080
  89606399.3510
  22605105.100    22605108.640    22605108.560   118791180.7630   92564851.7030
  88707692.7620
  20331395.320    20331394.320                   106842297.0740   83253784.9480

  22406394.800    22406395.420    22406400.480   117746612.6510   91750730.9640
  87927872.3360
  24401667.520    24401693.940                   128231840.3480   99921037.3730

  22075607.920    22075609.400    22075613.860   116008426.4910   90396258.1460
  86629762.1990
  21179937.100    21179940.360    21179939.960   111301408.1420   86728430.2830
  83114790.3450
  20636543.820    20636545.600    20636546.180   108446023.6830   84503513.1950
  80982556.1620
  26075318.220    26075350.060                   137026283.5490  106773625.5590

 23  3  1 17  5  5.0000000  0 10G07G08G10G16G18G21G23G26G27G31
  24826473.040    24826475.660                   130464002.8010  101660276.2020

  22833708.680    22833713.040    22833713.300   119992033.3040   93500343.9610
  89604553.6500
  22604620.960    22604624.500    22604624.420   118788636.5900   92562869.2370
  88705792.8990
  20331372.060    20331371.060                   106842174.8160   83253689.6790

  22406928.660    22406929.280    22406934.360   117749418.1340   91752917.0520
  87929967.3390
  24401025.200    24401051.580                   128228465.0120   99918407.2480

  22075460.440    22075461.900    22075466.380   116007651.4760   90395654.2400
  86629183.4550
  21180376.000    21180379.260    21180378.860   111303714.5820   86730227.5080
  83116512.6850
  20636328.420    20636330.200    20636330.800   108444891.7960   84502631.2050
  80981710.9230
  26075939.380    26075971.200                   137029547.8770  106776169.2180

 23  3  1 17  5  6.0000000  0 10G07G08G10G16G18G21G23G26G27G31
  24826106.640    24826109.260                   130462077.3060  101658775.8060

  22833238.380    22833242.720    22833243.000   119989561.8430   93498418.1490
  89602708.0910
  22604136.880    22604140.440    22604140.340   118786092.8120   92560887.0720
  88703893.3290
  20331348.900    20331347.900                   106842053.1460   83253594.8720

  22407462.580    22407463.220    22407468.280   117752223.9130   91755103.3710
  87932062.5620
  24400382.920    24400409.280                   128225089.9450   99915777.3760

  22075313.100    22075314.540    22075319.020   116006877.1280   90395050.8520
  86628605.2150
  21180814.980    21180818.260    21180817.860   111306021.5060   86732025.1110
  83118235.3880
  20636113.100    20636114.880    20636115.480   108443760.2500   84501749.4810
  80980865.9420
  26076560.520    26076592.280                   137032811.9560  106778712.6830

 23  3  1 17  5  7.0000000  0 10G07G08G10G16G18G21G23G26G27G31
  24825740.340    24825742.920                   130460152.3920  101657275.8620

  22832768.120    22832772.460    22832772.740   119987090.6330   93496492.5330
  89600862.7100
  22603652.900    22603656.460    22603656.360   118783549.5030   92558905.2790
  88701994.1080
  20331325.880    20331324.880                   106841932.1650   83253500.6030

  22407996.580    22407997.200    22408002.280   117755030.0650   91757289.9830
  87934158.0590
  24399740.680    24399767.040                   128221715.1790   99913147.7500

  22075165.880    22075167.340    22075171.820   116006103.5180   90394448.0390
  86628027.5170
  21181254.080    21181257.360    21181256.940   111308328.9660   86733823.1310
  83119958.4950
  20635897.840    20635899.620    20635900.220   108442629.1010   84500868.0680
  80980021.2480
  26077181.600    26077213.360                   137036075.9640  106781256.0980

 23  3  1 17  5  8.0000000  0 10G07G08G10G16G18G21G23G26G27G31
  24825374.120    24825376.700                   130458227.8670  101655776.2380

  22832297.880    22832302.220    22832302.500   119984619.4790   93494566.9630
  89599017.3730
  22603168.980    22603172.520    22603172.440   118781006.4680   92556923.6950
  88700095.0900
  20331302.960    20331301.960                   106841811.6900   83253406.7260

  22408530.600    22408531.220    22408536.300   117757836.3850   91759476.7240
  87936253.6880
  24399098.480    24399124.860                   128218340.5800   99910518.2310

  22075018.760    22075020.220    22075024.700   116005330.4580   90393845.6540
  86627450.2340
  21181693.240    21181696.520    21181696.100   111310636.7940   86735621.4360
  83121681.8710
  20635682.640    20635684.400    20635685.020   108441498.1540   84499986.8110
  80979176.7200
  26077802.660    26077834.420                   137039339.7770  106783799.3810

