     2.11           OBSERVATION DATA    M (MIXED)           RINEX VERSION / TYPE
NetR9 5.37          Receiver Operator   20230402 185157 UTC PGM / RUN BY / DATE
Map of observations from RINEX 3 to RINEX 2.11              COMMENT
 G: C1C->C1 C2W->P2 C5X->C5 L1C->L1 L2W->L2 L5X->L5         COMMENT
VIGO                                                        MARKER NAME
Area de Geodesia    Instituto Geografico Nacional           OBSERVER / AGENCY
5303K49825          TRIMBLE NETR9       5.37                REC # / TYPE / VERS
5550362313          TRM59900.00     SCIS                    ANT # / TYPE
  4677481.0580  -725205.0810  4260827.1670                  APPROX POSITION XYZ
        0.0000        0.0000        0.0000                  ANTENNA: DELTA H/E/N
     6    C1    P2    C5    L1    L2    L5                  # / TYPES OF OBSERV
    30.000                                                  INTERVAL
  2022    12    25    00    00   00.0000000     GPS         TIME OF FIRST OBS
  2022    12    25    23    59   30.0000000     GPS         TIME OF LAST OBS
    31                                                      # OF SATELLITES
   G01   872   860   872   867   855   872                  PRN / # OF OBS
   G02  1117  1088        1109  1081                        PRN / # OF OBS
   G03   824   817   823   801   797   823                  PRN / # OF OBS
   G04  1024   983  1024  1017   980  1024                  PRN / # OF OBS
   G05   848   837         842   832                        PRN / # OF OBS
   G06   887   874   885   874   861   885                  PRN / # OF OBS
   G07  1101  1071        1093  1065                        PRN / # OF OBS
   G08   865   855   865   856   854   865                  PRN / # OF OBS
   G09   922   875   922   910   868   922                  PRN / # OF OBS
   G10  1114  1098  1113  1109  1096  1113                  PRN / # OF OBS
   G11  1007   972  1006   996   968  1006                  PRN / # OF OBS
   G12   820   801         815   798                        PRN / # OF OBS
   G13   861   823         859   823                        PRN / # OF OBS
   G14  1130  1104  1130  1123  1102  1130                  PRN / # OF OBS
   G15   831   825         831   825                        PRN / # OF OBS
   G16   820   783         812   782                        PRN / # OF OBS
   G17  1055  1053        1047  1046                        PRN / # OF OBS
   G18  1062  1038  1061  1053  1030  1061                  PRN / # OF OBS
   G19  1047  1029        1043  1029                        PRN / # OF OBS
   G20   828   768         818   766                        PRN / # OF OBS
   G21   902   886         899   886                        PRN / # OF OBS
   G22  1074   987        1072   987                        PRN / # OF OBS
   G23  1076  1055  1076  1073  1055  1076                  PRN / # OF OBS
   G24   861   847   861   849   840   861                  PRN / # OF OBS
   G25   841   834   841   839   833   841                  PRN / # OF OBS
   G26   845   841   845   844   841   845                  PRN / # OF OBS
   G27   860   849   860   860   849   860                  PRN / # OF OBS
   G29   962   944         945   932                        PRN / # OF OBS
   G30  1015   962  1015   998   949  1015                  PRN / # OF OBS
   G31   851   844         838   835                        PRN / # OF OBS
   G32  1062  1053  1062  1059  1051  1061                  PRN / # OF OBS
                                                            END OF HEADER
 22 12 25  0  0  0.0000000  0 11G01G07G08G10G14G16G21G23G27G30G32
  21924413.391    21924421.141    21924419.422   115213767.7230   89776865.5880
  86036136.2420
  24784841.539    24784846.535                   130245207.3910  101489789.7530

  20331972.766    20331979.207    20331978.047   106845181.6550   83256113.6970
  79787080.1800
  22380689.219    22380695.355    22380693.363   117611406.3200   91645277.0220
  87826691.5040
  24625043.070    24625047.617    24625050.957   129405453.7690  100835447.6220
  96633951.7260
  24106535.219    24106538.859                   126680691.4020   98712268.1090

  20848465.977    20848469.250                   109559465.9640   85371061.8110

  24854658.727                    24854668.598   130612116.4371
  97535051.2050
  21385005.242    21385011.777    21385011.031   112379102.6290   87568100.9530
  83919403.0390
  25177666.625    25177673.566    25177673.734   132309542.2600  103098364.0780
  98802555.7200
  24544150.695    24544156.664    24544155.914   128980357.7120  100504225.3380
  96316528.6230
 22 12 25  0  0 30.0000000  0 11G01G07G08G10G14G16G21G23G27G30G32
  21909987.648    21909994.906    21909993.395   115137959.3050   89717794.1150
  85979526.0910
  24796494.891    24796499.766                   130306443.0751  101537505.7231

  20332418.391    20332424.930    20332423.750   106847524.0180   83257938.9080
  79788829.3380
  22392642.656    22392649.020    22392646.938   117674223.5920   91694225.5560
  87873600.4910
  24606819.211    24606823.570    24606827.039   129309685.4950  100760822.9640
  96562436.4480
  24127941.664    24127945.984                   126793183.7840   98799924.5150

  20845068.711    20845072.172                   109541614.2020   85357151.3550

  24874063.258                    24874071.805   130714080.3971
  97611193.1220
  21397035.930    21397042.496    21397041.609   112442323.9200   87617364.2800
  83966613.7190
  25183418.391    25183424.703    25183424.781   132339765.3951  103121914.5691
  98825124.9110
  24532088.602    24532094.586    24532094.848   128916972.2180  100454834.0530
  96269195.3710
 22 12 25  0  1  0.0000000  0 11G01G07G08G10G14G16G21G23G27G30G32
  21895614.992    21895622.895    21895621.145   115062432.4950   89658942.0910
  85923126.2440
  24808187.000    24808192.188                   130367891.7720  101585387.8060

  20332937.258    20332943.484    20332942.336   106850249.0470   83260062.3100
  79790864.2690
  22404677.617    22404684.184    22404682.609   117737470.6120   91743508.9420
  87920830.4240
  24588644.211    24588648.254    24588651.387   129214175.7200  100686399.7590
  96491114.2050
  24149365.367    24149370.414                   126905767.9680   98887652.4130

  20841728.453    20841731.738                   109524058.9070   85343471.9250

  24893501.586                    24893509.281   130816222.9691
  97687468.3790
  21409124.664    21409131.012    21409130.375   112505850.1490   87666865.2380
  84014052.1390
  25189250.000    25189256.281    25189256.160   132370409.3811  103145792.9941
  98848008.3600
  24520078.570    24520084.867    24520083.590   128853855.9870  100405652.6070
  96222063.1630
 22 12 25  0  1 30.0000000  0 11G01G07G08G10G14G16G21G23G27G30G32
  21881296.734    21881304.344    21881302.613   114987187.7760   89600309.8700
  85866937.0430
  24819920.352    24819926.031                   130429550.7650  101633433.7200

  20333528.742    20333535.086    20333533.926   106853357.7460   83262484.6750
  79793185.6960
  22416795.328    22416801.020    22416799.609   117801145.3000   91793125.5850
  87968379.7160
  24570518.828    24570523.457    24570526.102   129118927.0500  100612180.0140
  96419986.9190
  24170806.703    24170811.195                   127018441.4610   98975449.9540

  20838443.922    20838447.285                   109506799.4190   85330022.9830

  24912970.391                    24912978.348
  97763875.0030
  21421271.313    21421277.746    21421277.082   112569680.8500   87716603.4370
  84061717.9040
  25195161.578    25195168.004    25195168.043   132401472.0900  103169997.6400
  98871204.5070
  24508119.484    24508126.063    24508124.914   128791011.8170  100356683.1650
  96175134.0770
 22 12 25  0  2  0.0000000  0 10G01G07G08G10G14G16G21G27G30G32
  21867031.406    21867039.645    21867037.902   114912226.1060   89541898.2010
  85810959.1960
  24831693.516    24831699.316                   130491417.5600  101681641.5840

  20334193.102    20334199.805    20334198.602   106856850.7330   83265206.4770
  79795794.0970
  22428993.328    22428998.840    22428997.434   117865245.8670   91843074.0810
  88016247.0110
  24552443.688    24552448.254    24552451.398   129023942.4570  100538166.0050
  96349056.8410
  24192264.055    24192268.516                   127131201.2990   99063314.7540

  20835215.672    20835219.086                   109489835.1580   85316804.0800

  21433475.328    21433482.188    21433481.320   112633815.7510   87766578.6780
  84109610.8640
  25201151.313    25201157.203    25201157.266   132432952.1740  103194527.5450
  98894712.3360
  24496212.625    24496219.141    24496218.652   128728442.7200  100307928.0480
  96128410.4630
 22 12 25  0  2 30.0000000  0 11G01G03G07G08G10G14G16G21G27G30G32
  21852820.656    21852828.988    21852827.063   114837548.2320   89483707.6780
  85755193.2820
  25123409.938    25123418.621    25123418.980   132024363.5491  102876198.7311
  98589660.2171
  24843505.773    24843511.355                   130553489.5370  101730009.3850

  20334931.242    20334937.754    20334936.570   106860728.9030   83268228.4260
  79798690.1360
  22441271.273    22441277.656    22441276.160   117929769.8580   91893352.5220
  88064430.5130
  24534420.219    24534424.668    24534427.180   128929224.7160  100464359.9490
  96278326.0530
  24213737.641    24213742.367                   127244046.1360   99151245.7930

  20832043.867    20832047.082                   109473165.7230   85303814.9210

  21445738.117    21445744.445    21445743.703   112698254.6440   87816790.7920
  84157730.7940
  25207218.930    25207227.359    25207226.531   132464847.7701  103219381.2531
  98918530.4500
  24484359.492    24484365.402    24484364.379   128666151.6200  100259389.5840
  96081894.4250
 22 12 25  0  3  0.0000000  0 11G01G03G07G08G10G14G16G21G27G30G32
  21838663.828    21838672.195    21838670.414   114763154.5480   89425738.5940
  85699639.5860
  25100768.727    25100775.383    25100776.527   131905377.0980  102783482.0661
  98500806.7040
  24855355.586    24855361.977                   130615763.5470  101778534.6090

  20335742.648    20335749.203    20335748.035   106864992.9040   83271551.0210
  79801874.2830
  22453629.961    22453636.199    22453634.289   117994715.4930   91943959.5090
  88112928.8690
  24516447.141    24516451.617    24516455.242   128834776.3140  100390763.8220
  96207796.3720
  24235227.172    24235231.797                   127356973.8590   99239241.4190

  20828927.242    20828930.781                   109456790.1410   85291054.7360

  21458058.164    21458064.539    21458063.633   112762996.8250   87867239.2380
  84206077.2220
  25213367.789    25213375.750    25213375.484   132497156.9571  103244557.1581
  98942657.4080
  24472559.055    24472564.969    24472564.320   128604141.2900  100211069.8580
  96035588.0210
 22 12 25  0  3 30.0000000  0 11G01G03G07G08G10G14G16G21G27G30G32
  21824561.828    21824569.508    21824567.965   114689045.4150   89367991.2500
  85644298.3860
  25078130.055    25078135.906    25078137.645   131786408.7111  102690779.4901
  98411966.6980
  24867244.258    24867250.176                   130678236.7330  101827214.9890

  20336627.711    20336634.141    20336632.992   106869643.3840   83275174.7680
  79805347.0500
  22466068.469    22466074.801    22466073.207   118060080.1170   91994892.9810
  88161740.1230
  24498525.922    24498530.559    24498533.031   128740599.6450  100317379.3850
  96137469.6540
  24256731.789    24256736.230                   127469980.8230   99327298.7930

  20825867.031    20825870.199                   109440707.2870   85278522.6470

  21470436.008    21470442.070    21470441.367   112828041.5960   87917923.4620
  84254649.5960
  25219594.273    25219601.430    25219603.266   132529877.5211  103270053.7671
  98967091.5760
  24460812.508    24460818.789    24460817.660   128542414.1000  100162970.7920
  95989493.0950
 22 12 25  0  4  0.0000000  0 11G01G03G07G08G10G14G16G21G27G30G32
  21810513.500    21810521.316    21810519.438   114615221.0380   89310465.7860
  85589169.8490
  25055493.406    25055500.914    25055502.461   131667460.6700  102598092.6860
  98323141.8600
  24879170.430    24879175.469                   130740905.8440  101876048.1300

  20337586.281    20337592.582    20337591.551   106874680.1900   83279099.5460
  79809108.2960
  22478586.023    22478592.391    22478590.281   118125861.1240   92046150.9050
  88210862.3040
  24480656.609    24480661.465    24480664.879   128646697.2500  100244208.6610
  96067347.6920
  24278250.859    24278254.996                   127583065.2610   99415416.5630

  20822861.703    20822865.355                   109424916.2040   85266217.9190

  21482870.820    21482877.141    21482876.473   112893388.1660   87968842.8620
  84303447.3560
  25225896.547    25225905.703    25225906.668   132563007.5290  103295869.3570
  98991831.5320
  24449120.719    24449126.801    24449125.980   128480972.5700  100115094.2930
  95943611.4630
 22 12 25  0  4 30.0000000  0 11G01G03G07G08G10G14G16G21G27G30G32
  21796519.344    21796527.387    21796525.430   114541682.3080   89253162.9060
  85534254.5770
  25032862.094    25032868.934    25032871.793   131548535.4541  102505410.7611
  98234334.1360
  24891131.625    24891137.414                   130803768.0740  101925031.6630

  20338618.273    20338624.742    20338623.750   106880104.5330   83283326.3060
  79813158.9410
  22491182.602    22491189.230    22491187.004   118192056.7870   92097731.9400
  88260294.1350
  24462842.078    24462845.148    24462848.449   128553071.8510  100171253.7880
  95997432.6340
  24299784.766    24299788.871                   127696224.4090   99503592.4790

  20819912.258    20819915.664                   109409416.2800   85254140.0650

  21495363.367    21495369.797    21495368.555   112959036.2520   88019997.1990
  84352470.2580
  25232279.977    25232288.137    25232288.793   132596544.8071  103322002.3301
  99016875.5600
  24437483.047    24437489.383    24437489.422   128419819.7140  100067442.7370
  95897945.4110
 22 12 25  0  5  0.0000000  0 11G01G03G07G08G10G14G16G21G27G30G32
  21782579.906    21782587.941    21782585.996   114468430.1010   89196083.2950
  85479553.2970
  25010236.672    25010244.207    25010247.125   131429635.9000  102412761.7741
  98145545.4930
  24903131.539    24903136.246                   130866821.0970  101974163.8690

  20339724.703    20339731.066    20339729.930   106885917.7860   83287856.1100
  79817500.0000
  22503858.164    22503864.250    22503862.691   118258665.2770   92149634.6710
  88310034.2420
  24445077.781    24445082.012    24445085.711   128459726.5050  100098517.1920
  95927726.6910
  24321331.953    24321336.219                   127809456.1320   99591824.9960

  20817018.266    20817021.461                   109394207.3350   85242288.9460

  21507913.172    21507919.457    21507918.648   113024985.7180   88071386.3910
  84401718.2370
  25238740.594    25238747.301    25238748.051   132630487.8451  103348451.4261
  99042222.7030
  24425901.875    24425908.227    24425907.672   128358958.6470  100020018.5780
  95852497.2610
 22 12 25  0  5 30.0000000  0 11G01G03G07G08G10G14G16G21G27G30G32
  21768695.234    21768702.969    21768701.113   114395464.7180   89139227.1740
  85425066.1800
  24987616.227                    24987626.309   131310763.9730
  98056777.5370
  24915164.836    24915170.035                   130930061.7030  102023442.2880

  20340904.500    20340911.258    20340910.090   106892119.8700   83292688.8950
  79822131.4260
  22516610.789    22516617.648    22516615.656   118325683.7090   92201856.8110
  88360080.4590
  24427369.375    24427373.164    24427376.648   128366663.5500  100026000.5910
  95858231.6490
  24342891.828    24342896.594                   127922757.7120   99680111.9520

  20814179.125    20814182.578                   109379288.3730   85230663.7900

  21520520.406    21520526.383    21520525.805   113091235.7980   88123009.8170
  84451190.6840
  25245276.008    25245282.109    25245283.945   132664834.4791  103375215.0281
  99067871.1100
  24414376.430    24414382.574    24414381.797   128298391.8120   99972823.6610
  95807268.8120
 22 12 25  0  6  0.0000000  0 11G01G03G07G08G10G14G16G21G27G30G32
  21754864.859    21754872.859    21754870.891   114322786.2020   89082594.5940
  85370793.2830
  24965002.563    24965011.023    24965011.336   131191921.6740  102227545.9321
  97968031.6610
  24927234.344    24927239.855                   130993486.7480  102072864.3990

  20342159.086    20342165.496    20342164.293   106898710.7410   83297824.6330
  79827053.1790
  22529441.906    22529447.910    22529446.484   118393109.6440   92254396.5000
  88410431.0000
  24409712.563    24409717.910    24409721.574   128273885.2470   99953705.8210
  95788949.1240
  24364465.805    24364470.668                   128036127.3500   99768451.9220

  20811395.125    20811398.336                   109364657.9740   85219263.4840

  21533184.055    21533190.582    21533189.672   113157785.4670   88174866.6910
  84500886.8630
  25251887.680    25251895.277    25251896.305   132699582.3641  103402291.2551
  99093819.1660
  24402907.672    24402914.598    24402912.660   128238121.4940   99925859.8040
  95762261.7480
 22 12 25  0  6 30.0000000  0 11G01G03G07G08G10G14G16G21G27G30G32
  21741089.023    21741097.086    21741095.383   114250395.2680   89026186.0970
  85316735.1570
  24942392.297    24942401.141    24942401.953   131073111.5080  102134966.6300
  97879309.8180
  24939338.859    24939343.438                   131057093.5910  102122428.2290

  20343487.656    20343493.992    20343492.727   106905691.8050   83303264.4230
  79832266.3020
  22542350.055    22542356.043    22542354.367   118460941.2830   92307252.3250
  88461084.5000
  24392112.281    24392117.355    24392121.160   128181394.3400   99881635.0020
  95719881.2370
  24386051.820    24386056.184                   128149561.9440   99856842.5430

  20808666.438    20808669.145                   109350315.6730   85208087.6800

  21545904.922    21545911.320    21545910.742   113224634.3880   88226956.7520
  84550806.4860
  25258576.016    25258583.785    25258584.129   132734729.5611  103429678.6591
  99120065.4840
  24391495.266    24391501.801    24391501.125   128178150.5160   99879129.2180
  95717478.2770
 22 12 25  0  7  0.0000000  0 11G01G03G07G08G10G14G16G21G27G30G32
  21727368.430    21727376.090    21727374.750   114178293.1930   88970002.6910
  85262892.7310
  24919790.422    24919798.852    24919800.316   130954336.5350  102042414.6950
  97790614.2430
  24951476.516    24951482.121                   131120880.0610  102172131.8790

  20344890.406    20344896.859    20344895.641   106913063.8370   83309008.8600
  79837771.3890
  22555334.508    22555340.855    22555339.055   118529176.4900   92360422.6160
  88512039.3530
  24374567.609    24374572.066    24374576.250   128089194.1560   99809790.7090
  95651030.4900
  24407649.719    24407654.582                   128263059.8610   99945282.4410

  20805991.539    20805994.516                   109336261.3070   85197136.2290

  21558682.688    21558689.535    21558688.492   113291782.6640   88279280.0770
  84600949.6900
  25265340.211                    25265348.945   132770274.7381
  99146608.9250
  24380140.453    24380147.441    24380146.758   128118482.4280   99832634.5970
  95672920.9560
 22 12 25  0  7 30.0000000  0 11G01G03G07G08G10G14G16G21G27G30G32
  21713703.281    21713710.621    21713709.254   114106480.2240   88914044.5570
  85209266.2020
  24897196.445    24897203.723    24897204.551   130835598.9030  101949891.8820
  97701946.5350
  24963647.805    24963654.266                   131184842.9840  102221973.1450

  20346367.766    20346374.270    20346373.066   106920827.8160   83315058.7160
  79843569.1720
  22568395.688    22568401.914    22568400.199   118597813.3380   92413905.8750
  88563294.1520
  24357077.117    24357082.613    24357086.973   127997287.2670   99738174.9730
  95582398.7390
  24429259.203    24429263.863                   128376618.3300  100033769.5580

  20803371.727    20803374.828                   109322493.8920   85186408.3730

  21571517.758    21571523.969    21571523.215   113359229.6360   88331836.1480
  84651315.9200
  25272180.719    25272187.430    25272188.164   132806215.6721  103485379.0861
  99173447.9310
  24368844.828    24368851.313    24368850.566   128059119.6100   99786377.8700
  95628591.6110
 22 12 25  0  8  0.0000000  0 11G01G03G07G08G10G14G16G21G27G30G32
  21700092.680    21700100.129    21700098.746   114034957.0770   88858312.2680
  85155856.0960
  24874607.539    24874615.867    24874617.531   130716901.0770  101857400.0890
  97613308.5750
  24975852.063    24975858.637                   131248979.6120  102271949.7140

  20347919.828    20347926.395    20347925.305   106928984.5620   83321414.6200
  79849660.2400
  22581532.836    22581539.250    22581537.484   118666849.5680   92467700.3400
  88614847.1580
  24339644.781    24339649.949    24339653.895   127905676.2530   99666789.7850
  95513987.9430
  24450880.344    24450884.184                   128490236.0470  100122302.8110

  20800806.188    20800809.465                   109309012.8820   85175903.6870

  21584409.016    21584415.473    21584414.641   113426974.8550   88384624.6320
  84701904.8780
  25279096.055    25279102.105    25279102.199   132842550.6040  103513691.9630
  99200581.1380
  24357606.430    24357613.113    24357611.430   128000065.0070   99740361.3190
  95584492.3990
 22 12 25  0  8 30.0000000  0 11G01G03G07G08G10G14G16G21G27G30G32
  21686537.172    21686544.914    21686543.418   113963723.8200   88802805.8610
  85102662.4570
  24852028.859    24852035.930    24852037.777   130598245.1160  101764940.8750
  97524701.8890
  24988091.398    24988095.188                   131313286.6640  102322059.1470

  20349546.797    20349553.266    20349552.191   106937533.9150   83328076.4480
  79856044.4990
  22594745.680    22594751.832    22594749.750   118736282.3000   92521803.7680
  88666696.2930
  24322268.359    24322273.145    24322277.277   127814363.5640   99595637.0530
  95445799.8990
  24472510.914    24472515.691                   128603909.7840  100210879.7950

  20798295.086    20798298.449                   109295816.8710   85165621.0760

  21597356.813    21597363.430    21597362.586   113495017.3290   88437644.7290
  84752715.8140
  25286083.703    25286091.059    25286090.984   132879277.0091  103542309.8761
  99228006.6210
  24346427.742    24346433.836    24346433.715   127941320.8530   99694586.6750
  95540625.0290
 22 12 25  0  9  0.0000000  0 11G01G03G07G08G10G14G16G21G27G30G32
  21673037.367    21673044.848    21673043.324   113892780.9330   88747525.7150
  85049685.6730
  24829457.531    24829464.625    24829466.633   130479633.3800  101672516.1760
  97436128.1660
  25000358.586    25000363.934                   131377761.1150  102372298.9360

  20351248.258    20351254.754    20351253.797   106946475.7800   83335044.1310
  79862721.8700
  22608033.328    22608039.289    22608037.531   118806109.2900   92576214.4150
  88718839.8200
  24304950.508    24304954.586    24304958.555   127723351.7460   99524718.7740
  95377836.5590
  24494152.578    24494157.141                   128717636.6870  100299498.1290

  20795838.273    20795841.477                   109282905.3130   85155560.1280

  21610361.953    21610367.910    21610367.000   113563356.5220   88490896.0470
  84803748.3090
  25293146.469    25293153.875    25293154.262   132916392.6001  103571231.1671
  99255722.8280
  24335309.000    24335315.816    24335314.547   127882889.7560   99649055.9620
  95496991.4520
 22 12 25  0  9 30.0000000  0 11G01G03G07G08G10G14G16G21G27G30G32
  21659592.648    21659600.105    21659598.750   113822128.6080   88692471.9840
  84996925.8520
  24806895.070    24806902.621    24806904.008   130361067.8250  101580127.4820
  97347588.9930
  25012660.336    25012665.094                   131442399.9460  102422666.8070

  20353024.898    20353031.340    20353030.270   106955811.2110   83342318.4940
  79869693.1230
  22621395.164    22621401.949    22621399.465   118876327.9380   92630930.2500
  88771275.8200
  24287688.211    24287692.969    24287697.055   127632643.0040   99454036.6270
  95310099.5050
  24515803.836    24515807.879                   128831414.5870  100388156.2030

  20793434.844    20793438.355                   109270276.9440   85145719.8510

  21623422.258    21623428.902    21623427.945   113631991.4420   88544377.7890
  84855001.6580
  25300282.742    25300290.164    25300290.875   132953895.2390  103600453.9550
  99283728.0700
  24324250.328    24324256.328    24324256.121   127824774.0380   99603771.0450
  95453593.4030
 22 12 25  0 10  0.0000000  0 11G01G03G07G08G10G14G16G21G27G30G32
  21646203.461    21646210.758    21646209.359   113751767.4690   88637645.1480
  84944383.4720
  24784343.250    24784349.777    24784351.309   130242551.0500  101487776.8010
  97259086.2350
  25024990.523    25024996.297                   131507200.4160  102473160.7700

  20354876.047    20354882.801    20354881.820   106965540.8470   83349900.0190
  79876958.7600
  22634831.469    22634838.059    22634835.910   118946936.1670   92685949.6490
  88824002.7420
  24270485.813    24270489.289    24270493.734   127542240.1740   99383592.8610
  95242590.9090
  24537465.258    24537468.398                   128945241.2000  100476852.3100

  20791085.547    20791089.070                   109257931.2580   85136099.8310

  21636539.492    21636545.883    21636545.047   113700921.7930   88598089.7500
  84906475.6250
  25307494.188    25307500.047    25307498.949   132991782.8030  103629976.7760
  99312020.7190
  24313252.070    24313257.957    24313256.895   127766976.6320   99558734.1140
  95410433.0310
 22 12 25  0 10 30.0000000  0 11G01G03G07G08G10G14G16G21G27G30G32
  21632870.164    21632877.145    21632875.496   113681698.0600   88583045.6270
  84892058.9390
  24761797.852    24761806.758    24761807.832   130124085.4330  101395465.9380
  97170621.7070
  25037351.852    25037357.723                   131572159.7810  102523778.4430

  20356802.828    20356809.551    20356808.336   106975665.2460   83357789.1590
  79884519.1920
  22648341.953    22648348.039    22648346.020   119017931.8260   92741270.9430
  88877018.9970
  24253341.328    24253345.277    24253349.512   127452145.9550   99313389.5540
  95175312.7410
  24559134.609    24559138.047                   129059113.6680  100565584.0790

  20788789.922    20788793.516                   109245867.3180   85126699.3530

  21649713.375    21649719.238    21649717.918   113770146.9550   88652031.4210
  84958169.7180
  25314776.469    25314782.352    25314783.488   133030053.3450  103659797.9450
  99340599.2950
  24302314.148    24302320.344    24302320.020   127709500.1530   99513947.2790
  95367512.3320
 22 12 25  0 11  0.0000000  0 11G01G03G07G08G10G14G16G21G27G30G32
  21619591.547    21619599.023    21619597.387   113611920.9870   88528673.9050
  84839952.7120
  24739266.102    24739273.723    24739275.633   130005673.4470  101303196.9100
  97082197.2250
  25049742.336    25049749.070                   131637274.8900  102574517.4790

  20358804.797    20358811.289    20358810.199   106986185.0490   83365986.4130
  79892374.8800
  22661924.781    22661931.262    22661929.105   119089312.5490   92796892.2900
  88930322.7810
  24236256.367    24236260.633    24236263.969   127362363.0480   99243428.8450
  95108267.0700
  24580812.336    24580815.516                   129173030.3660  100654350.3450

  20786547.477    20786551.285                   109234084.3200   85117517.8070

  21662942.016    21662948.203    21662947.219   113839666.3960   88706202.4100
  85010083.5830
  25322130.742    25322137.852    25322137.219   133068704.4140  103689915.5960
  99369462.0900
  24291438.641    24291444.266    24291443.535   127652347.3640   99469412.6900
  95324833.3250
 22 12 25  0 11 30.0000000  0 11G01G03G07G08G10G14G16G21G27G30G32
  21606369.148    21606376.598    21606374.992   113542436.8260   88474530.4350
  84788065.2100
  24716744.000    24716751.945    24716752.797   129887317.6080  101210971.6400
  96993814.6930
  25062162.609    25062168.555                   131702543.3710  102625376.0440

  20360881.984    20360888.613    20360887.328   106997101.1090   83374492.4240
  79900526.4800
  22675581.078    22675587.488    22675585.301   119161076.1060   92852811.9510
  88983912.4500
  24219230.961    24219234.934    24219238.563   127272894.2220   99173712.8790
  95041455.9190
  24602497.055    24602501.695                   129286988.6260  100743149.0050

  20784358.586    20784362.383                   109222582.2120   85108555.1350

  21676226.578    21676232.969    21676232.270   113909479.7220   88760602.3980
  85062216.8960
  25329558.523    25329565.051    25329565.449   133107734.4420  103720328.7280
  99398607.8880
  24280624.555    24280630.910    24280630.512   127595521.0570   99425132.4830
  95282398.1160
 22 12 25  0 12  0.0000000  0 11G01G03G07G08G10G14G16G21G27G30G32
  21593202.289    21593209.895    21593208.410   113473245.8490   88420615.4080
  84736396.6630
  24694232.648    24694240.680    24694241.906   129769020.2070  101118791.8730
  96905475.7440
  25074610.938    25074617.820                   131767962.2010  102676351.8270

  20363034.492    20363041.141    20363040.047   107008413.2110   83383307.0520
  79908973.8210
  22689309.852    22689316.387    22689314.074   119233220.3160   92909028.2220
  89037786.3780
  24202265.148    24202269.625    24202273.301   127183741.8790   99104243.4910
  94974881.0980
  24624189.922    24624194.734                   129400986.4770  100831978.4860

  20782223.266    20782226.879                   109211359.7410   85099810.3540

  21689567.695    21689573.926    21689572.762   113979586.0870   88815230.7290
  85114569.0440
  25337057.477    25337064.000    25337063.910   133147140.8480  103751034.9460
  99428034.7120
  24269873.203    24269879.426    24269878.602   127539023.5370   99381108.4350
  95240208.4660
 22 12 25  0 12 30.0000000  0 11G01G03G07G08G10G14G16G21G27G30G32
  21580091.703    21580099.133    21580097.734   113404348.5280   88366929.2240
  84684947.3960
  24671733.156    24671740.824    24671742.004   129650783.3900  101026659.3500
  96817182.0800
  25087086.648    25087093.996                   131833528.3450  102727442.5040

  20365262.922    20365269.367    20365268.184   107020122.5320   83392431.1920
  79917717.7930
  22703109.898    22703116.270    22703114.707   119305742.2410   92965538.8120
  89091942.3610
  24185361.852    24185365.336    24185368.844   127094908.5450   99035022.7040
  94908544.5130
  24645890.352    24645894.805                   129515020.9530  100920836.4910

  20780141.141    20780144.191                   109200415.9560   85091282.7410

  21702963.906    21702970.121    21702969.563   114049984.8610   88870086.8990
  85167139.5470
  25344627.445    25344634.281    25344633.277   133186921.4690  103782032.7560
  99457740.9770
  24259186.070    24259191.828    24259191.512   127482857.5220   99337342.7380
  95198266.3100
 22 12 25  0 13  0.0000000  0 11G01G03G07G08G10G14G16G21G27G30G32
  21567036.977    21567044.125    21567042.898   113335744.8820   88313471.8460
  84633717.4290
  24649244.625    24649252.633    24649254.238   129532609.3880  100934575.6930
  96728935.2590
  25099594.094    25099598.527                   131899238.5720  102778645.0490

  20367566.680    20367573.016    20367571.918   107032228.7790   83401864.6280
  79926758.1880
  22716981.867    22716988.656    22716986.266   119378639.7190   93022342.0460
  89146378.7950
  24168517.320    24168522.508    24168525.867   127006396.5420   98966052.3170
  94842447.8890
  24667596.609    24667601.172                   129629089.7870  101009721.2800

  20778111.258    20778114.406                   109189749.8290   85082971.4640

  21716415.781    21716422.160    21716421.352   114120675.0840   88925170.1850
  85219927.6960
  25352267.797    25352274.270    25352273.664   133227073.8590  103813320.2480
  99487724.8550
  24248561.258    24248567.191    24248566.547   127427025.2670   99293837.1250
  95156573.4110
 22 12 25  0 13 30.0000000  0 12G01G03G07G08G10G14G16G21G22G27G30G32
  21554038.031    21554045.727    21554044.207   113267436.3290   88260244.4160
  84582707.8060
  24626769.977    24626777.164    24626779.074   129414501.2940  100842543.4260
  96640737.7050
  25112123.922    25112129.207                   131965090.9440  102829958.7570

  20369946.383    20369952.688    20369951.617   107044733.9930   83411608.9440
  79936096.4830
  22730925.758    22730931.625    22730929.469   119451911.1410   93079436.6630
  89201094.4690
  24151736.820    24151740.641    24151744.512   126918209.3450   98897335.0270
  94776593.8240
  24689309.703    24689314.051                   129743191.0890  101098631.3470

  20776134.375    20776137.383                   109179361.2990   85074876.5050

  24826429.156                                   130463743.8891

  21729923.102    21729929.773    21729928.816   114191656.9930   88980480.7540
  85272933.6560
  25359978.531    25359986.000    25359984.504   133267596.5741  103844896.4581
  99517985.3530
  24238001.031    24238006.316    24238005.672   127371530.1950   99250594.1940
  95115132.2810
 22 12 25  0 14  0.0000000  0 12G01G03G07G08G10G14G16G21G22G27G30G32
  21541095.398    21541103.203    21541101.586   113199423.0320   88207247.0580
  84531918.6850
  24604307.383    24604315.199    24604316.566   129296461.2610  100750564.2290
  96552590.9660
  25124681.352    25124687.164                   132031082.2380  102881380.5970

  20372401.680    20372408.328    20372407.250   107057638.0030   83421664.0130
  79945732.5890
  22744938.609    22744945.301    22744943.254   119525553.7470   93136820.5140
  89256087.3300
  24135016.773    24135021.516    24135025.121   126830349.3290   98828872.6790
  94710984.0730
  24711028.477    24711031.777                   129857321.8560  101187564.4190

  20774210.180    20774213.191                   109169249.2870   85066997.0280

  24811954.203                                   130387682.9291

  21743486.211    21743492.445    21743491.414   114262929.7030   89036017.9160
  85326156.7690
  25367760.188    25367766.781    25367764.055   133308487.1390  103876759.1580
  99548520.4280
  24227504.859    24227510.059    24227509.816   127316374.5920   99207615.8270
  95073944.7050
 22 12 25  0 14 30.0000000  0 12G01G03G07G08G10G14G16G21G22G27G30G32
  21528209.352    21528216.871    21528215.316   113131705.3010   88154480.0260
  84481350.2840
  24581858.633    24581865.563    24581867.242   129178491.6020  100658639.8140
  96464496.7700
  25137264.680    25137271.863                   132097209.4460  102932926.2981

  20374933.172    20374939.797    20374938.699   107070940.9350   83432029.9290
  79955666.5820
  22759022.734    22759029.121    22759026.953   119599565.2430   93194491.8120
  89311355.6500
  24118360.641    24118365.172    24118368.613   126742818.9560   98760667.2060
  94645620.4840
  24732751.883    24732755.895                   129971480.3870  101276519.1220

  20772338.234    20772341.328                   109159412.9040   85059332.3150

  24797492.523                                   130311685.3291

  21757104.156    21757110.527    21757109.805   114334492.4200   89091781.0690
  85379596.4500
  25375610.422    25375618.004    25375616.211   133349743.3501  103908906.8011
  99579328.6220
  24217074.797    24217079.828    24217079.520   127261560.9690   99164903.9150
  95033012.4750
 22 12 25  0 15  0.0000000  0 12G01G03G07G08G10G14G16G21G22G27G30G32
  21515379.477    21515386.840    21515385.355   113064283.6950   88101943.7210
  84431002.9820
  24559423.383    24559430.426    24559432.391   129060594.7920  100566772.2220
  96376456.9250
  25149873.977    25149879.367                   132163469.5060  102984557.6210

  20377540.695    20377547.422    20377546.211   107084643.5690   83442707.2980
  79965899.0740
  22773176.398    22773182.625    22773181.074   119673943.2230   93252448.6770
  89366897.6490
  24101767.227    24101771.594    24101775.512   126655620.9410   98692720.6860
  94580505.0600
  24754480.492    24754484.250                   130085664.2330  101365493.5510

  20770518.680    20770521.875                   109149851.7380   85051882.0720

  24783044.234                                   130235754.0001

  21770776.969    21770783.520    21770782.531   114406344.6530   89147769.8150
  85433252.3220
  25383530.797    25383537.461    25383537.348   133391362.9321  103941337.6941
  99610408.2090
  24206709.391    24206714.844    24206714.234   127207092.0180   99122460.5860
  94992337.6200
 22 12 25  0 15 30.0000000  0 12G01G03G07G08G10G14G16G21G22G27G30G32
  21502605.828    21502613.527    21502611.848   112997158.3600   88049638.2780
  84380876.9390
  24537002.320    24537009.684    24537011.527   128942772.8840  100474962.9470
  96288473.0740
  25162507.047                                   132229859.7880

  20380224.703    20380230.926    20380229.848   107098746.1550   83453696.3230
  79976430.2230
  22787399.438    22787405.727    22787403.730   119748685.2360   93310689.2010
  89422711.4700
  24085237.758    24085242.324    24085245.852   126568757.5310   98625034.9400
  94515639.5460
  24776213.359    24776216.941                   130199870.9910  101454485.8230

  20768751.508    20768754.605                   109140564.3280   85044645.1380

  24768607.406                                   130159891.5481

  21784505.117    21784511.582    21784510.438   114478485.4440   89203983.4100
  85487123.6840
  25391518.914    25391526.703    25391525.523   133433343.4590  103974049.7870
  99641757.2950
  24196410.523    24196415.602    24196414.719   127152969.9990   99080287.5780
  94951921.8000
 22 12 25  0 16  0.0000000  0 12G01G03G07G08G10G14G16G21G22G27G30G32
  21489888.578    21489896.355    21489894.844   112930329.8760   87997564.1480
  84330972.5720
  24514596.477    24514604.047    24514605.688   128825028.4760  100383214.0640
  96200547.0540
  25175166.023                                   132296377.4000

  20382984.531    20382990.875    20382989.688   107113249.3410   83464997.5050
  79987260.5260
  22801691.695    22801697.391    22801695.293   119823788.8070   93369211.4740
  89478795.3280
  24068772.156    24068777.625    24068780.578   126482231.5420   98557612.0720
  94451025.9740
  24797949.508    24797954.266                   130314098.0930  101543493.9140

  20767036.117    20767039.320                   109131550.2550   85037621.1930

  24754186.617    24754191.559                   130084101.1290  101364276.4521

  21798288.258    21798294.023    21798293.254   114550914.2940   89260421.4670
  85541210.1540
  25399576.336    25399583.145    25399582.289   133475682.8601  104007041.5601
  99673374.3970
  24186178.180    24186183.758    24186183.137   127099197.5580   99038386.9800
  94911767.0600
 22 12 25  0 16 30.0000000  0 12G01G03G07G08G10G14G16G21G22G27G30G32
  21477228.219    21477236.031    21477234.398   112863798.5830   87945721.5980
  84281290.1270
  24492205.594    24492213.137    24492215.199   128707363.8800  100291527.3130
  96112680.6150
  25187847.125                                   132363019.1821

  20385820.727    20385827.020    20385825.840   107128153.2800   83476610.9650
  79998390.0880
  22816051.805    22816057.477    22816055.969   119899251.8040   93428013.8000
  89535147.5550
  24052371.516    24052376.547    24052380.418   126396045.4110   98490454.0280
  94386666.2080
  24819689.633    24819694.430                   130428343.1760  101632516.0490

  20765372.547    20765375.871                   109122808.6810   85030809.5770

  24739776.375    24739782.613                   130008385.0541  101305276.9621

  21812124.711    21812131.742    21812130.504   114623630.4330   89317083.3810
  85595511.1610
  25407700.195    25407708.500    25407706.305   133518378.5521  104040310.9231
  99705257.5670
  24176011.781    24176017.688    24176017.301   127045777.1630   98996760.7130
  94871875.2210
 22 12 25  0 17  0.0000000  0 12G01G03G07G08G10G14G16G21G22G27G30G32
  21464624.391    21464631.809    21464630.504   112797564.8570   87894110.9240
  84231829.9000
  24469831.688    24469838.305    24469839.668   128589781.4020  100199904.6210
  96024875.5140
  25200551.859                                   132429782.5670

  20388732.852    20388739.648    20388738.336   107143458.7220   83488537.2740
  80009819.4750
  22830479.438    22830485.773    22830483.414   119975071.5150   93487094.0990
  89591766.1540
  24036036.445    24036041.113    24036044.680   126310201.7600   98423562.8980
  94322562.1890
  24841431.656    24841437.613                   130542604.1820  101721550.5730

  20763760.797    20763764.117                   109114338.5660   85024209.4960

  24725384.523    24725388.387                   129932746.1261  101246337.5701

  21826017.375    21826023.457    21826022.602   114696633.1560   89373968.6090
  85650026.1610
  25415892.297    25415900.805    25415898.496   133561428.2370  104073856.1390
  99737405.0030
  24165914.273    24165920.012    24165919.379   126992711.3370   98955410.7190
  94832248.1310
 22 12 25  0 17 30.0000000  0 12G01G03G07G08G10G14G16G21G22G27G30G32
  21452077.602    21452084.758    21452083.305   112731629.2470   87842732.5390
  84182592.2790
  24447471.930    24447478.949    24447480.387   128472283.5430  100108347.8320
  95937133.6530
  25213280.188                                   132496664.4830

  20391722.063    20391728.684    20391727.484   107159166.3550   83500776.9860
  80021549.2030
  22844974.492    22844981.277    22844978.930   120051245.9040   93546450.7510
  89648649.6210
  24019766.500    24019771.148    24019774.996   126224703.2560   98356940.6710
  94258715.9140
  24863179.047    24863183.543                   130656878.3540  101810595.3850

  20762200.336    20762203.805                   109106139.0600   85017820.2620

  24711005.914                                   129857187.3711

  21839963.539    21839970.008    21839968.906   114769921.9730   89431076.7640
  85704754.8090
  25424149.891    25424159.148    25424158.617   133604829.8701  104107675.5991
  99769815.3260
  24155884.375    24155889.891    24155889.371   126940002.7370   98914339.0790
  94792887.8180
 22 12 25  0 18  0.0000000  0 12G01G03G07G08G10G14G16G21G22G27G30G32
  21439586.898    21439594.383    21439592.828   112665991.8710   87791586.5550
  84133577.3930
  24425130.016    24425135.699    24425138.316   128354872.4940  100016858.7510
  95849456.5600
  25226027.828                                   132563661.9550

  20394787.664    20394794.141    20394793.055   107175275.7360   83513329.7490
  80033578.9300
  22859537.297    22859543.457    22859541.801   120127772.2550   93606081.6690
  89705795.9250
  24003562.672    24003567.297    24003571.133   126139552.2230   98290589.2420
  94195129.1030
  24884927.172    24884930.410                   130771163.5620  101899648.7850

  20760691.430    20760694.934                   109098209.0510   85011641.0450

  24696643.297                                   129781711.5980

  21853964.141    21853970.480    21853969.586   114843495.8870   89488407.0730
  85759696.3510
  25432476.477    25432485.445    25432484.109   133648580.8921  104141776.2781
  99802486.5520
  24145922.047    24145927.719    24145927.383   126887653.5350   98873547.4990
  94753795.9050
 22 12 25  0 18 30.0000000  0 12G01G03G07G08G10G14G16G21G22G27G30G32
  21427153.109    21427160.805    21427159.328   112600653.4510   87740673.5240
  84084785.7490
  24402803.164    24402811.066    24402812.480   128237550.8630   99925439.3020
  95761846.2510
  25238799.305                                   132630772.1930

  20397929.891    20397936.254    20397935.199   107191788.0880   83526196.5140
  80045909.5780
  22874166.477    22874172.828    22874170.520   120204648.3140   93665985.0930
  89763203.3680
  23987425.414    23987430.336    23987434.254   126054751.5010   98224510.7600
  94131803.8900
  24906675.250    24906680.129                   130885457.3180  101988708.8560

  20759233.625    20759237.020                   109090548.6130   85005671.8720

  24682297.141    24682301.176                   129706321.9231  101069895.1551

  21868019.086    21868025.211    21868024.645   114917354.4540   89545959.2000
  85814850.4630
  25440868.695    25440875.840    25440874.945   133692679.0830  104176138.6020
  99835417.0970
  24136029.719    24136035.566    24136034.414   126835666.5540   98833038.1630
  94714974.4710
 22 12 25  0 19  0.0000000  0 11G01G03G08G10G14G16G21G22G27G30G32
  21414776.789    21414784.320    21414782.500   112535614.0500   87689993.4910
  84036217.3880
  24380495.758    24380502.684    24380504.219   128120320.7400   99834091.1700
  95674304.2960
  20401148.891    20401155.078    20401153.973   107208703.0950   83539377.0340
  80058540.9070
  22888860.906    22888867.754    22888865.715   120281871.7910   93726159.2280
  89820870.2560
  23971356.156    23971359.910    23971364.371   125970303.3970   98158707.0350
  94068742.0040
  24928425.797    24928430.512                   130999757.4270  102077773.8760

  20757826.945    20757830.465                   109083156.5860   84999911.8630

  24667967.352    24667972.164                   129631020.6170  101011218.8350

  21882128.039    21882134.137    21882133.285   114991496.7220   89603732.3880
  85870216.4450
  25449325.898    25449333.418    25449332.848   133737121.8221  104210769.1711
  99868604.7510
  24126205.414    24126212.031    24126211.332   126784043.9520   98792812.7650
  94676425.1240
 22 12 25  0 19 30.0000000  0 12G01G03G07G08G10G14G16G21G22G27G30G32
  21402457.031    21402464.813    21402462.957   112470874.4350   87639547.0580
  83987872.8880
  24358205.383    24358212.387    24358213.828   128003184.9620   99742816.5540
  95586832.7660
  25264402.227                                   132765313.9911

  20404444.609    20404450.805    20404449.781   107226022.3890   83552872.5870
  80071474.1550
  22903622.227    22903628.375    22903626.742   120359440.3940   93786602.2880
  89878794.8420
  23955353.250    23955358.051    23955361.859   125886210.7420   98093180.2760
  94005945.5410
  24950176.813    24950182.020                   131114061.3340  102166841.8000

  20756471.844    20756474.750                   109076032.1780   84994360.3730

  24653656.141    24653659.809                   129555811.2180  100952614.1860

  21896290.758    21896296.938    21896296.133   115065922.3280   89661726.3520
  85925793.9880
  25457847.523    25457855.738    25457856.098   133781907.3450  104245667.0310
  99902048.3640
  24116452.461    24116458.840    24116458.023   126732788.6180   98752873.5580
  94638150.0330
 22 12 25  0 20  0.0000000  0 12G01G03G07G08G10G14G16G21G22G27G30G32
  21390194.625    21390202.199    21390200.527   112406434.7590   87589334.3370
  83939752.3590
  24335933.609    24335940.660    24335942.293   127886145.4980   99651616.9810
  95499433.2250
  25277234.523                                   132832746.0611

  20407816.531    20407823.492    20407822.375   107243745.5140   83566682.8090
  80084708.9480
  22918448.734    22918454.922    22918452.430   120437351.4240   93847312.1840
  89936975.1640
  23939419.625    23939423.695    23939427.598   125802475.8730   98027932.3590
  93943416.2660
  24971928.375    24971933.027                   131228367.0100  102255911.1610

  20755166.367    20755169.684                   109069174.5270   84989016.7500

  24639363.461    24639366.563                   129480696.0240  100894082.8150

  21910507.172    21910513.496    21910512.355   115140630.3530   89719940.3950
  85981582.4430
  25466434.531    25466442.855    25466441.848   133827032.9841  104280829.7951
  99935746.1020
  24106769.633    24106775.105    24106774.742   126681902.6800   98713222.1860
  94600150.8160
 22 12 25  0 20 30.0000000  0 11G01G03G08G10G14G16G21G22G27G30G32
  21377989.656    21377997.066    21377995.379   112342295.5220   87539355.7240
  83891856.2090
  24313679.750    24313687.711    24313688.723   127769205.0240   99560494.5550
  95412107.5580
  20411266.461    20411272.980    20411271.902   107261872.9610   83580808.0900
  80098245.6740
  22933339.289    22933345.277    22933343.098   120515602.9320   93908287.3710
  89995409.7030
  23923553.883    23923557.883    23923561.695   125719101.5590   97962965.3560
  93881156.2090
  24993680.586    24993684.066                   131342672.7600  102344980.5110

  20753912.000    20753915.328                   109062582.5360   84983880.1360

  24625085.516    24625090.891                   129405678.1300  100835627.3940

  21924777.047    21924783.457    21924782.648   115215620.1680   89778373.9950
  86037581.3130
  25475087.195    25475094.816    25475093.871   133872496.2730  104316255.6440
  99969695.9380
  24097156.695    24097162.684    24097162.359   126631388.7450   98673860.6810
  94562429.3790
 22 12 25  0 21  0.0000000  0 12G01G03G07G08G10G14G16G21G22G27G30G32
  21365841.242    21365848.914    21365847.223   112278456.9330   87489611.3860
  83844184.5520
  24291446.281    24291453.715    24291455.656   127652365.7100   99469450.9940
  95324857.4840
  25302954.813                                   132967909.4861

  20414793.180    20414799.508    20414798.359   107280404.8780   83595248.5440
  80112084.4460
  22948293.719    22948300.313    22948298.238   120594192.1190   93969525.7100
  90054096.4480
  23907757.375    23907761.828    23907765.246   125636090.0830   97898281.0650
  93819167.1290
  25015431.414    25015435.555                   131456975.0191  102434047.2111

  20752708.305    20752711.129                   109056255.5480   84978950.0220

  24610829.211    24610834.672                   129330760.2770  100777249.8780

  21939100.664    21939107.141    21939106.082   115290890.9220   89837026.5210
  86093789.9840
  25483802.039                    25483810.340   133918294.8480
 100003896.1070
  24087614.992    24087620.984    24087620.738   126581249.0570   98634790.8090
  94524987.4330
 22 12 25  0 21 30.0000000  0 12G01G03G07G08G10G14G16G21G22G27G30G32
  21353750.484    21353758.188    21353756.477   112214919.6100   87440101.8010
  83796737.8890
  24269232.125    24269239.988    24269240.902   127535630.1650   99378488.2680
  95237684.8590
  25315843.477                                   133035647.1311

  20418397.023    20418403.230    20418401.980   107299342.0650   83610004.7920
  80126225.8450
  22963312.836    22963319.078    22963317.230   120673116.5730   94031025.2790
  90113033.5220
  23892030.070    23892034.270    23892038.137   125553444.2090   97833881.6840
  93757451.0650
  25037182.219    25037185.203                   131571272.1330  102523109.8870

  20751554.234    20751557.480                   109050193.2810   84974226.1930

  24596592.859    24596597.738                   129255945.4020  100718952.5440

  21953477.422    21953484.039    21953482.926   115366442.0880   89895897.5500
  86150208.0510
  25492580.344    25492588.359    25492586.340   133964426.5030  104387891.6451
 100038345.0430
  24078145.672    24078151.746    24078151.262   126531486.3390   98596014.6860
  94487826.9900
 22 12 25  0 22  0.0000000  0 11G01G03G08G10G14G16G21G22G27G30G32
  21341717.086    21341724.883    21341723.168   112151683.8500   87390827.2030
  83749516.3950
  24247039.281    24247045.844    24247047.359   127419000.6750   99287608.1450
  95150591.4470
  20422077.555    20422084.031    20422082.773   107318684.7340   83625076.9980
  80140670.0410
  22978395.125    22978401.137    22978399.625   120752373.9420   94092784.2780
  90172219.2320
  23876372.945    23876377.711    23876380.910   125471166.4470   97769769.1470
  93696009.8690
  25058930.953    25058933.707                   131685561.4960  102612166.5070

  20750450.594    20750454.105                   109044394.3460   84969707.5400

  24582376.383    24582381.105                   129181236.3730  100660737.7900

  21967907.844    21967914.027    21967913.375   115442272.8790   89954986.4650
  86206834.9160
  25501422.672    25501430.465    25501430.434   134010888.7071  104424095.7611
 100073040.7600
  24068748.109    24068754.480    24068753.730   126482102.8830   98557534.0840
  94450949.7410
 22 12 25  0 22 30.0000000  0 12G01G03G07G08G10G14G16G21G22G27G30G32
  21329741.008    21329748.926    21329747.051   112088749.9260   87341787.7980
  83702520.3080
  24224865.523    24224872.543    24224873.824   127302479.6020   99196812.5010
  95063578.9980
  25341672.383                                   133171380.0081

  20425835.273    20425842.102    20425840.855   107338433.5970   83640465.7190
  80155417.5690
  22993539.805    22993546.551    22993544.242   120831961.9520   94154800.9060
  90231651.8200
  23860786.500    23860791.348    23860794.496   125389259.2290   97705945.3310
  93634845.3790
  25080677.531    25080681.004                   131799841.2720  102701215.7390

  20749397.281    20749400.578                   109038858.3110   84965393.7480

  24568180.484    24568186.273                   129106635.9070  100602607.6160

  21982390.789    21982397.387    21982396.531   115518382.4950   90014292.6480
  86263670.0070
  25510327.461                    25510331.750   134057678.9770
 100107981.5220
  24059424.320    24059430.453    24059429.547   126433100.9970   98519350.8300
  94414357.4550
 22 12 25  0 23  0.0000000  0 12G01G03G07G08G10G14G16G21G22G27G30G32
  21317822.875    21317830.613    21317828.684   112026118.2740   87292983.9340
  83655749.9310
  24202713.070    24202720.523    24202721.879   127186069.4180   99106103.2700
  94976649.3020
  25354611.430                                   133239362.2521

  20429670.898    20429677.324    20429676.242   107358588.4090   83656170.7550
  80170468.2260
  23008747.391    23008753.770    23008752.305   120911878.2610   94217073.3490
  90291329.5830
  23845270.867    23845276.211    23845279.090   125307725.1370   97642412.2720
  93573959.5340
  25102422.055    25102425.715                   131914108.7740  102790255.3390

  20748393.844    20748396.941                   109033584.3150   84961284.1460

  24554005.719    24554009.762                   129032146.9970  100544564.3640

  21996926.602    21996933.492    21996932.504   115594770.2110   90073815.5290
  86320712.7840
  25519292.531    25519299.996    25519299.602   134104795.1100  104497261.5691
 100143165.6930
  24050172.047    24050178.164    24050177.406   126384483.1260   98481466.7860
  94378051.9090
 22 12 25  0 23 30.0000000  0 11G01G03G08G10G14G16G21G22G27G30G32
  21305961.602    21305969.586    21305967.914   111963789.1950   87244415.8390
  83609205.5170
  24180582.016    24180589.930    24180591.117   127069772.3790   99015482.2320
  94889804.1230
  20433583.523    20433590.160    20433588.996   107379150.1010   83672192.8580
  80185822.7510
  23024016.711    23024023.738    23024021.613   120992120.1720   94279599.5090
  90351250.4880
  23829826.711    23829831.766    23829835.285   125226566.7100   97579171.9420
  93513354.2180
  25124164.148    25124166.973                   132028361.5670  102879283.4620

  20747439.891    20747443.000                   109028571.1910   84957377.8120

  24539851.906    24539857.379                   128957772.4680  100486610.2790

  22011515.914    22011522.215    22011521.695   115671435.2840   90133554.5360
  86377962.6520
  25528319.953    25528326.742    25528327.117   134152234.5000  104534227.3600
 100178591.1130
  24040994.516    24041000.461    24040999.570   126336251.6810   98443883.8630
  94342034.9440
 22 12 25  0 24  0.0000000  0 12G01G03G07G08G10G14G16G21G22G27G30G32
  21294158.797    21294166.363    21294164.738   111901763.0920   87196083.8320
  83562887.3470
  24158474.133    24158481.816    24158482.285   126953590.8980   98924951.2340
  94803045.2610
  25380539.203                                   133375605.7151

  20437573.492    20437580.250    20437579.203   107400118.3980   83688531.7840
  80201480.8830
  23039348.273    23039354.543    23039352.793   121072685.3790   94342377.5920
  90411412.8120
  23814454.344    23814460.449    23814463.164   125145786.3910   97516226.2610
  93453031.2630
  25145902.188    25145905.645                   132142597.7320  102968298.6480

  20746535.297    20746538.699                   109023818.5580   84953674.4710

  24525721.453    24525726.547                   128883515.0230  100428747.2520

  22026157.273    22026163.891    22026163.066   115748376.9060   90193509.0400
  86435419.0500
  25537408.141                    25537415.160   134199994.7791
 100214256.2030
  24031889.484    24031896.207    24031895.535   126288408.9410   98406603.7890
  94306308.2290
 22 12 25  0 24 30.0000000  0 11G01G03G08G10G14G16G21G22G27G30G32
  21282413.484    21282420.813    21282419.188   111840040.2200   87147988.1100
  83516795.6080
  24136387.867    24136395.145    24136396.102   126837527.3690   98834512.1660
  94716374.4690
  20441641.578    20441647.949    20441646.734   107421493.7420   83705187.8920
  80217442.9920
  23054740.211    23054746.910    23054745.086   121153571.5460   94405405.7690
  90471814.8170
  23799155.625    23799160.594    23799163.805   125065386.7350   97453577.2090
  93392992.5630
  25167636.797    25167639.875                   132256814.6220  103057298.8030

  20745680.813    20745683.895                   109019325.6380   84950173.4980

  24511613.977    24511618.203                   128809377.7420  100370978.0520

  22040851.039    22040857.801    22040857.289   115825594.3260   90253678.4410
  86493081.3790
  25546557.836    25546563.984    25546565.180   134248073.3960  104608910.8591
 100250159.0680
  24022859.477    24022866.090    24022865.867   126240957.2560   98369628.4650
  94270873.5550
 22 12 25  0 25  0.0000000  0 11G01G03G08G10G14G16G21G22G27G30G32
  21270725.438    21270733.121    21270731.484   111778620.7830   87100128.8240
  83470930.4790
  24114325.039    24114332.109    24114333.016   126721584.1100   98744166.7910
  94629793.4750
  20445786.688    20445793.078    20445791.965   107443276.8640   83722161.7440
  80233709.5990
  23070193.328    23070199.652    23070197.332   121234776.1060   94468682.0560
  90532454.5900
  23783929.297    23783933.973    23783937.137   124985369.9790   97391226.5110
  93333239.8200
  25189366.789    25189371.000                   132371010.3080  103146282.4250

  20744874.711    20744878.082                   109015091.2760   84946873.9960

  24497528.781    24497534.695                   128735363.1090  100313304.3300

  22055597.859    22055604.371    22055603.465   115903086.6240   90314062.0430
  86550949.0030
  25555766.414    25555773.117    25555773.836   134296467.9480  104646620.9970
 100286297.7440
  24013905.336    24013912.000    24013910.594   126193898.8040   98332959.5790
  94235732.5340
 22 12 25  0 25 30.0000000  0 11G01G03G08G10G14G16G21G22G27G30G32
  21259095.648    21259103.168    21259101.527   111717505.1050   87052506.2360
  83425292.1620
  24092284.406    24092291.945    24092293.094   126605763.3430   98653916.8460
  94543303.9620
  20450009.203    20450015.813    20450014.664   107465467.3540   83739453.0280
  80250280.4140
  23085705.594    23085712.523    23085710.148   121316296.2880   94532204.2590
  90593330.0340
  23768775.258    23768781.074    23768783.863   124905738.6400   97329176.1220
  93273774.8590
  25211091.117    25211097.250

  20744117.641    20744121.238                   109011113.9230   84943774.7600

  24483469.500    24483474.168                   128661473.9620  100255728.3630

  22070396.391    22070402.598    22070401.727   115980852.9200   90374659.1450
  86609021.2360
  25565036.461    25565042.492    25565041.117   134345175.5620  104684574.9050
 100322670.3510
  24005025.258    24005031.758    24005030.727   126147235.9090   98296598.9020
  94200886.8480
 22 12 25  0 26  0.0000000  0 11G01G03G08G10G14G16G21G22G27G30G32
  21247523.586    21247531.348    21247529.531   111656693.7330   87005120.7680
  83379881.0990
  24070268.797    24070275.809    24070276.820   126490067.6860   98563764.4090
  94456907.8980
  20454309.648    20454316.184    20454315.016   107488065.6740   83757062.1050
  80267155.7830
  23101278.820    23101284.664    23101282.797   121398130.2500   94595970.9780
  90654439.8100
  23753696.305    23753700.984    23753704.469   124826495.4170   97267428.1450
  93214599.7430
  25232812.977    25232818.887                   132599327.6681  103324192.0281

  20743409.789    20743413.313                   109007394.2110   84940876.2820

  24469432.602    24469437.789                   128587713.3500  100198252.5760

  22085246.828    22085253.117    22085252.398   116058892.7740   90435469.4070
  86667297.7230
  25574361.156    25574370.480    25574371.410   134394194.3400  104722771.1900
 100359275.2090
  23996220.648    23996227.535    23996226.695   126100971.0510   98260548.3710
  94166338.4440
 22 12 25  0 26 30.0000000  0 11G01G03G08G10G14G16G21G22G27G30G32
  21236009.461    21236017.074    21236015.508   111596187.0680   86957972.7390
  83334697.5910
  24048276.383    24048283.664    24048284.633   126374499.6780   98473711.4300
  94370607.1440
  20458687.844    20458694.281    20458693.121   107511072.7920   83774989.7220
  80284336.4080
  23116910.227    23116915.926    23116914.402   121480275.2990   94659980.1210
  90715781.9050
  23738691.258    23738696.117    23738699.504   124747642.8090   97205984.5850
  93155716.3220
  25254529.828    25254534.141                   132713445.0681  103413114.7111

  20742750.781    20742754.301                   109003931.0960   84938177.7530

  24455420.664    24455426.313                   128514084.1880  100140879.1340

  22100149.031    22100155.402    22100154.645   116137205.2940   90496492.1390
  86725777.8480
  25583750.039    25583757.430    25583757.281   134443521.7080  104761209.1811
 100396110.5250
  23987493.094    23987500.039    23987499.742   126055106.5980   98224809.8190
  94132089.0430
 22 12 25  0 27  0.0000000  0 11G01G03G08G10G14G16G21G22G27G30G32
  21224553.766    21224560.895    21224559.477   111535985.2940   86911062.2920
  83289741.7320
  24026309.195    24026316.738    24026317.258   126259061.4430   98383759.5810
  94284403.2840
  20463143.719    20463150.219    20463149.035   107534488.7760   83793235.9380
  80301822.3620
  23132600.453    23132606.852    23132605.074   121562729.1790   94724229.8930
  90777354.6130
  23723760.680    23723765.145    23723769.219   124669183.2620   97144847.2640
  93097126.3940
  25276240.055    25276244.457                   132827531.9051  103502013.5171

  20742140.516    20742143.930                   109000723.4400   84935678.2870

  24441436.188    24441440.680                   128440589.4410  100083610.5310

  22115103.016    22115109.574    22115108.949   116215789.7270   90557726.7590
  86784461.0200
  25593195.344                    25593202.141   134493154.3201
 100433174.6380
  23978841.945    23978848.984    23978848.148   126009644.6970   98189385.0010
  94098140.2360
 22 12 25  0 27 30.0000000  0 11G01G03G08G10G14G16G21G22G27G30G32
  21213155.555    21213162.813    21213161.480   111476088.6300   86864389.5760
  83245013.7340
  24004367.297    24004374.543    24004375.348   126143755.3810   98293910.7300
  94198298.1440
  20467677.031    20467683.789    20467682.770   107558313.4320   83811800.6050
  80319613.5060
  23148349.203    23148355.805    23148353.973   121645489.3740   94788718.3560
  90839156.0460
  23708905.570    23708909.840    23708914.082   124591119.0570   97084018.0490
  93038831.7290
  25297944.219    25297948.258                   132941586.1561  103590886.8661

  20741578.781    20741581.938                   108997770.3480   84933377.1750

  24427476.211    24427480.555                   128367231.7630  100026448.7650

  22130108.727    22130115.230    22130114.609   116294645.1090   90619172.4930
  86843346.5170
  25602697.492    25602704.957    25602705.352   134543090.9881  104838796.3331
 100470464.9050
  23970267.406    23970274.797    23970273.570   125964587.6080   98154275.5900
  94064493.7240
 22 12 25  0 28  0.0000000  0 11G01G03G08G10G14G16G21G22G27G30G32
  21201815.828    21201822.969    21201821.629   111416497.3790   86817954.8490
  83200513.7900
  23982451.094    23982458.371    23982458.805   126028583.7250   98204166.6140
  94112293.3780
  20472288.719    20472295.254    20472294.301   107582546.8230   83830683.7620
  80337709.8620
  23164155.789    23164162.113    23164160.133   121728553.2460   94853443.4450
  90901184.2680
  23694126.641    23694130.641    23694134.883   124513452.6390   97023498.7470
  92980834.0990
  25319640.977    25319645.789                   133055604.9950  103679732.6500

  20741064.789    20741068.027                   108995071.0210   84931273.8040

  24413543.695    24413547.637                   128294014.1180   99969396.1100

  22145166.023    22145172.414    22145172.027   116373770.5860   90680828.7020
  86902433.7160
  25612257.766    25612265.430    25612265.289   134593328.8270  104877942.5911
 100507980.0630
  23961771.523    23961777.395    23961777.094   125919937.4220   98119483.2700
  94031151.0620
 22 12 25  0 28 30.0000000  0 11G01G03G08G10G14G16G21G22G27G30G32
  21190533.969    21190541.527    21190539.891   111357211.9260   86771758.4050
  83156242.2020
  23960560.633    23960567.793    23960568.547   125913549.1120   98114529.2800
  94026390.9110
  20476977.969    20476984.555    20476983.504   107607189.1430   83849885.5560
  80356111.5890
  23180019.453    23180025.895    23180023.914   121811918.5020   94918403.4040
  90963437.5470
  23679422.508    23679427.316    23679431.332   124436186.5430   96963291.3960
  92923135.3930
  25341330.648    25341335.891                   133169586.4020  103768549.3080

  20740599.367    20740602.598                   108992624.8370   84929367.6990

  24399637.898    24399642.988                   128220939.1710   99912454.6080

  22160274.172    22160280.715    22160280.137   116453165.4810   90742694.8420
  86961722.0900
  25621874.125    25621882.703    25621881.488   134643864.9810  104917321.3811
 100545718.1630
  23953352.422    23953358.738    23953358.031   125875696.6280   98085009.9350
  93998114.1380
 22 12 25  0 29  0.0000000  0 10G01G03G08G10G14G16G21G22G27G32
  21179310.500    21179318.031    21179316.453   111298232.6650   86725800.5580
  83112199.2500
  23938697.266    23938704.031    23938704.719   125798653.8730   98025000.5410
  93940592.5420
  20481745.523    20481751.891    20481750.781   107632241.3820   83869406.7800
  80374819.4090
  23195940.383    23195947.074    23195945.188   121895582.7300   94983596.2960
  91025914.0880
  23664796.203    23664800.605    23664804.684   124359323.2220   96903397.8860
  92865737.4390
  25363013.781    25363018.219                   133283528.3921  103857335.3361

  20740181.844    20740185.184                   108990430.8590   84927658.1110

  24385760.313    24385764.246                   128148009.7540   99855626.5070

  22175433.438    22175440.184    22175439.691   116532828.9520   90804770.2700
  87021211.0430
  23945011.992    23945018.773    23945017.434   125831867.4010   98050857.3020
  93965384.5140
 22 12 25  0 29 30.0000000  0 11G01G03G08G10G14G16G21G22G27G30G32
  21168145.852    21168152.902    21168151.336   111239559.7700   86680081.4240
  83068385.0980
  23916860.008    23916867.023    23916867.770   125683900.3700   97935582.2330
  93854900.0060
  20486590.648    20486597.141    20486596.098   107657703.6020   83889247.4640
  80393833.4110
  23211917.781    23211924.191    23211922.070   121979543.4090   95049020.2090
  91088612.0080
  23650246.438    23650251.172    23650255.102   124282865.0730   96843820.1190
  92808642.1050
  25384688.258    25384692.512                   133397427.7681  103946088.1201

  20739812.281    20739815.473                   108988488.3880   84926144.5130

  24371909.875    24371914.332                   128075228.8620   99798914.1190

  22190643.891    22190650.871    22190649.910   116612760.1780   90867054.3290
  87080899.9330
  25641276.711    25641284.836    25641282.418   134745822.7461  104996772.9441
 100621855.3431
  23936750.250    23936756.621    23936756.141   125788451.9270   98017027.0620
  93932963.8750
 22 12 25  0 30  0.0000000  0 10G01G03G08G10G14G16G21G22G27G32
  21157038.711    21157046.211    21157044.684   111181193.7950   86634601.4480
  83024800.1240
  23895050.273    23895056.844    23895058.395   125569291.1010   97846276.3200
  93769315.2120
  20491514.172    20491520.480    20491519.492   107683576.1490   83909407.8850
  80413153.8210
  23227950.398    23227956.613    23227955.234   122063798.3690   95114673.4220
  91151529.6570
  23635774.789    23635779.301    23635782.941   124206814.7900   96784560.1880
  92751851.3020
  25406353.508    25406358.570                   133511283.5910  104034806.9370

  20739490.445    20739493.660                   108986796.7800   84924826.3850

  24358088.750    24358094.172                   128002599.5740   99742319.8490

  22205905.391    22205911.746    22205911.180   116692958.4980   90929546.5190
  87140788.2840
  23928567.453    23928574.004    23928573.008   125745452.6510   97983521.1400
  93900854.0310
 22 12 25  0 30 30.0000000  0 11G01G03G08G10G14G16G21G22G27G30G32
  21145990.258    21145997.902    21145996.387   111123134.6880   86589360.6080
  82981444.3120
  23873269.148    23873276.145    23873276.664   125454828.1480   97757084.4280
  93683839.6470
  20496515.508    20496521.891    20496520.785   107709858.5580   83929887.6780
  80432780.2830
  23244039.836    23244045.934    23244043.563   122148344.9480   95180553.8770
  91214665.0900
  23621381.000    23621385.723    23621389.000   124131174.4000   96725619.6300
  92695366.6170
  25428009.266    25428015.969                   133625092.6720  104123489.2250

  20739216.109    20739219.238                   108985354.8850   84923702.8300

  24344297.586    24344302.328                   127930124.1900   99685845.5770

  22221217.398    22221223.637    22221222.930   116773422.7460   90992245.9230
  87200875.1960
  25660899.547    25660907.590    25660907.359   134848942.7191  105077126.8671
 100698861.0741
  23920464.953    23920470.480    23920470.340   125702871.2400   97950340.8370
  93869056.2630
 22 12 25  0 31  0.0000000  0 11G01G03G08G10G14G16G21G22G27G30G32
  21135000.414    21135008.195    21135006.516   111065382.5090   86544358.9140
  82938317.7020
  23851515.227    23851522.465    23851523.383   125340513.7450   97668008.2750
  93598474.9990
  20501594.602    20501601.348    20501600.234   107736551.0700   83950687.0360
  80452712.9940
  23260182.977    23260189.125    23260187.613   122233180.6010   95246659.5860
  91278016.4040
  23607065.750    23607070.098    23607073.438   124055946.0690   96667000.1530
  92639189.6140
  25449659.406    25449663.246                   133738852.9690  104212133.7000

  20738988.992    20738992.172                   108984161.8390   84922773.1940

  24330535.023    24330540.523                   127857805.2960   99629493.2220

  22236579.367    22236585.766    22236585.309   116854151.8480   91055151.6990
  87261159.9100
  25670794.008    25670800.730    25670801.098   134900932.6241  105117638.3601
 100737684.6970
  23912442.289    23912447.441    23912447.016   125660709.8550   97917487.8370
  93837572.1350
 22 12 25  0 31 30.0000000  0 11G01G03G08G10G14G16G21G22G27G30G32
  21124069.156    21124076.844    21124075.168   111007938.1110   86499597.0580
  82895420.9250
  23829791.359    23829797.711    23829798.941   125226350.7340   97579050.1230
  93513223.4270
  20506752.633    20506759.074    20506757.887   107763654.6650   83971806.7110
  80472952.6880
  23276380.813    23276387.891    23276385.480   122318303.0930   95312988.8010
  91341581.8910
  23592828.586    23592833.195    23592836.840   123981132.7980   96608704.0940
  92583322.5600
  25471297.453    25471301.254                   133852562.5560  104300738.5270

  20738809.211    20738812.563                   108983217.3730   84922037.2400

  24316804.734    24316808.195                   127785646.7040   99573265.7510

  22251992.141    22251998.711    22251997.891   116935145.5200   91118263.6480
  87321642.1850
  25680741.344    25680747.766    25680748.582   134953205.6270  105158370.7171
 100776719.6030
  23904499.086    23904505.246    23904504.453   125618971.1210   97884964.1540
  93806403.6220
 22 12 25  0 32  0.0000000  0 11G01G03G08G10G14G16G21G22G27G30G32
  21113196.352    21113204.004    21113202.398   110950801.5620   86455075.0820
  82852754.0350
  23808095.992    23808102.629    23808103.555   125112341.2700   97490211.5910
  93428086.5390
  20511988.242    20511994.809    20511993.563   107791168.6070   83993246.1450
  80493498.8160
  23292634.148    23292640.086    23292638.301   122403709.9250   95379539.5860
  91405359.7380
  23578671.742    23578676.512    23578679.617   123906736.7210   96550733.1340
  92527767.0110
  25492925.461    25492929.832                   133966218.8590  104389301.8690

  20738676.297    20738679.996                   108982520.4210   84921494.1670

  24303103.547    24303107.527                   127713650.7780   99517165.0330

  22267454.617    22267461.125    22267460.766   117016402.7070   91181580.9220
  87382321.2310
  25690741.297    25690749.727    25690747.461   135005762.5571  105199324.5611
 100815964.3450
  23896637.477    23896643.320    23896642.492   125577657.0000   97852771.3490
  93775552.1710
 22 12 25  0 32 30.0000000  0 11G01G03G08G10G14G16G21G22G27G30G32
  21102382.617    21102389.953    21102388.316   110893973.0820   86410793.1590
  82810317.1820
  23786429.750    23786436.918    23786437.906   124998487.7090   97401494.5640
  93343066.0350
  20517302.117    20517308.871    20517307.570   107819093.7770   84015006.0090
  80514352.0200
  23308939.508    23308945.965    23308944.078   122489398.8220   95446310.1480
  91469348.1830
  23564594.250    23564599.563    23564602.289   123832760.1630   96493089.0610
  92472524.7900
  25514543.156    25514546.824                   134079819.6560  104477821.9450

  20738590.789    20738594.305                   108982070.3450   84921143.4560

  24289435.328    24289439.176                   127641820.3680   99461193.3510

  22282967.688    22282973.852    22282973.203   117097922.4050   91245102.7550
  87443196.3210
  25700793.867    25700802.578    25700802.551   135058593.9900  105240491.9150
 100855416.4350
  23888856.430    23888862.680    23888862.430   125536769.5590   97820911.0270
  93745019.3570
 22 12 25  0 33  0.0000000  0 11G01G03G08G10G14G16G21G22G27G30G32
  21091627.070    21091634.535    21091632.934   110837453.1420   86366751.6560
  82768110.7590
  23764794.664    23764801.039    23764802.691   124884792.6260   97312901.0310
  93258163.8930
  20522694.570    20522700.891    20522699.754   107847429.7840   84037086.0070
  80535512.0120
  23325299.188    23325305.414    23325303.395   122575367.2120   95513298.5040
  91533545.3650
  23550598.367    23550602.574    23550605.461   123759205.6920   96435773.9110
  92417597.7600
  25536150.289    25536153.555                   134193363.0400  104566297.2700

  20738552.672    20738555.340                   108981866.4120   84920984.5510

  24275798.328    24275802.344                   127570158.4870   99405352.8400

  22298529.516    22298536.344    22298535.637   117179704.0340   91308828.6900
  87504267.0040
  25710900.703                    25710908.496   135111701.3901
 100895074.3550
  23881157.992    23881164.367    23881162.918   125496311.0550   97789384.9570
  93714806.8860
 22 12 25  0 33 30.0000000  0 11G01G03G08G10G14G16G21G22G27G30G32
  21080930.578    21080937.914    21080936.270   110781241.6100   86322950.4740
  82726134.6260
  23743189.867    23743196.672    23743197.863   124771257.9820   97224432.5090
  93173381.5560
  20528164.656    20528171.355    20528170.063   107876176.5760   84059486.1040
  80556978.7760
  23341710.625    23341717.379    23341715.191   122661612.3400   95580502.5010
  91597949.1840
  23536681.859    23536686.273    23536689.352   123686075.3520   96378789.2330
  92362987.4350
  25557744.875    25557748.379                   134306845.8600  104654725.4951

  20738559.945    20738563.258                   108981907.3830   84921016.4780

  24262193.414    24262198.578                   127498667.5940   99349645.6380

  22314142.203    22314148.953    22314148.008   117261746.3030   91372757.7200
  87565532.3210
  25721058.906    25721066.090    25721065.547   135165081.1350  105323463.7011
 100934935.8380
  23873541.367    23873546.559    23873545.781   125456283.2010   97758194.4590
  93684915.9960
 22 12 25  0 34  0.0000000  0 11G01G03G08G10G14G16G21G22G27G30G32
  21070292.594    21070299.980    21070298.352   110725339.1330   86279390.1140
  82684389.2840
  23721616.773    23721622.652    23721624.031   124657886.4910   97136091.0920
  93088721.0410
  20533713.555    20533720.168    20533718.875   107905335.3890   84082207.2450
  80578753.1980
  23358175.094    23358180.617    23358179.551   122748132.1540   95647920.5420
  91662558.1290
  23522846.359    23522851.578    23522854.504   123613371.7510   96322137.0800
  92308695.8040
  25579328.375    25579332.121                   134420267.1640  104743105.6970

  20738614.125    20738617.535                   108982193.0150   84921239.0480

  24248623.313    24248627.152                   127427351.2550   99294074.4690

  22329803.945    22329810.266    22329809.527   117344048.7530   91436889.4870
  87626991.9340
  25731267.703                    25731275.801   135218731.1840
 100974999.0830
  23866005.961    23866012.008    23866011.004   125416688.5120   97727341.4770
  93655348.5350
 22 12 25  0 34 30.0000000  0 11G01G03G08G10G14G16G21G22G27G30G32
  21059713.750    21059720.980    21059719.316   110669745.7050   86236070.5740
  82642874.7370
  23700073.453    23700080.094    23700081.801   124544680.1970   97047878.4140
  93004183.9150
  20539340.656    20539347.000    20539345.797   107934905.2630   84105248.7010
  80600834.5890
  23374690.555    23374696.965    23374695.387   122834924.1950   95715550.7040
  91727370.3550
  23509093.102    23509097.773    23509101.055   123541096.9900   96265819.0840
  92254724.4020
  25600899.328    25600903.242                   134533623.9820  104831435.6360

  20738714.750    20738718.320                   108982722.0450   84921651.2760

  24235085.328    24235089.512                   127356211.5240   99238640.9590

  22345514.680    22345521.152    22345520.520   117426610.1400   91501223.0270
  87688644.9060
  25741528.258    25741534.574    25741535.227   135272648.5440  105407277.4241
 101015262.0250
  23858554.797    23858559.277    23858558.828   125377528.7020   97696827.3570
  93626105.8650
 22 12 25  0 35  0.0000000  0 11G01G03G08G10G14G16G21G22G27G30G32
  21049193.625    21049200.723    21049199.063   110614461.9280   86192992.3150
  82601591.3940
  23678562.922    23678569.340    23678571.418   124431641.9200   96959796.6470
  92919772.2280
  20545046.031    20545052.398    20545051.234   107964887.2130   84128611.2430
  80623223.7010
  23391258.648    23391264.289    23391263.324   122921986.2940   95783391.2930
  91792384.2520
  23495421.813    23495426.605    23495429.969   123469253.7710   96209837.3420
  92201075.2270
  25622457.625    25622461.938                   134646914.3810  104919713.8270

  20738861.797    20738865.137                   108983494.2120   84922252.9650

  24221582.148    24221586.195                   127285251.4780   99183347.3760

  22361274.828    22361281.430    22361280.449   117509429.9220   91565757.9040
  87750490.8270
  25751838.883                    25751846.406   135326831.4091
 101055723.1320
  23851185.875    23851191.121    23851190.824   125338806.2170   97666654.0040
  93597189.7320
 22 12 25  0 35 30.0000000  0 11G01G03G08G10G14G16G21G22G27G30G32
  21038732.031    21038739.367    21038737.879   110559487.8130   86150155.3500
  82560539.3060
  23657084.891    23657091.820    23657093.207   124318773.7070   96871847.3980
  92835487.5380
  20550829.492    20550836.078    20550835.047   107995280.7550   84152294.5150
  80645920.1670
  23407876.711    23407883.168    23407881.070   123009315.6710   95851440.1750
  91857597.7690
  23481832.227    23481837.742    23481841.332   123397844.1560   96154193.4940
  92147749.8690
  25644003.773    25644007.195                   134760135.9790  105007938.3910

  20739054.648    20739058.199                   108984508.4100   84923043.2490

  24208114.531    24208118.137                   127214474.0320   99128196.1810

  22377083.586    22377090.164    22377089.578   117592507.0200   91630493.3010
  87812528.9040
  25762199.258                    25762207.285   135381276.5590
 101096380.1710
  23843900.219    23843906.773    23843905.762   125300522.8020   97636822.7930
  93568601.4960
 22 12 25  0 36  0.0000000  0 11G01G03G08G10G14G16G21G22G27G30G32
  21028329.922    21028337.211    21028335.680   110504823.8310   86107560.0620
  82519718.8290
  23635639.016    23635646.020    23635647.844   124206078.1630   96784032.7200
  92751331.8040
  20556691.414    20556698.082    20556696.992   108026085.8320   84176298.4700
  80668923.9510
  23424545.469    23424551.539    23424549.750   123096909.8500   95919695.3730
  91923008.9900
  23468326.531    23468331.855    23468335.582   123326870.6920   96098889.5150
  92094750.2150
  25665533.727    25665539.000                   134873286.9891  105096108.0221

  20739293.672    20739297.117                   108985764.2550   84924021.8330

  24194680.547    24194684.668                   127143882.1380   99073189.4810

  22392941.742    22392948.324    22392947.426   117675840.6880   91695428.6100
  87874758.5710
  25772610.289                    25772616.930   135435982.0341
 101137231.5540
  23836699.570    23836705.668    23836704.488   125262680.7220   97607335.4750
  93540342.8240
 22 12 25  0 36 30.0000000  0 11G01G03G08G10G14G16G21G22G27G30G32
  21017986.406    21017993.996    21017992.395   110450469.6390   86065206.1530
  82479129.6810
  23614227.406    23614234.398    23614235.609   124093557.1000   96696353.9770
  92667306.3460
  20562631.773    20562638.328    20562637.273   108057302.4040   84200623.0620
  80692235.0280
  23441264.078    23441270.113    23441268.492   123184766.2460   95988154.9040
  91988616.0400
  23454904.117    23454909.297    23454913.129   123256335.1470   96043926.7520
  92042077.5720
  25687052.328    25687055.902                   134986364.4950  105184220.2521

  20739578.273    20739581.684                   108987260.1880   84925187.4900

  24181283.563    24181288.074                   127073478.1160   99018329.2230

  22408848.414    22408854.523    22408853.430   117759429.4900   91760562.7280
  87937178.7780
  25783067.813                    25783076.086   135490944.2911
 101178274.8440
  23829582.367    23829588.625    23829587.605   125225281.4680   97578193.2060
  93512414.8050
 22 12 25  0 37  0.0000000  0 11G01G03G08G10G14G16G21G22G27G30G32
  21007702.281    21007709.793    21007708.113   110396425.6270   86023093.9540
  82438772.1620
  23592848.891    23592856.250    23592857.098   123981212.9660   96608813.1340
  92583413.0350
  20568650.453    20568657.000    20568655.977   108088930.7230   84225268.5040
  80715853.5640
  23458031.906    23458038.168    23458036.332   123272882.5810   96056816.9850
  92054417.1920
  23441566.141    23441570.215    23441574.367   123186239.8630   95989307.0800
  91989733.7190
  25708555.906    25708559.918                   135099366.5400  105272273.7390

  20739908.977    20739911.883                   108988995.4610   84926539.6550

  24167921.281    24167926.090                   127003265.2950   98963617.9500

  22424803.297    22424809.984    22424808.383   117843272.6310   91825895.0370
  87999788.8940
  25793577.359                    25793584.004
 101219508.0430
  23822550.266    23822557.008    23822555.438   125188327.0070   97549397.5480
  93484818.9700
 22 12 25  0 37 30.0000000  0 11G01G03G08G10G14G16G21G22G27G30G32
  20997477.148    20997484.625    20997483.031   110342692.3230   85981223.8670
  82398646.6660
  23571504.875    23571511.488    23571513.023   123869048.3590   96521412.1490
  92499653.7610
  20574747.813    20574754.105    20574753.004   108120970.7430   84250234.7430
  80739779.5410
  23474848.664    23474854.996    23474853.465   123361256.4680   96125679.7570
  92120410.6720
  23428311.141    23428315.789    23428319.988   123116587.4090   95935032.4360
  91937720.5470
  25730045.406    25730049.145                   135212290.7070  105360266.6580

  20740284.227    20740287.777                   108990970.0880   84928078.3280

  24154597.266    24154601.777                   126933246.2910   98909057.6590

  22440805.844    22440812.777    22440811.566   117927369.4060   91891424.9670
  88062588.4150
  25804130.656                    25804138.789   135601630.0711
 101260929.5490
  23815603.266    23815609.613    23815608.641   125151819.7390   97520950.3170
  93457557.0470
 22 12 25  0 38  0.0000000  0 11G01G03G08G10G14G16G21G22G27G30G32
  20987311.617    20987318.547    20987317.043   110289269.9910   85939596.0950
  82358753.3800
  23550195.250    23550202.512    23550203.105   123757065.7100   96434152.9750
  92416030.3770
  20580923.086    20580929.605    20580928.445   108153423.1210   84275522.3040
  80764013.4520
  23491714.227    23491720.820    23491718.879   123449885.7710   96194741.5440
  92186594.9060
  23415141.695    23415146.055    23415150.285   123047380.1450   95881104.7130
  91886039.8110
  25751518.711    25751522.910                   135325135.1710  105448197.2860

  20740705.945    20740708.910                   108993183.1850   84929802.8270

  24141310.758    24141315.313                   126863423.9390   98854650.6970

  22456857.383    22456863.965    22456862.875   118011718.9660   91957151.8890
  88125576.7150
  25814734.563                    25814742.078   135657348.3370
 101302537.2860
  23808741.234    23808747.895    23808747.055   125115761.5760   97492853.0460
  93430630.5120
 22 12 25  0 38 30.0000000  0 11G01G03G08G10G14G16G21G22G27G30G32
  20977204.586    20977211.789    20977210.324   110236158.6740   85898210.6610
  82319092.3370
  23528920.320    23528927.875    23528928.852   123645267.1810   96347037.2550
  92332544.4820
  20587177.156    20587183.359    20587182.270   108186287.1040   84301130.5960
  80788554.7310
  23508628.281    23508634.719    23508632.547   123538767.4820   96264000.0180
  92252967.5970
  23402056.867    23402061.383    23402065.750   122978620.0230   95827525.4100
  91834692.9900
  25772977.961                                   135437897.9350

  20741171.828    20741175.203                   108995633.5520   84931712.2030

  24128062.281    24128066.762                   126793801.0550   98800399.0880

  22472956.664    22472963.047    22472961.848   118096320.2380   92023074.9470
  88188752.9780
  25825383.953                    25825391.777   135713313.6650
 101344329.5410
  23801964.852    23801971.363    23801971.520   125080154.2580   97465107.1020
  93404040.6390
 22 12 25  0 39  0.0000000  0 10G01G03G08G10G14G16G21G22G27G32
  20967156.883    20967164.250    20967162.730   110183358.6200   85857067.7780
  82279663.7530
  23507682.031    23507688.887    23507689.156   123533655.1370   96260066.8430
  92249197.8570
  20593509.219    20593515.691    20593514.672   108219563.4610   84327060.2140
  80813403.9580
  23525589.133    23525595.797    23525593.930   123627899.6810   96333453.6710
  92319527.3260
  23389057.914    23389062.391    23389066.574   122910309.4830   95774296.4340
  91783681.8750
  25794418.742                                   135550576.0120

  20741683.469    20741686.426                   108998320.6510   84933806.0450

  24114851.445    24114856.199                   126724380.2770   98746305.0140

  22489103.070    22489109.742    22489108.863   118181172.2650   92089193.3960
  88252116.4830
  23795275.891    23795282.109    23795280.832   125044999.7510   97437713.9960
  93377788.9350
 22 12 25  0 39 30.0000000  0 10G01G03G08G10G14G16G21G22G27G32
  20957168.852    20957176.016    20957174.461   110130869.9090   85816167.5020
  82240467.6570
  23486478.617    23486485.559    23486485.980   123422231.7630   96173243.4650
  92165992.1190
  20599920.141    20599926.266    20599925.316   108253251.5940   84353310.7070
  80838560.6770
  23542598.414    23542604.410    23542602.129   123717279.5490   96403100.3180
  92386272.0300
  23376144.914    23376149.152    23376153.309   122842450.4600   95721419.2720
  91733007.9570
  25815844.828                                   135663168.4250

  20742239.523    20742242.785                   109001243.6580   84936083.7170

  24101680.563    24101685.457                   126655164.3060   98692370.5330

  22505297.602    22505304.180    22505303.402   118266273.9300   92155506.3570
  88315666.4080
  23788673.375    23788679.422    23788677.531   125010299.8110   97410675.0850
  93351876.6420
 22 12 25  0 40  0.0000000  0 10G01G03G08G10G14G16G21G22G27G32
  20947239.797    20947246.852    20947245.430   110078692.7600   85775509.9890
  82201504.2060
  23465311.430    23465318.609    23465319.008   123310999.3920   96086568.9020
  92082929.0210
  20606408.719    20606415.242    20606414.199   108287351.3630   84379881.9540
  80864024.7860
  23559652.984    23559659.625    23559657.086   123806904.7270   96472938.1150
  92453199.9310
  23363318.906    23363322.508    23363326.375   122775045.3260   95668895.7930
  91682672.9500
  25837253.141                                   135775672.0880

  20742840.469    20742843.617                   109004401.9240   84938544.7100

  24088547.891    24088553.332                   126586156.3630   98638598.0930

  22521539.320    22521545.930    22521545.234   118351624.3010   92222013.1260
  88379402.0610
  23782156.344    23782162.941    23782161.867   124976056.4130   97383991.9310
  93326305.2730
 22 12 25  0 40 30.0000000  0 10G01G03G08G10G14G16G21G22G27G32
  20937370.414    20937377.402    20937375.852   110026827.6980   85735095.6570
  82162773.8150
  23444181.117    23444188.617    23444188.973   123199960.6690   96000045.2620
  92000010.5350
  20612976.305    20612982.535    20612981.758   108321863.6760   84406774.6570
  80889796.9660
  23576753.711    23576760.918    23576758.891   123896773.0290   96542965.3460
  92520309.3530
  23350578.305    23350582.777    23350586.344   122708096.4850   95616727.8810
  91632678.6970
  25858645.750                                   135888085.6410

  20743486.281    20743489.406                   109007794.7230   84941188.4530

  24075456.625    24075461.383                   126517358.8530   98584989.6990

  22537828.313    22537834.559    22537833.965   118437222.7110   92288713.1730
  88443322.9160
  23775726.805    23775734.141    23775733.090   124942271.6160   97357666.1540
  93301076.4060
 22 12 25  0 41  0.0000000  0 10G01G03G08G10G14G16G21G22G27G32
  20927559.891    20927567.371    20927565.520   109975274.7720   85694924.5480
  82124276.4920
  23423088.969    23423095.418    23423096.355   123089117.7850   95913674.2140
  91917238.2880
  20619622.219    20619628.602    20619627.629   108356788.0590   84433988.4580
  80915876.8610
  23593901.633    23593907.898    23593905.828   123986881.8920   96613180.0460
  92587598.4670
  23337925.477    23337929.949    23337933.590   122641605.9810   95564917.1000
  91583026.7070
  25880018.219                                   136000405.9230

  20744176.016    20744179.305                   109011421.0400   84944014.1590

  24062406.234    24062410.340                   126448775.1150   98531547.7990

  22554164.297    22554170.258    22554170.043   118523068.0540   92355605.6340
  88507428.2030
  23769386.242    23769392.387    23769391.992   124908947.0590   97331698.9790
  93276191.2070
 22 12 25  0 41 30.0000000  0 10G01G03G08G10G14G16G21G22G27G32
  20917808.758    20917816.430    20917814.832   109924034.1820   85654996.8210
  82086012.4200
  23402032.867    23402041.051    23402041.105   122978473.0630   95827457.5700
  91834614.0140
  20626346.406    20626352.711    20626351.734   108392123.9590   84461522.9230
  80942264.0490
  23611093.578    23611100.195    23611098.188   124077228.7300   96683580.1760
  92655065.2380
  23325360.852    23325364.840    23325368.477   122575576.0380   95513465.1930
  91533718.6480
  25901375.141                                   136112631.4680

  20744910.172    20744913.703                   109015280.4560   84947021.4970

  24049395.625    24049401.070                   126380407.7220   98478274.5600

  22570546.758    22570552.816    22570552.313   118609159.3750   92422689.7660
  88571717.1560
  23763132.563    23763138.902    23763138.441   124876084.7510   97306091.9960
  93251651.1960
 22 12 25  0 42  0.0000000  0 10G01G03G08G10G14G16G21G22G27G32
  20908118.086    20908125.191    20908123.594   109873106.0110   85615312.5410
  82047981.6450
  23381016.727    23381024.277    23381024.438   122868028.7030   95741397.0650
  91752139.3720
  20633148.391    20633155.371    20633154.336   108427871.4890   84489378.1360
  80968958.6230
  23628330.750    23628337.422    23628335.668   124167811.3680   96754164.0300
  92722708.1070
  23312883.016    23312887.723    23312891.320   122510008.6120   95462373.7070
  91484755.9420
  25922711.016                                   136224759.9940

  20745689.164    20745692.277                   109019371.9720   84950209.6980

  24036427.844    24036432.750                   126312259.2450   98425171.8600

  22586976.047    22586981.867    22586981.934   118695495.5640   92489964.7120
  88636188.9640
  23756967.563    23756973.410    23756973.418   124843686.2230   97280846.4230
  93227457.5180
 22 12 25  0 42 30.0000000  0 10G01G03G08G10G14G16G21G22G27G32
  20898486.422    20898493.387    20898491.777   109822490.6860   85575872.0330
  82010184.4990
  23360038.188    23360046.082    23360046.082   122757787.2590   95655494.6840
  91669816.2450
  20640029.633    20640036.305    20640035.344   108464031.2260   84517554.5470
  80995961.0260
  23645612.023    23645619.594    23645617.477   124258627.4580   96824929.8110
  92790525.2920
  23300494.680    23300499.582    23300502.809   122444906.2500   95411644.6040
  91436140.5480
  25944030.633                                   136336789.5060

  20746511.641    20746515.152                   109023695.2870   84953578.5180

  24023501.820    24023507.043                   126244332.5440   98372242.0130

  22603451.875    22603457.664    22603457.273   118782075.8450   92557429.8500
  88700843.0540
  23750890.656    23750897.074    23750895.980   124811753.5660   97255963.8490
  93203611.7280
 22 12 25  0 43  0.0000000  0 11G01G03G08G10G14G16G17G21G22G27G32
  20888913.797    20888921.246    20888919.523   109772188.1300   85536675.2490
  81972620.9210
  23339099.117    23339106.523    23339106.852   122647750.7290   95569751.9710
  91587646.1430
  20646989.336    20646995.602    20646994.637   108500602.3330   84546051.5040
  81023270.6080
  23662937.938    23662944.160    23662942.719   124349674.3120   96895875.4090
  92858514.8330
  23288194.227    23288199.730    23288202.988   122380270.7090   95361279.2490
  91387873.7570
  25965330.086                                   136448717.9220

  25794389.578    25794393.535                   135550438.1991  105623728.2991

  20747378.547    20747381.742                   109028249.1770   84957127.0030

  24010618.102    24010623.281                   126176630.3810   98319487.1060

  22619973.695    22619979.863    22619979.152   118868898.9320   92625084.1830
  88765678.4610
  23744902.766    23744909.125    23744908.586   124780288.2590   97231445.4370
  93180114.9050
 22 12 25  0 43 30.0000000  0 11G01G03G08G10G14G16G17G21G22G27G32
  20879400.961    20879408.664    20879406.816   109722198.8890   85497722.5960
  81935291.3030
  23318200.148    23318206.906    23318207.188   122537921.8410   95484171.0210
  91505631.1150
  20654026.742    20654033.305    20654032.215   108537585.5330   84574869.5850
  81050887.9330
  23680308.180    23680314.098    23680311.984   124440950.1020   96966999.3890
  92926675.3170
  23275984.023    23275989.273    23275992.492   122316104.5060   95311279.6270
  91339957.4510
  25986609.742                                   136560543.2450

  25776850.555                                   135458269.6200

  20748288.914    20748291.902                   109033032.7930   84960854.4990

  23997778.758    23997783.344                   126109155.9130   98266909.5560

  22636541.523    22636547.648    22636547.164   118955964.2010   92692927.2330
  88830694.7130
  23739004.203    23739011.129    23739010.273   124749292.4390   97207292.8650
  93156968.6990
 22 12 25  0 44  0.0000000  0 11G01G03G08G10G14G16G17G21G22G27G32
  20869948.297    20869955.453    20869953.836   109672523.0400   85459014.1440
  81898195.6960
  23297339.883    23297346.832    23297347.578   122428302.7130   95398753.5510
  91423772.7040
  20661143.078    20661149.293    20661148.273   108574980.6880   84604008.6610
  81078812.8730
  23697719.430    23697726.191    23697724.535   124532451.7420   97038299.3710
  92995004.4920
  23263863.820    23263868.367    23263871.879   122252409.5320   95261647.1850
  91292393.0470
  26007868.289                                   136672262.7790

  25759298.367    25759304.711

  20749242.500    20749245.996                   109038045.6080   84964760.5950

  23984981.656    23984987.020                   126041911.6440   98214511.4370

  22653154.891    22653161.578    22653160.566   119043270.4600   92760958.0760
  88895890.9370
  23733196.500    23733202.133    23733201.047   124718767.6120   97183507.3130
  93134174.2070
 22 12 25  0 44 30.0000000  0 11G01G03G08G10G14G16G17G21G22G27G32
  20860554.992    20860562.172    20860560.473   109623160.2620   85420549.6480
  81861333.9030
  23276520.250    23276527.410    23276527.973   122318895.2310   95313500.9980
  91342072.3270
  20668337.047    20668343.480    20668342.465   108612786.5240   84633467.7390
  81107044.5010
  23715173.922    23715180.559    23715179.258   124624177.0540   97109773.6410
  93063500.6410
  23251832.953    23251837.707    23251841.156   122189187.5650   95212383.3190
  91245181.8380
  26029108.313                                   136783874.9641

  25741736.617    25741738.422

  20750239.539    20750243.172                   109043286.7230   84968844.5820

  23972230.578    23972235.426                   125974899.9760   98162294.5540

  22669814.656    22669821.168    22669820.406   119130816.3020   92829175.5990
  88961266.0490
  23727476.492    23727483.113    23727482.344   124688715.1280   97160089.7920
  93111732.4310
 22 12 25  0 45  0.0000000  0 10G01G03G08G10G14G17G21G22G27G32
  20851221.023    20851228.352    20851226.660   109574111.3120   85382329.6960
  81824706.4470
  23255741.359    23255748.398    23255749.387   122209702.1430   95228415.5110
  91260532.0770
  20675609.531    20675616.121    20675615.117   108651004.2140   84663247.7520
  81135583.6740
  23732671.992    23732677.840    23732676.441   124716123.6520   97181420.3370
  93132162.0660
  23239892.500    23239897.262    23239901.152   122126441.1010   95163489.9740
  91198325.7050
  25724159.367    25724165.496                   135181372.3231  105336155.7541

  20751280.523    20751284.020                   109048755.6320   84973106.0710

  23959523.438    23959528.250                   125908124.1500   98110261.4750

  22686519.313    22686526.172    22686525.539   119218601.1830   92897579.3870
  89026819.6840
  23721848.250    23721855.285    23721853.828   124659137.1420   97137042.0440
  93089645.0070
 22 12 25  0 45 30.0000000  0 10G01G03G08G10G14G17G21G22G27G32
  20841947.070    20841954.520    20841952.758   109525376.3170   85344354.3840
  81788313.4480
  23235003.875    23235010.508    23235011.605   122100725.8010   95143498.8970
  91179153.6690
  20682960.445    20682967.000    20682966.051   108689633.4910   84693348.4830
  81164430.2060
  23750210.234    23750216.078    23750214.363   124808289.2930   97253237.7220
  93200987.0410
  23228043.609    23228047.738    23228051.879   122064172.2940   95114968.8120
  91151826.2790
  25706572.016    25706575.766                   135088947.8141  105264127.0221

  20752364.570    20752367.973                   109054452.1750   84977544.9370

  23946862.398    23946866.781                   125841586.6980   98058414.1050

  22703269.695    22703276.590    22703275.578   119306624.1920   92966168.7310
  89092551.1370
  23716310.406    23716316.836    23716315.871   124630035.4350   97114365.3950
  93067913.2100
 22 12 25  0 46  0.0000000  0 10G01G03G08G10G14G17G21G22G27G32
  20832732.781    20832740.145    20832738.453   109476955.0630   85306623.5500
  81752154.7230
  23214308.102    23214314.926    23214315.660   121991968.0900   95058752.6520
  91097938.5000
  20690389.695    20690396.063    20690395.129   108728673.5820   84723769.3210
  81193583.5160
  23767788.719    23767795.828    23767794.281   124900671.3120   97325223.7180
  93269973.6190
  23216285.250    23216289.305    23216293.754   122002382.7960   95066821.1580
  91105684.7640
  25688972.047    25688975.598                   134996459.6621  105192057.2701

  20753491.344    20753495.020                   109060374.7340   84982159.9140

  23934245.461    23934250.313                   125775290.2270   98006754.5220

  22720064.758    22720071.715    22720070.879   119394883.7630   93034942.4090
  89158459.2410
  23710863.945    23710869.832    23710869.086   124601411.1630   97092060.7770
  93046537.9750
 22 12 25  0 46 30.0000000  0 10G01G03G08G10G14G17G21G22G27G32
  20823578.344    20823585.535    20823583.949   109428847.8760   85269137.4360
  81716230.5510
  23193654.445    23193661.121    23193661.770   121883431.4320   94974178.6350
  91016888.4200
  20697896.797    20697903.273    20697902.355   108768124.0460   84754509.9290
  81223043.2540
  23785410.813    23785416.379    23785414.328   124993267.2510   97397376.3930
  93339119.9470
  23204618.836    23204622.883    23204627.211   121941074.7270   95019048.6540
  91059902.7920
  25671360.484    25671364.004                   134903909.8381  105119940.6331

  20754661.547    20754664.953                   109066522.8990   84986950.6930

  23921676.484    23921681.492                   125709237.7130   97955285.0000

  22736904.938    22736911.770    22736910.867   119483379.0970   93103899.7950
  89224543.3970
  23705507.734    23705513.746    23705513.000   124573266.2150   97070129.6660
  93025520.6390
 22 12 25  0 47  0.0000000  0 10G01G03G08G10G14G17G21G22G27G32
  20814483.508    20814490.879    20814489.289   109381054.8900   85231896.1600
  81680540.9950
  23173042.453    23173049.965    23173050.438   121775118.1280   94889778.6610
  90936005.1180
  20705482.219    20705488.715    20705487.656   108807985.4410   84785570.7530
  81252809.8760
  23803070.563    23803077.145    23803075.363   125086074.9750   97469694.1000
  93408424.4000
  23193044.117    23193048.160    23193052.813   121880250.2150   94971652.9210
  91014481.8870
  25653736.523    25653741.184                   134811299.1510  105047776.3990

  20755874.117    20755877.641                   109072895.6350   84991916.4630

  23909153.984    23909158.887                   125643431.8460   97904007.7630

  22753790.094    22753796.613    22753795.789   119572109.0930   93173040.0480
  89290802.8140
  23700243.414    23700250.199    23700248.879   124545602.1390   97048573.2550
  93004862.4270
 22 12 25  0 47 30.0000000  0 10G01G03G08G10G14G17G21G22G27G32
  20805448.695    20805455.996    20805454.355   109333576.3520   85194899.9000
  81645086.2600
  23152474.875    23152481.414    23152481.832   121667030.5030   94805554.5500
  90855290.3430
  20713145.617    20713152.305    20713151.301   108848257.6180   84816951.6630
  81282883.2620
  23820772.102    23820777.371    23820775.758   125179092.0780   97542174.9570
  93477885.2170
  23181562.164    23181566.250    23181570.582   121819911.3100   94924635.5750
  90969423.6000
  25636101.133    25636106.297

  20757129.617    20757132.922                   109079492.6590   84997056.9940

  23896679.328    23896684.246                   125577875.5500   97852924.9160

  22770718.984    22770725.395    22770725.055   119661072.7830   93242362.3860
  89357236.7190
  23695071.398    23695077.609    23695076.348   124518420.6300   97027392.8720
  92984564.5510
 22 12 25  0 48  0.0000000  0 10G01G03G08G10G14G17G21G22G27G32
  20796473.508    20796481.094    20796479.352   109286412.4680   85158148.8270
  81609866.4730
  23131950.313    23131956.402    23131956.813   121559170.8620   94721508.0840
  90774745.8280
  20720887.328    20720893.965    20720892.887   108888940.1670   84848652.3400
  81313263.0690
  23838511.797    23838517.707    23838515.680   125272315.9240   97614816.9030
  93547500.4010
  23170173.000    23170176.699    23170181.359   121760059.9280   94877998.1050
  90924729.3670
  25618454.898    25618460.453                   134625899.6840  104903309.3010

  20758427.625    20758430.867                   109086313.0450   85002371.5820

  23884252.555    23884256.813                   125512571.2990   97802038.5150

  22787692.680    22787699.281    22787698.148   119750269.1050   93311866.0090
  89423844.3510
  23689991.266    23689996.930    23689996.203   124491723.3800   97006589.8470
  92964628.3160
 22 12 25  0 48 30.0000000  0 10G01G03G08G10G14G17G21G22G27G32
  20787558.539    20787565.922    20787564.266   109239563.4860   85121643.1400
  81574881.8560
  23111468.492    23111475.141    23111475.660   121451541.6490   94637641.1990
  90694373.3770
  20728707.008    20728713.727    20728712.660   108930033.2980   84880672.9530
  81343949.4820
  23856290.531    23856296.781    23856294.902   125365744.6340   97687618.5080
  93617268.6010
  23158876.922    23158880.828    23158885.137   121700698.3080   94831742.3070
  90880400.8740
  25600799.672    25600803.641                   134533112.3860  104831007.6011

  20759767.656    20759771.004                   109093356.4520   85007859.9560

  23871873.773    23871878.590                   125447521.7780   97751350.5730

  22804709.992    22804716.438    22804716.477   119839697.1930   93381550.2250
  89490625.0500
  23685002.773    23685008.707    23685008.680   124465512.0110   96986165.4160
  92945054.9070
 22 12 25  0 49  0.0000000  0 10G01G03G08G10G14G17G21G22G27G32
  20778703.242    20778710.715    20778709.191   109193029.4670   85085382.8730
  81540132.4350
  23091031.773    23091038.387    23091038.613   121344144.9330   94553955.4590
  90614174.5580
  20736604.992    20736611.586    20736610.391   108971536.6320   84913013.2070
  81374942.2210
  23874107.531    23874114.418    23874111.676   125459375.6320   97760577.7080
  93687187.8430
  23147674.617    23147678.250    23147682.352   121641828.3300   94785869.5930
  90836439.5120
  25583131.477    25583135.605                   134440267.6180  104758660.9690

  20761150.672    20761153.883                   109100622.2110   85013521.5900

  23859543.500    23859548.422                   125382729.9740   97700863.4720

  22821771.305    22821778.203    22821777.633   119929355.8850   93451414.1270
  89557577.9490
  23680108.094    23680113.602    23680113.426   124439787.9640   96966120.6980
  92925845.4090
 22 12 25  0 49 30.0000000  0 10G01G03G08G10G14G17G21G22G27G32
  20769908.227    20769915.535    20769913.934   109146810.3320   85049367.9730
  81505618.1690
  23070639.805    23070646.160    23070646.227   121236982.9020   94470452.5950
  90534150.9910
  20744580.617    20744587.332    20744586.289   109013449.5080   84945672.5830
  81406240.7910
  23891962.523    23891969.637    23891967.988   125553206.2440   97833692.4740
  93757256.1730
  23136565.906    23136569.785    23136573.512   121583451.6830   94740381.2890
  90792846.5760
  25565452.492    25565456.953                   134347365.7510  104686269.8410

  20762574.930    20762578.465                   109108108.9390   85019355.3980

  23847263.695    23847269.012                   125318198.2660   97650579.0380

  22838876.789    22838883.488    22838882.703   120019243.8740   93521456.6980
  89624702.0820
  23675305.469    23675311.375    23675311.008   124414552.5890   96946456.7840
  92907000.8150
 22 12 25  0 50  0.0000000  0 10G01G03G08G10G14G17G21G22G27G32
  20761172.945    20761180.332    20761178.879   109100906.5590   85013598.8130
  81471339.3750
  23050292.203    23050298.664    23050299.313   121130057.9620   94387134.4710
  90454304.4650
  20752634.430    20752641.051    20752639.855   109055771.9140   84978651.0710
  81437845.1870
  23909855.844    23909862.383    23909860.504   125647234.5180   97906961.2440
  93827472.0570
  23125551.063    23125555.734    23125558.914   121525570.6180   94695279.1750
  90749623.7000
  25547764.375    25547766.820                   134254408.5380  104613835.7110

  20764041.695    20764045.219                   109115816.5330   85025361.3170

  23835034.016    23835039.051                   125253929.6650   97600499.6150

  22856025.328    22856032.332    22856030.965   120109360.2780   93591677.2600
  89691996.7940
  23670596.484    23670602.719    23670602.188   124389807.5910   96927174.9780
  92888522.4340
 22 12 25  0 50 30.0000000  0 10G01G03G08G10G14G17G21G22G27G32
  20752497.789    20752505.211    20752503.738   109055318.1200   84978075.3580
  81437296.0720
  23029990.164    23029997.270    23029997.570   121023372.3050   94304002.8010
  90374636.6230
  20760765.813    20760772.633    20760771.371   109098503.4850   85011948.3910
  81469755.1100
  23927786.539    23927792.742    23927791.020   125741457.7010   97980381.8930
  93897833.5080
  23114630.922    23114635.840    23114638.961   121468186.9100   94650564.6010
  90706772.2450
  25530063.102    25530068.344                   134161396.8420  104541359.1180

  20765550.844    20765553.691                   109123744.0180   85031538.5780

  23822854.656    23822859.535                   125189927.0450   97550627.4930

  22873217.539    22873223.281    22873223.250   120199703.9880   93662074.9490
  89759461.2330
  23665981.375    23665987.379    23665986.375   124365554.4180   96908276.4180
  92870411.3080
 22 12 25  0 51  0.0000000  0 10G01G03G08G10G14G17G21G22G27G32
  20743882.602    20743890.066    20743888.516   109010045.2790   84942797.8320
  81403488.4380
  23009734.836    23009741.781    23009742.098   120916928.2670   94221059.4090
  90295149.2010
  20768975.656    20768982.078    20768980.887   109141644.5320   85045564.7810
  81501970.8050
  23945752.523    23945759.348    23945757.375   125835873.6830   98053952.8010
  93968338.9630
  23103806.336    23103811.164    23103814.285   121411302.5640   94606239.1300
  90664293.6690
  25512354.844    25512357.898                   134068331.4960  104468840.6660

  20767100.758    20767104.090                   109131890.8240   85037886.7330

  23810726.820    23810731.215                   125126192.7900   97500964.4590

  22890451.977    22890458.738    22890458.184   120290273.9900   93732648.9800
  89827094.6780
  23661460.109    23661466.703    23661465.086   124341794.6250   96889762.3230
  92852668.6290
 22 12 25  0 51 30.0000000  0 10G01G03G08G10G14G17G21G22G27G32
  20735327.664    20735335.051    20735333.355   108965088.0250   84907766.2100
  81369916.4750
  22989525.406    22989532.391    22989532.863   120810727.8810   94138305.8750
  90215843.7400
  20777262.563    20777269.242    20777268.035   109185194.1930   85079499.5760
  81534491.6590
  23963755.383    23963762.512    23963760.352   125930479.9840   98127671.9800
  94038986.4930
  23093077.094    23093082.031    23093084.973   121354919.3580   94562304.1720
  90622189.3250
  25494635.703    25494638.578                   133975213.6340  104396281.2720

  20768692.148    20768695.898                   109140255.7500   85044404.8610

  23798649.016    23798654.105                   125062729.4320   97451512.5060

  22907730.195    22907736.891    22907735.930   120381069.0070   93803398.3250
  89894896.1240
  23657033.148    23657039.402    23657038.023   124318529.4730   96871633.6550
  92835295.3090
 22 12 25  0 52  0.0000000  0 10G01G03G08G10G14G17G21G22G27G32
  20726832.766    20726839.902    20726838.332   108920446.5510   84872980.6500
  81336580.3130
  22969362.313    22969369.785    22969370.480   120704773.5700   94055744.0880
  90136722.0170
  20785628.016    20785634.426    20785633.176   109229152.6900   85113752.9430
  81567317.7940
  23981794.727    23981801.117    23981798.953   126025274.3930   98201537.7570
  94109774.5370
  23082443.406    23082448.246    23082451.383   121299039.2430   94518761.2310
  90580460.6660
  25476904.789    25476908.469                   133882043.6330  104323681.2850

  20770325.516    20770329.254                   109148838.7920   85051092.9390

  23786625.523    23786630.598                   124999539.9800   97402273.9960

  22925050.414    22925056.945    22925056.668   120472088.0540   93874322.2500
  89962864.8980
  23652700.234    23652706.676    23652705.566   124295760.4740   96853891.5900
  92818292.5270
 22 12 25  0 52 30.0000000  0 10G01G03G08G10G14G17G21G22G27G32
  20718397.875    20718405.230    20718403.410   108876120.9170   84838441.2030
  81303480.0070
  22949248.086    22949254.645    22949255.383   120599067.4700   93973375.7120
  90057785.6770
  20794070.445    20794076.914    20794075.746   109273519.0790   85148324.1480
  81600448.5290
  23999869.023    23999875.516    23999872.848   126120254.5400   98275548.2650
  94180701.2380
  23071905.430    23071910.656    23071913.895   121243663.9820   94475611.6830
  90539109.0000
  25459166.352    25459169.309                   133788822.8890  104251041.7680

  20772000.289    20772003.813                   109157639.1640   85057950.3710

  23774653.289    23774657.926                   124936626.9360   97353250.8430

  22942413.250    22942419.473    22942418.461   120563330.0060   93945419.8690
  90031000.0980
  23648461.422    23648467.957    23648467.309   124273489.0390   96836537.2320
  92801661.2650
 22 12 25  0 53  0.0000000  0 10G01G03G08G10G14G17G21G22G27G32
  20710023.008    20710030.531    20710028.613   108832111.4140   84804148.0830
  81270615.7750
  22929180.266    22929187.238    22929187.852   120493611.9280   93891202.5700
  89979036.4090
  20802590.625    20802597.367    20802596.172   109318293.8060   85183213.5330
  81633884.2100
  24017978.227    24017983.934    24017982.242   126215418.0080   98349701.6030
  94251764.8640
  23061464.586    23061469.512    23061473.012   121188795.5850   94432857.0860
  90498135.8510
  25441416.820    25441421.047                   133695552.7940  104178363.7250

  20773716.258    20773719.805                   109166656.2290   85064976.6600

  23762735.031    23762739.742                   124873993.1870   97304445.3590

  22959817.938    22959824.570    22959824.004   120654793.8320   94016690.3720
  90099301.0090
  23644318.648    23644324.375    23644324.141   124251716.6320   96819571.7460
  92785402.6640
 22 12 25  0 53 30.0000000  0 10G01G03G08G10G14G17G21G22G27G32
  20701708.336    20701715.945    20701714.020   108788418.0420   84770101.3020
  81237987.6250
  22909160.852    22909167.516    22909168.512   120388409.0290   93809226.2890
  89900475.8220
  20811188.625    20811195.223    20811194.117   109363476.2460   85218420.6180
  81667624.3250
  24036121.508    24036128.234    24036125.363   126310762.5570   98423996.0720
  94322963.7330
  23051120.625    23051125.047    23051128.816   121134435.7360   94390498.7700
  90457542.4590
  25423659.797    25423662.883                   133602233.6390  104105647.4910

  20775473.320    20775476.625                   109175889.0220   85072171.0480

  23750868.625    23750873.918                   124811640.9310   97255859.1760

  22977264.836    22977271.574    22977271.000   120746478.2480   94088132.7700
  90167766.6400
  23640271.227    23640276.668    23640276.125   124230444.5080   96802996.0620
  92769517.6650
 22 12 25  0 54  0.0000000  0 10G01G03G08G10G14G17G21G22G27G32
  20693453.852    20693461.559    20693459.594   108745041.1110   84736301.1040
  81205595.7630
  22889190.016    22889196.777    22889197.438   120283461.1910   93727448.7560
  89822105.6860
  20819864.125    20819870.723    20819869.652   109409066.4490   85253945.4460
  81701668.9440
  24054298.086    24054305.512    24054302.684   126406285.8910   98498429.8230
  94394296.1040
  23040873.164    23040877.586    23040881.719   121080586.4610   94348538.2980
  90417330.3520
  25405893.500    25405895.605                   133508866.8770  104032894.1970

  20777271.805    20777274.496                   109185337.3820   85079533.4090

  23739058.906    23739062.551                   124749573.3590   97207494.8360

  22994753.695    22994760.055    22994759.766   120838382.3880   94159746.3760
  90236396.3280
  23636318.508    23636324.703    23636323.672   124209674.2030   96786811.4250
  92754007.3870
 22 12 25  0 54 30.0000000  0 10G01G03G08G10G14G17G21G22G27G32
  20685259.773    20685267.574    20685265.422   108701980.5360   84702747.4060
  81173440.1500
  22869268.188    22869274.422    22869275.551   120178770.4390   93645871.5520
  89743927.5450
  20828617.031    20828623.758    20828622.578   109455063.2330   85289787.0930
  81736017.1820
  24072510.188    24072516.152    24072513.938   126501985.4530   98573000.9260
  94465760.0520
  23030723.688    23030728.094    23030731.844   121027249.4070   94306976.9570
  90377500.7290
  25388115.617    25388119.945                   133415453.5260  103960104.6070

  20779110.125    20779113.328                   109195000.1810   85087062.8540

  23727302.055    23727305.945                   124687792.8840   97159354.2270

  23012284.359    23012291.059    23012289.785   120930504.9410   94231530.1770
  90305189.1420
  23632461.500    23632468.023    23632467.098   124189406.8680   96771018.7080
  92738872.7010
 22 12 25  0 55  0.0000000  0 10G01G03G08G10G14G17G21G22G27G32
  20677126.242    20677133.391    20677131.453   108659236.3600   84669440.2630
  81141520.8090
  22849395.484    22849401.883    22849402.766   120074338.9460   93564496.3730
  89665943.0060
  20837447.781    20837454.008    20837452.910   109501466.7240   85325945.6480
  81770669.1320
  24090753.617    24090760.406    24090758.563   126597858.9560   98647707.5470
  94537353.8950
  23020671.906    23020676.379    23020679.980   120974426.1790   94265816.0170
  90338054.8270
  25370331.164    25370335.000                   133321994.0320  103887278.9360

  20780989.438    20780992.730                   109204876.4930   85094758.6840

  23715600.305    23715604.680                   124626302.1620   97111439.3890

  23029855.227    23029862.328    23029861.965   121022844.6610   94303483.1880
  90374144.0900
  23628701.242    23628707.691    23628706.039   124169643.7310   96755618.8680
  92724114.5140
 22 12 25  0 55 30.0000000  0 10G01G03G08G10G14G17G21G22G27G32
  20669052.398    20669059.711    20669057.793   108616808.9820   84636379.9780
  81109838.0300
  22829572.703    22829579.301    22829579.633   119970169.0960   93483325.0810
  89588153.8540
  20846354.727    20846361.684    20846360.598   109548276.9710   85362421.1570
  81805624.8340
  24109030.922    24109037.441    24109034.445   126693904.4980   98722548.2330
  94609076.2270
  23010718.469    23010722.406    23010726.387   120922118.8510   94225057.0430
  90298994.1480
  25352538.547    25352541.758                   133228489.9270  103814418.6210

  20782909.703    20782912.762                   109214966.5480   85102621.0630

  23703955.203    23703959.766                   124565103.8780   97063752.4150

  23047468.906    23047474.930    23047474.516   121115400.6340   94375604.7250
  90443260.5750
  23625036.656    23625042.738    23625041.781   124150386.3250   96740613.1170
  92709734.0070
 22 12 25  0 56  0.0000000  0 10G01G03G08G10G14G17G21G22G27G32
  20661039.102    20661046.238    20661044.328   108574698.1550   84603566.3430
  81078391.6480
  22809799.773    22809806.609    22809807.168   119866262.8330   93402359.1750
  89510561.5230
  20855340.438    20855346.645    20855345.555   109595492.9350   85399212.8080
  81840883.4870
  24127339.766    24127346.109    24127343.316   126790119.2340   98797520.7770
  94680924.9130
  23000862.953    23000866.941    23000871.000   120870328.8110   94184701.1720
  90260319.7770
  25334736.492    25334740.313                   133134942.1430  103741524.2640

  20784870.000    20784873.230                   109225268.4940   85110648.5610

  23692365.031    23692369.387                   124504200.3660   97016295.1640

  23065122.109    23065128.879    23065128.020   121208171.4590   94447893.6670
  90512537.4790
  23621468.313    23621474.965    23621473.801   124131635.6370   96726002.1900
  92695731.8780
 22 12 25  0 56 30.0000000  0 10G01G03G08G10G14G17G21G22G27G32
  20653085.594    20653092.965    20653091.340   108532904.4720   84570999.8560
  81047182.0900
  22790077.250    22790084.469    22790084.906   119762622.6550   93321600.6210
  89433167.9040
  20864402.211    20864408.867    20864407.824   109643115.0260   85436320.9250
  81876445.4300
  24145681.109    24145687.223    24145685.066   126886501.2650   98872623.6580
  94752898.5170
  22991106.320    22991110.496    22991114.398   120819058.2070   94144750.0490
  90222033.2810
  25316927.422    25316930.738                   133041351.9700  103668596.7920

  20786870.633    20786874.105                   109235782.9030   85118841.6140

  23680831.398    23680837.371                   124443594.6870   96969069.9570

  23082816.422    23082823.445    23082822.695   121301156.3890   94520349.4570
  90581974.2750
  23617996.977    23618003.723    23618002.207   124113393.2680   96711787.3810
  92682109.3400
 22 12 25  0 57  0.0000000  0 10G01G03G08G10G14G17G21G22G27G32
  20645193.328    20645200.176    20645198.535   108491427.4850   84538680.1410
  81016209.0270
  22770406.625    22770413.094    22770413.879   119659250.3970   93241050.8200
  89355974.3530
  20873541.281    20873548.051    20873547.059   109691141.8340   85473744.3970
  81912309.5910
  24164053.109    24164058.938    24164056.914   126983048.0040   98947854.8830
  94824995.1110
  22981448.281    22981453.066    22981457.059   120768308.3500   94105204.7030
  90184135.6580
  25299109.539    25299113.418                   132947720.0770  103595636.9890

  20788911.766    20788915.184                   109246508.4940   85127199.2140

  23669357.438    23669361.254                   124383289.1230   96922078.5960

  23100551.859    23100558.059    23100557.445   121394353.7640   94592970.7740
  90651569.7020
  23614622.164    23614629.273    23614626.996   124095660.0030   96697969.2560
  92668866.9760
 22 12 25  0 57 30.0000000  0 10G01G03G08G10G14G17G21G22G27G32
  20637360.492    20637367.660    20637366.160   108450267.6850   84506607.5680
  80985472.8220
  22750786.836    22750793.668    22750794.359   119556148.5040   93160711.6890
  89278982.7020
  20882757.586    20882764.469    20882763.336   109739573.8050   85511483.5850
  81948476.3160
  24182455.719    24182462.121    24182459.906   127079757.3450   99023212.8130
  94897213.1230
  22971890.648    22971895.367    22971899.238   120718081.1810   94066066.6420
  90146628.3480
  25281283.992    25281287.805                   132854048.0150  103522645.6650

  20790993.117    20790996.363                   109257444.7950   85135721.0090

  23657938.492    23657942.633                   124323286.3410   96875323.2010

  23118326.609    23118333.586    23118332.250   121487762.7310   94665756.9740
  90721323.1500
  23611345.156    23611351.371    23611350.023   124078437.4270   96684549.0740
  92656005.9730
 22 12 25  0 58  0.0000000  0 10G01G03G08G10G14G17G21G22G27G32
  20629588.703    20629595.430    20629594.082   108409424.9620   84474782.0790
  80954973.3870
  22731218.703    22731225.977    22731226.473   119453319.0090   93080584.8220
  89202194.4460
  20892051.070    20892057.633    20892056.637   109788410.1710   85549537.8880
  81984945.0230
  24200890.352    24200895.852    24200894.617   127176626.9120   99098695.6060
  94969550.8040
  22962432.492    22962436.922    22962441.098   120668378.2350   94027337.0870
  90109512.5200
  25263451.766    25263455.363                   132760336.4800  103449623.7180

  20793113.758    20793117.363                   109268591.0250   85144406.3830

  23646578.914    23646583.324                   124263589.0800   96828805.8760

  23136141.625    23136148.176    23136147.664   121581382.0750   94738707.0900
  90791233.6750
  23608164.813    23608171.074    23608170.320   124061726.4810   96671527.5720
  92643527.0440
 22 12 25  0 58 30.0000000  0 10G01G03G08G10G14G17G21G22G27G32
  20621876.695    20621883.762    20621882.406   108368899.5750   84443203.8580
  80924710.9260
  22711703.570    22711710.227    22711710.891   119350764.1700   93000671.9690
  89125611.2960
  20901421.281    20901427.832    20901426.691   109837650.4730   85587906.9460
  82021715.3620
  24219353.797    24219359.516    24219357.914   127273654.2450   99174301.3280
  95042006.2660
  22953073.813    22953078.941    22953082.887   120619201.2730   93989017.3670
  90072789.4710
  25245611.789    25245615.465                   132666586.6590  103376571.9140

  20795274.766    20795278.211                   109279946.6410   85153254.9140

  23635276.945    23635281.590                   124204200.0350   96782528.6990

  23153997.031    23154003.297    23154002.570   121675210.6450   94811820.2540
  90861300.4610
  23605082.406    23605088.348    23605087.742   124045528.4860   96658905.7630
  92631431.1600
 22 12 25  0 59  0.0000000  0 10G01G03G08G10G14G17G21G22G27G32
  20614225.414    20614232.559    20614231.031   108328691.5260   84411872.9220
  80894685.4450
  22692240.961    22692247.727    22692248.117   119248486.1060   92920974.7840
  89049234.8240
  20910868.203    20910874.555    20910873.645   109887294.2100   85626590.3650
  82058786.9780
  24237846.297    24237853.418    24237850.512   127370837.0880   99250028.2070
  95114577.8420
  22943816.070    22943821.656    22943825.266   120570551.9120   93951108.7850
  90036460.3910
  25227765.852    25227768.965                   132572800.0010  103303491.3490

  20797475.320    20797478.750                   109291510.8890   85162266.0160

  23624034.625    23624038.918                   124145121.4630   96736493.4840

  23171891.656    23171897.832    23171897.391   121769247.2360   94885095.5060
  90931522.5580
  23602097.680    23602103.703    23602102.672   124029844.4790   96646684.4660
  92619719.0820
 22 12 25  0 59 30.0000000  0 10G01G03G08G10G14G17G21G22G27G32
  20606634.492    20606641.883    20606640.066   108288800.9890   84380789.3870
  80864897.0550
  22672831.039    22672838.035    22672838.336   119146486.9600   92841494.9440
  88973066.6490
  20920391.711    20920398.188    20920397.258   109937341.1470   85665587.9730
  82096159.6850
  24256368.734    24256375.559    24256373.098   127468173.2440   99325874.5420
  95187263.9440
  22934659.648    22934664.719    22934668.316   120522431.7190   93913612.5220
  90000526.4780
  25209908.711    25209914.645                   132478977.1100  103230382.6190

  20799715.813    20799718.879                   109303283.1480   85171439.2110

  23612852.180    23612856.418                   124086355.9280   96690702.1530

  23189825.656    23189832.223    23189831.367   121863490.6130   94958531.8990
  91001899.0990
  23599211.203    23599217.402    23599216.168   124014675.6200   96634864.6000
  92608391.7100
 22 12 25  1  0  0.0000000  0 10G01G03G08G10G14G17G21G22G27G32
  20599104.031    20599111.234    20599109.629   108249228.0050   84349953.2910
  80835345.8090
  22653474.695    22653481.477    22653481.973   119044768.8810   92762234.1100
  88897108.3580
  20929992.148    20929998.477    20929997.531   109987790.9830   85704899.5220
  82133833.2460
  24274919.969    24274926.887    24274924.945   127565660.5430   99401838.6670
  95260062.9090
  22925603.438    22925608.613    22925612.230   120474842.2850   93876529.8600
  89964988.9310
  25192050.328    25192054.293                   132385119.0440  103157246.4130

  20801995.539    20801998.543                   109315262.7500   85180773.9600

  23601729.602    23601733.699                   124027906.1880   96645156.9200

  23207798.570    23207804.957    23207804.223   121957939.6660   95032128.5520
  91072429.2380
  23596423.320    23596429.277    23596428.031   124000022.9870   96623446.9810
  92597449.7970
 22 12 25  1  0 30.0000000  0 10G01G03G08G10G14G17G21G22G27G32
  20591633.867    20591641.211    20591639.539   108209972.6690   84319364.7210
  80806031.7570
  22634171.539    22634179.039    22634179.684   118943334.0720   92683194.0100
  88821361.5950
  20939668.531    20939675.023    20939674.324   110038642.8210   85744524.3250
  82171807.0160
  24293499.844    24293505.598    24293503.668   127663296.5250   99477918.6640
  95332972.8970
  22916649.086    22916653.824    22916657.586   120427785.3260   93839862.0780
  89929848.9810
  25174181.664    25174186.707                   132291227.3830  103084084.1350

  20804314.867    20804317.465                   109327449.1880   85190269.8850

  23590667.648    23590672.117                   123969774.8530   96599859.8240

  23225810.891    23225817.836    23225816.629   122052593.2220   95105884.5600
  91143112.0630
  23593733.094    23593739.289    23593738.473   123985887.6910   96612432.4740
  92586894.2390
 22 12 25  1  1  0.0000000  0 10G01G03G08G10G14G17G21G22G27G32
  20584224.109    20584231.785    20584229.914   108171035.0810   84289023.7380
  80776954.9980
  22614923.250    22614930.828    22614931.410   118842184.5860   92604376.2250
  88745827.8870
  20949422.148    20949428.504    20949427.629   110089896.5990   85784462.3200
  82210080.9260
  24312106.891    24312113.773    24312111.203   127761079.3880   99554113.0980
  95405992.5630
  22907796.375    22907800.930    22907804.316   120381262.2830   93803610.3680
  89895107.7450
  25156309.133    25156313.508                   132197303.1670  103010896.3980

  20806672.328    20806675.773                   109339842.0620   85199926.6710

  23579667.375    23579670.895                   123911964.2170   96554812.5700

  23243860.977    23243868.133    23243866.836   122147450.0330   95179798.9450
  91213946.6840
  23591142.125    23591148.527    23591146.480   123972270.7580   96601821.8880
  92576725.7660
 22 12 25  1  1 30.0000000  0 10G01G03G08G10G14G17G21G22G27G32
  20576875.227    20576882.641    20576880.801   108132415.2220   84258930.3490
  80748115.4900
  22595730.344    22595737.258    22595737.953   118741322.5010   92525782.3910
  88670508.8120
  20959251.719    20959258.098    20959257.078   110141551.1190   85824712.5910
  82248654.1040
  24330742.422    24330748.285    24330746.988   127859006.5200   99630419.9310
  95479119.9530
  22899045.133    22899049.449    22899053.273   120335274.5780   93767775.7860
  89860766.2930
  25138430.438    25138434.969                   132103347.4880  102937684.1740

  20809070.047    20809073.184                   109352440.5570   85209743.6770

  23568727.023    23568731.078                   123854476.8900   96510017.2600

  23261950.281    23261956.867    23261955.883   122242508.7940   95253870.6900
  91284932.0980
  23588649.453    23588656.070    23588654.539   123959173.0840   96591615.9110
  92566945.0440
 22 12 25  1  2  0.0000000  0 10G01G03G08G10G14G17G21G22G27G32
  20569586.492    20569594.070    20569592.004   108094113.2080   84229084.6280
  80719513.3530
  22576591.984    22576598.758    22576599.684   118640749.9280   92447414.1540
  88595405.9050
  20969157.672    20969163.938    20969162.957   110193606.8870   85865275.5170
  82287526.9100
  24349404.969    24349410.547    24349408.645   127957075.5200   99706837.3430
  95552353.2420
  22890396.141    22890400.938    22890404.258   120289823.8480   93732359.6330
  89826825.8030
  25120546.320    25120549.836                   132009361.3731  102864448.1971

  20811506.406    20811509.637                   109365243.9240   85219720.3240

  23557849.969    23557853.871                   123797315.4070   96465475.8520

  23280077.719    23280084.070    23280083.586   122337768.3460   95328098.9070
  91356067.4850
  23586256.547    23586262.523    23586260.918   123946595.8770   96581815.4840
  92557552.9700
 22 12 25  1  2 30.0000000  0 10G01G03G08G10G14G17G21G22G27G32
  20562358.578    20562365.941    20562363.871   108056129.2380   84199486.7330
  80691148.7020
  22557509.266    22557516.129    22557516.895   118540469.1540   92369273.2940
  88520520.9180
  20979139.305    20979146.070    20979145.039   110246062.5790   85906150.0720
  82326698.3560
  24368092.641    24368099.305    24368097.004   128055284.1820   99783363.5640
  95625690.8880
  22881849.281    22881854.586    22881857.902   120244911.7250   93697363.1830
  89793287.5300
  25102653.891    25102658.734                   131915346.2080  102791189.5930

  20813981.711    20813985.047                   109378251.8670   85229856.3790

  23547034.672    23547038.910                   123740482.5130   96421190.4870

  23298243.109    23298249.277    23298248.848   122433227.6380   95402482.7680
  91427352.0000
  23583962.219    23583968.629    23583966.945   123934540.0700   96572421.3640
  92548550.2830
 22 12 25  1  3  0.0000000  0 10G01G03G08G10G14G17G21G22G27G32
  20555191.000    20555198.340    20555196.195   108018463.3020   84170136.6550
  80663021.5410
  22538482.273    22538489.094    22538490.000   118440482.1770   92291361.3530
  88445855.3300
  20989197.555    20989204.047    20989203.059   110298917.9760   85947336.0870
  82366168.2820
  24386807.414    24386813.852    24386811.672   128153630.4140   99859996.9590
  95699131.2100
  22873405.953    22873410.621    22873414.145   120200539.5310   93662787.4330
  89760152.4360
  25084759.430    25084762.363                   131821302.9480  102717909.0710

  20816495.250    20816498.961                   109391463.4560   85240151.1200

  23536282.141    23536287.355                   123683980.5330   96377163.0020

  23316445.680    23316452.316    23316452.082   122528885.2960   95477021.1910
  91498784.6570
  23581767.406    23581773.746    23581772.152   123923006.6020   96563434.2510
  92539937.6280
 22 12 25  1  3 30.0000000  0 10G01G03G08G10G14G17G21G22G27G32
  20548083.906    20548091.375    20548089.242   107981115.6530   84141034.5890
  80635132.0720
  22519511.938    22519518.566    22519519.266   118340791.2820   92213680.1490
  88371410.8280
  20999331.555    20999338.012    20999337.219   110352172.8630   85988833.3910
  82405936.5300
  24405548.805    24405554.164    24405551.527   128252111.9250   99936735.7920
  95772672.5840
  22865065.625    22865069.863    22865073.406   120156708.9050   93628633.6970
  89727421.7750
  25066858.453    25066862.813                   131727232.7720  102644607.6540

  20819048.859    20819051.820                   109404878.5640   85250604.4430

  23525594.039    23525598.250                   123627811.9420   96333395.2850

  23334686.242    23334692.789    23334692.082   122624740.2510   95551713.3640
  91570364.6540
  23579672.227    23579677.938    23579677.004   123911996.6220   96554855.0490
  92531715.8830
 22 12 25  1  4  0.0000000  0 10G01G03G08G10G14G17G21G22G27G32
  20541037.234    20541044.680    20541042.750   107944086.1150   84112180.4010
  80607480.1350
  22500598.398    22500604.723    22500605.434   118241398.3080   92136231.0850
  88297188.8250
  21009541.359    21009547.977    21009547.023   110405826.4980   86030641.4100
  82446002.5470
  24424314.367    24424319.727    24424317.656   128350726.7810  100013578.5190
  95846313.5690
  22856828.055    22856832.152    22856836.156   120113421.0760   93594902.9150
  89695096.4320
  25048951.906    25048956.695                   131633137.2110  102571286.4851

  20821640.141    20821643.398                   109418496.3700   85261215.7240

  23514969.563    23514973.953                   123571979.1940   96289889.2420

  23352964.422    23352970.785    23352970.316   122720791.0890   95626558.1750
  91642090.9200
  23577676.734    23577682.875    23577681.762   123901510.8240   96546684.3110
  92523885.5920
 22 12 25  1  4 30.0000000  0 10G01G03G08G10G14G17G21G22G27G32
  20534051.625    20534058.586    20534056.906   107907374.7800   84083574.1640
  80580065.8230
  22481741.133    22481748.027    22481748.703   118142305.3250   92059015.7860
  88223190.8280
  21019827.367    21019833.703    21019832.746   110459878.0290   86072759.4740
  82486365.7000
  24443104.477    24443110.641    24443108.438   128449472.4630  100090523.1810
  95920052.1490
  22848694.148    22848698.426    22848702.293   120070677.5090   93561596.2310
  89663177.5390
  25031040.648    25031046.473                   131539017.2771  102497946.1591

  20824269.922    20824273.152                   109432316.3320   85271984.5200

  23504409.273    23504413.637                   123516484.7300   96246646.8080

  23371279.516    23371285.840    23371285.012   122817036.5650   95701554.6330
  91713962.5460
  23575780.680    23575787.461    23575786.199   123891549.9910   96538922.6220
  92516447.3140
 22 12 25  1  5  0.0000000  0 10G01G03G08G10G14G17G21G22G27G32
  20527126.383    20527133.121    20527131.680   107870981.8260   84055216.0200
  80552889.2710
  22462942.211    22462948.785    22462949.598   118043514.5930   91982036.0040
  88149418.5420
  21030188.188    21030194.941    21030193.938   110514326.8110   86115187.0890
  82527025.4940
  24461919.922    24461925.746    24461923.918   128548346.8600  100167568.1560
  95993886.9230
  22840664.102    22840668.293    22840672.387   120028479.6770   93528714.8050
  89631666.1640
  25013127.703    25013131.246                   131444873.8851  102424587.6351

  20826938.172    20826941.258                   109446337.7740   85282910.3240

  23493914.164    23493918.340                   123461331.2130   96203670.0550

  23389631.555    23389637.477    23389637.027   122913475.5270   95776701.8620
  91785978.6250
  23573986.227    23573992.145    23573991.086   123882115.2380   96531570.8810
  92509401.9090
 22 12 25  1  5 30.0000000  0 10G01G03G08G10G14G17G21G22G27G32
  20520260.945    20520268.348    20520267.023   107834907.2830   84027105.9850
  80525950.4910
  22444200.391    22444207.684    22444208.039   117945028.0490   91905293.2600
  88075873.3820
  21040625.258    21040631.770    21040630.699   110569172.4280   86157923.9160
  82567981.6120
  24480758.109    24480765.297    24480762.969   128647347.6280  100244711.5990
  96067816.0740
  22832738.203    22832742.598    22832746.488   119986828.8880   93496259.6510
  89600563.3010
  24995207.023    24995212.199                   131350708.5581  102351212.0041

  20829644.273    20829647.648                   109460560.1390   85293992.6860

  23483483.586    23483488.176                   123406520.8560   96160960.6950

  23408019.156    23408026.113    23408025.387   123010106.7630   95851998.9350
  91858138.2980
  23572291.266    23572296.789    23572295.680   123873207.3550   96524629.6820
  92502749.9170
 22 12 25  1  6  0.0000000  0 10G01G03G08G10G14G17G21G22G27G32
  20513456.852    20513464.195    20513462.969   107799151.2240   83999244.1210
  80499249.5340
  22425517.586    22425524.367    22425525.063   117846847.8340   91828789.2020
  88002557.0120
  21051137.195    21051144.117    21051142.922   110624414.3420   86200969.5540
  82609233.6830
  24499621.336    24499627.770    24499625.863   128746472.6350  100321951.8420
  96141838.0000
  22824916.367    22824921.055    22824925.117   119945726.6120   93464231.8970
  89569870.0420
  24977284.797    24977289.516                   131256522.7731  102277820.6221

  20832389.008    20832392.309                   109474982.9030   85305231.2040

  23473119.961    23473124.152                   123352056.2810   96118520.7750

  23426443.883    23426450.773    23426450.375   123106928.9700   95927444.8040
  91930440.6100
  23570696.516    23570701.770    23570701.332   123864827.1470   96518099.6630
  92496491.9990
 22 12 25  1  6 30.0000000  0 10G01G03G08G10G14G17G21G22G27G32
  20506713.227    20506720.746    20506719.473   107763713.7370   83971630.4970
  80472786.4870
  22406893.617    22406899.945    22406900.586   117748976.0030   91752525.4580
  87929470.9260
  21061725.055    21061731.672    21061730.469   110680052.3510   86244323.8390
  82650781.5380
  24518507.930    24518513.699    24518512.133   128845719.8610  100399287.3520
  96215951.1600
  22817200.000    22817204.063    22817208.270   119905174.1330   93432632.5500
  89539587.3350
  24959358.586    24959362.563                   131162317.6351  102204413.8991

  20835171.484    20835174.734                   109489604.9410   85316625.0010

  23462821.305    23462825.641                   123297940.0850   96076352.3400

  23444905.250    23444911.348    23444910.273   123203940.8780   96003038.4970
  92002884.5610
  23569202.047    23569207.594    23569207.426   123856975.5230   96511981.5160
  92490628.7570
 22 12 25  1  7  0.0000000  0 10G01G03G08G10G14G17G21G22G27G32
  20500030.898    20500037.891    20500036.492   107728595.0880   83944265.3180
  80446561.5120
  22388328.164    22388334.598    22388335.379   117651414.8100   91676503.7570
  87856616.8100
  21072387.891    21072394.461    21072393.414   110736085.6330   86287986.1220
  82692624.5520
  24537416.688    24537422.082    24537420.285   128945087.0510  100476716.3170
  96290153.9300
  22809588.227    22809592.281    22809596.246   119865173.0520   93401462.8780
  89509716.4090
  24941428.078    24941432.434                   131068094.3371  102130993.2041

  20837992.078    20837995.215                   109504426.6660   85328174.4010

  23452590.016    23452594.613                   123244174.4670   96034457.0710

  23463401.305    23463407.883    23463407.195   123301141.5990   96078779.3070
  92075469.4900
  23567808.898    23567814.621    23567813.676   123849653.5030   96506276.0590
  92485161.0380
 22 12 25  1  7 30.0000000  0 10G01G03G08G10G14G17G21G22G27G32
  20493408.531    20493415.859    20493414.285   107693795.0300   83917148.3800
  80420574.4540
  22369822.305    22369828.711    22369829.336   117554165.9510   91600725.4310
  87783995.9140
  21083125.461    21083132.184    21083131.121   110792512.9420   86331955.4390
  82734761.8170
  24556348.492    24556353.898    24556352.645   129044571.6870  100554236.8530
  96364444.4440
  22802081.031    22802085.336    22802089.410   119825724.1850   93370723.4990
  89480257.8370
  24923495.031    24923499.527                   130973854.0870  102057559.1870

  20840849.867    20840853.582                   109519446.9530   85339878.5140

  23442425.492    23442429.824                   123190761.7520   95992836.7580

  23481934.063    23481940.098    23481939.102   123398529.3480   96154665.8590
  92148194.1090
  23566515.906    23566521.992    23566521.477   123842861.3520   96500983.4790
  92480089.0010
 22 12 25  1  8  0.0000000  0 10G01G03G08G10G14G17G21G22G27G32
  20486847.250    20486854.285    20486852.594   107659313.6600   83890279.7840
  80394825.3720
  22351376.250    22351382.621    22351383.445   117457231.5490   91525192.1470
  87711609.8520
  21093938.258    21093944.848    21093943.867   110849334.1000   86376231.6570
  82777193.2020
  24575300.844    24575307.293    24575305.477   129144171.7650  100631847.2760
  96438821.1130
  22794679.125    22794684.059    22794687.875   119786829.0490   93340415.5890
  89451212.7620
  24905557.734    24905563.020                   130879598.0110  101984112.8580

  20843745.883    20843749.492                   109534665.2370   85351736.9270

  23432329.148    23432334.059                   123137704.4620   95951493.4480

  23500501.148    23500507.871    23500507.004   123496102.9510   96230697.2400
  92221057.5220
  23565324.656    23565330.879    23565329.695   123836599.9570   96496104.4880
  92475413.2870
 22 12 25  1  8 30.0000000  0 10G01G03G08G10G14G17G21G22G27G32
  20480346.008    20480353.438    20480351.590   107625151.0720   83863659.5850
  80369314.3390
  22332990.336    22332996.977    22332997.738   117360613.6620   91449905.4950
  87639460.1330
  21104825.813    21104832.383    21104831.367   110906548.4710   86420814.2680
  82819918.1910
  24594276.500    24594282.047    24594280.477   129243885.4240  100709546.2490
  96513282.5990
  22787383.203    22787387.875    22787392.043   119748488.8770   93310540.1280
  89422582.1080
  24887619.992    24887623.492                   130785327.4201  101910655.2551

  20846679.609    20846682.984                   109550081.0810   85363749.2720

  23422301.063    23422305.664                   123085004.9550   95910428.9010

  23519104.258    23519111.078    23519109.871   123593861.2520   96306872.5250
  92294058.8520
  23564234.305    23564240.504    23564239.477   123830870.2250   96491639.7680
  92471134.5960
 22 12 25  1  9  0.0000000  0 10G01G03G08G10G14G17G21G22G27G32
  20473905.859    20473913.313    20473911.395   107591307.5380   83837287.9980
  80344041.5770
  22314665.484    22314671.664    22314672.629   117264314.5180   91374867.2020
  87567548.4580
  21115788.117    21115794.715    21115793.734   110964155.7430   86465703.0380
  82862936.6040
  24613272.453    24613278.453    24613276.441   129343710.3170  100787331.8840
  96587827.1690
  22780193.586    22780198.055    22780201.980   119710705.1440   93281098.2660
  89394366.9850
  24869678.891    24869681.770                   130691043.7180  101837187.4590

  20849650.820    20849654.066                   109565694.4500   85375915.5320

  23412341.844    23412346.035                   123032665.8960   95869645.2500

  23537742.125    23537749.234    23537748.070   123691803.1980   96383190.9250
  92367197.2980
  23563245.141    23563251.699    23563250.055   123825672.9190   96487589.9160
  92467253.4830
 22 12 25  1  9 30.0000000  0 10G01G03G08G10G14G17G21G22G27G32
  20467526.320    20467533.703    20467531.750   107557782.8140   83811164.8400
  80319006.8850
  22296400.820    22296407.652    22296408.578   117168335.7110   91300078.5360
  87495875.9830
  21126824.703    21126831.512    21126830.563   111022154.3520   86510896.7510
  82906247.2320
  24632289.266    24632294.992    24632293.441   129443644.3200  100865202.5060
  96662453.2100
  22773109.742    22773113.840    22773117.914   119673478.6740   93252090.6250
  89366567.9890
  24851734.820    24851737.668                   130596748.0910  101763710.2830

  20852659.141    20852662.617                   109581503.7050   85388234.4290

  23402450.758    23402455.938                   122980689.3040   95829144.0090

  23556414.367    23556421.102    23556419.602   123789927.0880   96459651.0870
  92440471.6230
  23562357.648    23562363.715    23562362.738   123821008.3640   96483955.2110
  92463770.2290
 22 12 25  1 10  0.0000000  0 10G01G03G08G10G14G17G21G22G27G32
  20461207.719    20461214.875    20461212.867   107524576.9610   83785290.1370
  80294210.3180
  22278198.508    22278204.695    22278205.820   117072679.4370   91225541.1790
  87424444.3560
  21137935.898    21137942.844    21137941.711   111080544.1730   86556395.3030
  82949850.0080
  24651325.898    24651331.898    24651330.586   129543684.9720  100943156.2990
  96737158.9240
  22766132.008    22766136.504    22766140.180   119636810.7900   93223518.2480
  89339186.1340
  24833788.602    24833791.906                   130502441.5400  101690224.6430

  20855705.297    20855708.246                   109597508.9170   85400706.0250

  23392629.031    23392634.066                   122929077.6210   95788927.1300

  23575120.516    23575127.582    23575126.563   123888231.7440   96536252.1110
  92513880.9530
  23561572.016    23561577.520    23561575.938   123816877.4160   96480736.3000
  92460685.4290
 22 12 25  1 10 30.0000000  0 10G01G03G08G10G14G17G21G22G27G32
  20454948.922    20454956.500    20454954.680   107491689.8550   83759663.8340
  80269651.7650
  22260057.078    22260063.738    22260064.660   116977347.4510   91151256.5270
  87353254.8890
  21149121.453    21149128.098    21149127.070   111139323.8880   86602197.6640
  82993743.9340
  24670382.859    24670389.102    24670387.430   129643829.9940  101021191.3830
  96811942.5320
  22759261.273    22759265.160    22759269.102   119600702.4160   93195381.8540
  89312222.0870
  24815841.344    24815844.840                   130408125.9810  101616731.9810

  20858787.664    20858791.207                   109613709.4800   85413329.8410

  23382877.977    23382882.059                   122877832.9240   95748996.1960

  23593861.563    23593867.898    23593867.520   123986715.5960   96612992.7720
  92587424.0770
  23560886.813    23560892.926    23560892.207   123813280.3720   96477933.4270
  92457999.3440
 22 12 25  1 11  0.0000000  0 10G01G03G08G10G14G17G21G22G27G32
  20448751.594    20448758.957    20448757.164   107459121.7570   83734286.0930
  80245331.4330
  22241978.188    22241984.844    22241985.668   116882341.9080   91077226.2360
  87282309.1980
  21160380.992    21160387.633    21160386.672   111198493.3680   86648303.7430
  83037928.9360
  24689459.258    24689465.906    24689464.043   129744077.7080  101099306.4870
  96886802.8180
  22752496.328    22752500.723    22752504.645   119565154.8880   93167682.4660
  89285676.8440
  24797891.773    24797895.188                   130313802.2410  101543232.9350

  20861907.719    20861911.000                   109630104.7740   85426105.4000

  23373196.016    23373200.691                   122826957.5780   95709353.0860

  23612635.922    23612642.734    23612642.332   124085377.6890   96689872.3170
  92661100.3010
  23560304.750    23560310.191    23560309.125   123810218.1240   96475547.2650
  92455712.6060
 22 12 25  1 11 30.0000000  0 10G01G03G08G10G14G17G21G22G27G32
  20442614.813    20442621.992    20442620.328   107426872.8040   83709157.0440
  80221249.4320
  22223961.625    22223968.242    22223969.273   116787664.8380   91003451.9030
  87211608.8040
  21171714.539    21171721.316    21171720.449   111258052.0800   86694713.1190
  83082404.5700
  24708555.609    24708561.047    24708559.441   129844425.9150  101177499.8710
  96961738.1900
  22745839.242    22745843.613    22745847.098   119530169.4990   93140421.1280
  89259551.3920
  24779942.016    24779944.344                   130219471.7110  101469728.5890

  20865064.594    20865067.945                   109646694.3570   85439032.3370

  23363585.664    23363590.109                   122776454.3370   95669999.9100

  23631445.047    23631451.602    23631451.656   124184216.6580   96766889.6910
  92734908.6110
  23559823.781    23559829.199    23559828.734   123807691.2740   96473578.2850
  92453825.6830
 22 12 25  1 12  0.0000000  0 10G01G03G08G10G14G17G21G22G27G32
  20436538.883    20436546.082    20436544.344   107394942.8440   83684276.5550
  80197405.6350
  22206008.164    22206014.742    22206015.574   116693318.1370   90929935.0000
  87141155.1100
  21183122.102    21183129.004    21183127.926   111317998.8600   86741424.8780
  83127170.0200
  24727669.695    24727675.422    24727673.906   129944872.5160  101255769.9960
  97036747.0230
  22739287.969    22739292.930    22739296.613   119495747.1830   93113598.5420
  89233846.4180
  24761990.250    24761992.969                   130125135.7940  101396220.0880

  20868258.164    20868261.652                   109663477.6210   85452110.2030

  23354046.859    23354050.891                   122726324.9930   95630938.0840

  23650286.625    23650293.082    23650292.988   124283231.1850   96844043.8590
  92808848.0120
  23559445.203    23559450.516    23559449.832   123805700.3550   96472026.9340
  92452338.9850
 22 12 25  1 12 30.0000000  0 10G01G03G08G10G14G17G21G22G27G32
  20430523.672    20430530.703    20430529.199   107363332.1680   83659644.8600
  80173800.2600
  22188117.289    22188124.527    22188125.109   116599303.9300   90856677.1830
  87070949.7120
  21194603.313    21194610.273    21194609.246   111378333.1230   86788438.5820
  83172224.8080
  24746802.383    24746808.988    24746806.434   130045415.1240  101334114.8870
  97111827.5250
  22732845.258    22732850.191    22732853.777   119461889.1860   93087215.6870
  89208562.8380
  24744037.898    24744040.738                   130030796.2490  101322708.7050

  20871488.844    20871492.203                   109680454.6190   85465339.0280

  23344579.516    23344583.336                   122676572.3270   95592169.7710

  23669161.445    23669168.555    23669167.738   124382420.1350   96921333.9380
  92882917.6810
  23559167.922    23559173.449    23559173.063   123804246.0830   96470893.7540
  92451253.0110
 22 12 25  1 13  0.0000000  0 10G01G03G08G10G14G17G21G22G27G32
  20424569.063    20424576.227    20424574.801   107332040.8640   83635262.0210
  80150433.3750
  22170291.203    22170298.070    22170298.375   116505624.3020   90783680.0910
  87000994.1710
  21206158.641    21206165.078    21206164.137   111439054.3660   86835753.8200
  83217568.5710
  24765952.422    24765958.992    24765956.863   130146051.9780  101412533.2050
  97186978.4400
  22726510.125    22726514.895    22726518.281   119428596.7110   93061273.5040
  89183701.5770
  24726085.445    24726087.465                   129936453.7570  101249195.0750

  20874756.242    20874759.480                   109697624.6570   85478718.2810

  23335183.328    23335188.098                   122627198.6050   95553696.7590

  23688069.500    23688075.996    23688075.605   124481782.1110   96998758.8620
  92957116.5630
  23558993.063    23558999.441    23558998.758   123803328.9560   96470179.1220
  92450568.1660
 22 12 25  1 13 30.0000000  0 10G01G03G08G10G14G17G21G22G27G32
  20418675.391    20418682.496    20418680.957   107301068.6500   83611127.8330
  80127304.7750
  22152528.063    22152535.258    22152535.582   116412280.7300   90710944.8580
  86931289.5710
  21217786.500    21217793.340    21217792.387   111500161.3880   86883369.6740
  83263200.4300
  24785121.016    24785127.043    24785125.785   130246780.7930  101491023.2240
  97262198.0270
  22720282.063    22720287.371    22720290.582   119395870.3690   93035772.4620
  89159263.0830
  24708131.961    24708134.590                   129842109.9830  101175680.3900

  20878060.273    20878063.586                   109714986.4770   85492246.9720

  23325860.234    23325864.707                   122578205.9000   95515520.6280

  23707010.617    23707017.094    23707016.063   124581315.5350   97076317.3760
  93031443.4620
  23558920.227    23558926.855    23558926.086   123802949.2090   96469883.2030
  92450284.5640
 22 12 25  1 14  0.0000000  0 10G01G03G08G10G14G17G21G22G27G32
  20412841.945    20412849.355    20412847.977   107270415.6960   83587242.4140
  80104414.5660
  22134830.102    22134836.871    22134837.199   116319275.2750   90638473.0880
  86861837.4700
  21229488.211    21229494.871    21229494.012   111561653.5470   86931285.6310
  83309119.8940
  24804305.805    24804312.156    24804310.559   130347599.3590  101569583.1410
  97337484.6030
  22714162.844    22714167.336    22714171.027   119363711.4670   93010713.5840
  89135248.3230
  24690178.977    24690181.781                   129747766.1200  101102165.6750

  20881400.836    20881403.762                   109732540.2550   85505925.2410

  23316610.969    23316614.723                   122529596.2940   95477643.0230

  23725983.680    23725989.852    23725989.371   124681019.2210   97154008.5540
  93105897.5370
  23558951.000    23558957.477    23558956.625   123803107.4040   96470006.4880
  92450402.7210
 22 12 25  1 14 30.0000000  0 10G01G03G08G10G14G17G21G22G27G32
  20407070.008    20407077.164    20407075.566   107240081.9050   83563605.6860
  80081762.7090
  22117196.289    22117203.039    22117203.645   116226609.8450   90566266.2660
  86792639.2630
  21241263.094    21241269.605    21241268.586   111623530.0910   86979501.1140
  83355326.3910
  24823507.648    24823514.719    24823511.496   130448505.6720  101648211.4340
  97412836.7270
  22708150.844    22708155.957    22708159.547   119332120.5990   92986097.3270
  89111657.7470
  24672226.945    24672229.285                   129653424.3280  101028652.5340

  20884776.883    20884780.629                   109750285.1070   85519752.3950

  23307433.258    23307438.066                   122481372.2220   95440065.8220

  23744988.602    23744995.223    23744994.238   124780891.8330   97231831.3700
  93180477.7040
  23559084.102    23559089.484    23559088.875   123803803.9430   96470549.2580
  92450922.8670
 22 12 25  1 15  0.0000000  0 10G01G03G08G10G14G17G21G22G27G32
  20401358.383    20401365.637    20401363.969   107210067.6720   83540217.9800
  80059349.4880
  22099628.016    22099634.445    22099635.273   116134286.6380   90494326.1100
  86723696.6190
  21253110.594    21253117.219    21253116.359   111685790.4380   87028015.6550
  83401819.4820
  24842725.461    24842732.773    24842730.492   130549497.9170  101726906.7080
  97488253.0550
  22702247.859    22702252.672    22702256.363   119301099.2390   92961924.8380
  89088492.4520
  24654274.602    24654277.434                   129559084.8240  100955141.2080

  20888190.320    20888193.723                   109768220.7600   85533728.2310

  23298330.375    23298334.809                   122433536.1110   95402790.9390

  23764026.234    23764033.055    23764031.652   124880932.2370   97309784.9220
  93255183.1870
  23559318.695    23559324.953    23559324.203   123805039.4990   96471512.0200
  92451845.5150
 22 12 25  1 15 30.0000000  0 10G01G03G08G10G14G17G21G22G27G32
  20395707.602    20395714.969    20395713.152   107180372.8020   83517079.1170
  80037174.7490
  22082124.945    22082131.281    22082132.152   116042307.3430   90422653.9430
  86655010.7840
  21265031.102    21265037.957    21265037.000   111748433.3210   87076828.2810
  83448598.2530
  24861960.148    24861966.121    24861964.852   130650573.7070  101805667.0520
  97563731.7010
  22696453.156    22696458.137    22696461.738   119270648.1660   92938196.7330
  89065752.9990
  24636322.203    24636325.324                   129464749.9780  100881633.5150

  20891639.180    20891642.828                   109786346.8690   85547852.4710

  23289302.070    23289306.309                   122386090.0920   95365819.9970

  23783094.156    23783100.625    23783100.551   124981138.9470   97387868.0530
  93330012.8650
  23559656.336    23559662.305    23559661.391   123806814.2680   96472894.9680
  92453170.8500
 22 12 25  1 16  0.0000000  0 10G01G03G08G10G14G17G21G22G27G32
  20390117.516    20390125.082    20390123.141   107150997.4790   83494189.2510
  80015238.6340
  22064687.758    22064693.996    22064694.871   115950674.0300   90351251.3600
  86586583.3100
  21277024.594    21277031.238    21277030.129   111811458.5070   87125938.8020
  83495662.4930
  24881210.070    24881216.594    24881214.469   130751731.1420  101884491.0320
  97639271.3250
  22690767.961    22690772.324    22690775.824   119240768.4500   92914913.8380
  89043440.2430
  24618372.922    24618375.719                   129370420.4220  100808129.9340

  20895125.172    20895128.414                   109804662.7860   85562124.6170

  23280348.094    23280352.043                   122339036.5590   95329154.9450

  23802194.156    23802201.172    23802200.531   125081510.6970   97466079.7980
  93404965.7940
  23560097.047    23560103.398    23560102.027   123809128.8960   96474698.5890
  92454899.3130
 22 12 25  1 16 30.0000000  0 10G01G03G08G10G14G17G21G22G27G32
  20384588.328    20384595.762    20384593.957   107121941.7260   83471548.4030
  79993541.1550
  22047316.688    22047323.035    22047323.883   115859388.5190   90280119.7980
  86518415.5800
  21289090.422    21289097.195    21289095.996   111874864.6920   87175346.2100
  83543011.2540
  24900473.531    24900481.461    24900478.793   130852968.2790  101963377.1060
  97714870.4790
  22685189.984    22685194.801    22685198.875   119211460.8800   92892076.7680
  89021554.7110
  24600423.336    24600426.738                   129276097.8690  100734631.8100

  20898646.359    20898649.809                   109823168.6490   85576544.7730

  23271468.922    23271473.656                   122292377.2870   95292797.0740

  23821325.602    23821332.402    23821331.781   125182046.1730   97544419.1340
  93480040.9720
  23560639.953    23560646.344    23560644.969   123811983.6600   96476923.0820
  92457031.1280
 22 12 25  1 17  0.0000000  0 10G01G03G08G10G14G17G21G22G27G32
  20379120.047    20379127.477    20379125.570   107093205.4590   83449156.5020
  79972082.2490
  22030011.711    22030018.645    22030019.324   115768452.5930   90209260.6510
  86450508.8900
  21301228.805    21301235.336    21301234.152   111938651.2710   87225050.0230
  83590644.0790
  24919754.000    24919760.918    24919758.332   130954283.0780  102042323.6930
  97790527.6100
  22679722.508    22679726.926    22679730.910   119182726.2980   92869686.1820
  89000097.0660
  24582476.258    24582479.469                   129181783.6080  100661140.1420

  20902204.227    20902207.270                   109841862.9640   85591111.7660

  23262664.930    23262669.781                   122246114.5640   95256748.1940

  23840488.336    23840494.797    23840494.629   125282743.9050   97622884.8810
  93555237.3300
  23561286.672    23561292.875    23561290.922   123815378.7720   96479568.6340
  92459566.4600
 22 12 25  1 17 30.0000000  0 10G01G03G08G10G14G17G21G22G27G32
  20373712.578    20373719.926    20373718.035   107064788.7070   83427013.5790
  79950861.9510
  22012774.047    22012781.000    22012781.625   115677868.0680   90138675.3060
  86382864.6070
  21313438.875    21313445.805    21313444.512   112002817.5130   87275049.6810
  83638560.4180
  24939048.375    24939054.207    24939052.738   131055673.1460  102121328.9600
  97866241.0090
  22674363.594    22674367.957    22674372.016   119154565.4930   92847742.7070
  88979067.8990
  24564530.875    24564533.965                   129087479.4940  100587656.4130

  20905797.469    20905800.539                   109860745.7310   85605825.6130

  23253937.461    23253942.094                   122200250.8080   95221010.2370

  23859680.852    23859687.664    23859686.688   125383602.4940   97701475.9960
  93630553.7880
  23562035.258    23562041.500    23562039.625   123819314.5260   96482635.4620
  92462505.4820
 22 12 25  1 18  0.0000000  0 10G01G03G08G10G14G17G21G22G27G32
  20368365.781    20368373.152    20368371.336   107036691.5540   83405119.6900
  79929880.3100
  21995603.555    21995610.723    21995611.113   115587636.9340   90068365.3430
  86315484.2270
  21325721.602    21325728.293    21325727.051   112067362.0110   87325344.0870
  83686759.2160
  24958355.375    24958362.141    24958360.441   131157136.6350  102200391.4190
  97942009.1840
  22669114.586    22669118.469    22669122.613   119126979.4760   92826247.1010
  88958467.9460
  24546587.492    24546590.781                   128993186.8250  100514181.5660

  20909426.375    20909429.602                   109879816.6970   85620686.1080

  23245286.234    23245291.012                   122154787.8130   95185584.5130

  23878903.422    23878910.875    23878909.902   125484620.6740   97780191.4530
  93705989.4540
  23562887.617    23562893.465    23562891.910   123823791.2250   96486123.8140
  92465848.4930
 22 12 25  1 18 30.0000000  0 10G01G03G08G10G14G17G21G22G27G32
  20363080.016    20363087.066    20363085.535   107008913.9400   83383474.8010
  79909137.2920
  21978500.922    21978507.816    21978508.289   115497760.9680   89998332.1240
  86248369.0700
  21338075.938    21338082.645    21338081.375   112132284.8120   87375933.2670
  83735240.5200
  24977676.750    24977683.957    24977681.508   131258671.6790  102279509.5950
  98017830.7770
  22663974.711    22663978.555    22663982.730   119099968.9400   92805199.9310
  88938297.7330
  24528647.375    24528649.805                   128898906.6670  100440716.5010

  20913091.273    20913094.352                   109899075.1950   85635692.7300

  23236711.414    23236716.270                   122109727.9780   95150472.9980

  23898156.133    23898163.699    23898163.715   125585797.0540   97859030.1950
  93781543.2190
  23563842.211    23563848.117    23563846.891   123828809.2580   96490033.9640
  92469595.7250
 22 12 25  1 19  0.0000000  0 10G01G03G08G10G14G17G21G22G27G32
  20357854.953    20357862.012    20357860.426   106981455.7060   83362078.7720
  79888632.7640
  21961465.898    21961472.652    21961473.410   115408241.7980   89928576.9380
  86181520.3560
  21350501.922    21350508.691    21350507.406   112197583.9500   87426815.7010
  83784002.8500
  24997011.258    24997018.371    24997015.977   131360275.6780  102358681.5360
  98093703.8940
  22658944.117    22658948.035    22658952.344   119073534.4040   92784601.5910
  88918557.6610
  24510708.141    24510712.016                   128804640.5450  100367262.3420

  20916791.250    20916794.688                   109918520.3530   85650844.8010

  23228213.945    23228218.746                   122065073.0430   95115676.9250

  23917439.680    23917446.754    23917445.340   125687130.0280   97937990.9360
  93857213.9520
  23564899.820    23564906.262    23564904.801   123834368.5950   96494365.9330
  92473747.1830
 22 12 25  1 19 30.0000000  0 10G01G03G08G10G14G17G21G22G27G32
  20352690.867    20352697.832    20352696.191   106954317.3550   83340932.0080
  79868367.1160
  21944499.430    21944506.363    21944506.805   115319081.6970   89859101.5410
  86114939.7690
  21362999.234    21363006.207    21363005.012   112263258.9110   87477990.9850
  83833045.8190
  25016359.219    25016365.668    25016364.020   131461947.4850  102437906.3540
  98169627.6720
  22654023.617    22654027.836    22654031.941   119047677.1560   92764453.0890
  88899248.6710
  24492772.164    24492776.867                   128710390.1630  100293820.4630

  20920527.469    20920530.457                   109938152.5440   85666142.6170

  23219794.398    23219798.723                   122020825.5090   95081198.3640

  23936752.883    23936758.895    23936758.629   125788618.6350   98017072.9780
  93933000.9010
  23566060.484    23566067.039    23566065.898   123840469.8070   96499120.1190
  92478303.2900
 22 12 25  1 20  0.0000000  0 10G01G03G08G10G14G17G21G22G27G32
  20347587.516    20347594.480    20347592.844   106927498.9110   83320034.5190
  79848340.3630
  21927601.352    21927608.309    21927609.055   115230282.4450   89789907.3260
  86048628.6620
  21375568.445    21375575.145    21375573.797   112329309.0080   87529458.5760
  83882368.9360
  25035719.219    25035725.863    25035724.199   131563684.8290  102517182.1900
  98245600.3520
  22649213.406    22649217.367    22649221.660   119022397.8970   92744754.9490
  88880371.3000
  24474840.984    24474845.438                   128616157.2370  100220392.1970

  20924298.430    20924301.918                   109957971.3560   85681585.8520

  23211452.289    23211457.145                   121976987.9120   95047039.2200

  23956093.789    23956101.258    23956100.883   125890261.4870   98096275.1860
  94008903.0340
  23567324.766    23567331.160    23567330.172   123847113.1750   96504296.7680
  92483264.2450
 22 12 25  1 20 30.0000000  0 10G01G03G08G10G14G17G21G22G27G32
  20342544.664    20342551.922    20342550.410   106901000.0690   83299386.0690
  79828552.2620
  21910772.508    21910779.074    21910780.020   115141845.6020   89720995.5240
  85982588.1750
  21388208.484    21388215.266    21388214.016   112395733.3410   87581217.7840
  83931971.5090
  25055091.664    25055097.645    25055096.102   131665485.1310  102596507.1030
  98321620.0740
  22644512.898    22644516.832    22644521.039   118997697.0680   92725507.5410
  88861925.8750
  24456912.250    24456916.367                   128521942.6600  100146978.2410

  20928105.492    20928108.543                   109977975.7810   85697173.7160

  23203188.320    23203193.203                   121933561.5560   95013200.5020

  23975465.836    23975472.777    23975472.262   125992056.9280   98175596.3050
  94084919.0820
  23568692.469    23568698.508    23568697.293   123854298.5630   96509895.7820
  92488629.9770
 22 12 25  1 21  0.0000000  0 10G01G03G08G10G14G17G21G22G27G32
  20337562.570    20337570.199    20337568.582   106874820.7840   83278986.6270
  79809002.8000
  21894012.898    21894019.586    21894020.313   115053772.8410   89652367.4040
  85916819.5710
  21400919.250    21400926.492    21400925.156   112462530.8990   87633267.8160
  83981852.7800
  25074475.672    25074481.301    25074480.105   131767347.0980  102675880.1000
  98397685.8210
  22639922.852    22639926.531    22639930.895   118973575.2610   92706711.3100
  88843912.8130
  24438987.180    24438992.008                   128427748.1030  100073579.8720

  20931947.313    20931950.582                   109998165.4430   85712905.9230

  23195003.500    23195008.469                   121890548.6660   94979683.9730

  23994866.055    23994871.438    23994872.227   126094003.5440   98255035.2280
  94161048.0520
  23570162.813    23570169.008    23570168.363   123862026.0540   96515917.2120
  92494400.5130
 22 12 25  1 21 30.0000000  0 10G01G03G08G10G14G17G21G22G27G32
  20332642.273    20332649.289    20332647.605   106848961.1880   83258836.2920
  79789692.0600
  21877322.570    21877329.727    21877330.199   114966066.0840   89584024.4920
  85851324.2760
  21413701.594    21413708.387    21413707.246   112529700.5730   87685607.8030
  84032011.9300
  25093870.836    25093876.234    25093874.867   131869268.1590  102755299.1130
  98473795.7370
  22635442.930    22635446.617    22635450.930   118950033.2700   92688366.8960
  88826332.7560
  24421066.680    24421071.672                   128333574.9280  100000198.1720

  20935824.563    20935827.680                   110018539.8350   85728782.0710

  23186897.461    23186902.234                   121847951.6510   94946491.5200

  24014294.195    24014300.445    24014300.145   126196100.1070   98334590.9770
  94237288.9810
  23571736.742    23571743.074    23571741.387   123870295.8560   96522361.2200
  92500576.0260
 22 12 25  1 22  0.0000000  0 10G01G03G08G10G14G17G21G22G27G32
  20327782.242    20327789.398    20327787.496   106823421.5180   83238935.2510
  79770620.2210
  21860702.656    21860709.500    21860710.117   114878727.3010   89515968.3040
  85786103.7630
  21426554.352    21426560.961    21426559.781   112597241.3380   87738236.9630
  84082448.2020
  25113275.977    25113282.105    25113280.496   131971246.7790  102834762.9400
  98549948.5420
  22631073.234    22631077.508    22631081.551   118927071.9450   92670474.9470
  88809186.2830
  24403150.359    24403155.496                   128239424.8320   99926834.4340

  20939736.523    20939740.129                   110039099.0120   85744802.2130

  23178871.227    23178875.840                   121805772.1820   94913624.4100

  24033750.984    24033757.172    24033756.684   126298345.3260   98414262.5830
  94313640.9120
  23573413.758    23573419.414    23573418.645   123879108.2750   96529228.0340
  92507156.7380
 22 12 25  1 22 30.0000000  0 10G01G03G08G10G14G17G21G22G27G32
  20322982.359    20322990.172    20322988.254   106798201.4950   83219283.2820
  79751787.0840
  21844152.516    21844159.660    21844160.258   114791757.9810   89448200.0020
  85721159.1600
  21439477.156    21439483.992    21439483.094   112665152.4560   87791154.7090
  84133161.0540
  25132691.961    25132698.727    25132696.715   132073280.8920  102914270.0290
  98626142.8550
  22626814.547    22626818.836    22626822.746   118904691.7010   92653035.7820
  88792473.7610
  24385238.953    24385243.883                   128145299.2230   99853489.7960

  20943683.992    20943687.355                   110059842.2220   85760965.7490

  23170924.203    23170928.805                   121764012.1960   94881084.1590

  24053235.688    24053241.676    24053240.813   126400737.4370   98494048.6310
  94390102.5670
  23575193.891    23575200.102    23575198.703   123888463.2800   96536517.6720
  92514142.6060
 22 12 25  1 23  0.0000000  0 10G01G03G08G10G14G17G21G22G27G32
  20318244.422    20318251.691    20318249.895   106773301.0970   83199880.3740
  79733192.6480
  21827673.883    21827680.598    21827681.160   114705159.8360   89380720.9370
  85656491.7040
  21452470.711    21452477.242    21452476.176   112733432.2760   87844359.7520
  84184149.2060
  25152118.930    25152125.148    25152123.016   132175368.2940  102993818.6770
  98702376.9600
  22622665.469    22622670.926    22622674.395   118882892.9200   92636049.7020
  88776195.4430
  24367333.398    24367337.473                   128051199.6650   99780165.4780

  20947666.188    20947669.512                   110080768.6810   85777272.0840

  23163057.938    23163062.574                   121722673.6830   94848872.3630

  24072746.578    24072753.410    24072753.535   126503275.1760   98573948.1600
  94466672.9350
  23577077.031    23577083.695    23577081.395   123898360.7000   96544229.9420
  92521533.5520
 22 12 25  1 23 30.0000000  0 10G01G03G08G10G14G17G21G22G27G32
  20313566.945    20313574.121    20313572.273   106748720.4900   83180726.6540
  79714836.9880
  21811265.797    21811272.492    21811273.082   114618934.7230   89313532.5400
  85592102.8270
  21465533.625    21465540.688    21465539.691   112802080.5610   87897851.9050
  84235412.5200
  25171554.719    25171561.293    25171559.406   132277507.2510  103073407.4370
  98778649.5430
  22618629.070    22618633.469    22618636.941   118861676.4230   92619517.3590
  88760351.9440
  24349430.805    24349436.188                   127957127.8270   99706862.6930

  20951683.203    20951686.508                   110101878.5250   85793721.3100

  23155271.633    23155276.313                   121681758.8610   94816990.6730

  24092287.727    24092293.523    24092293.004   126605957.1520   98653960.1110
  94543351.0620
  23579064.133    23579070.270    23579068.742   123908800.7990   96552365.0990
  92529329.7410
 22 12 25  1 24  0.0000000  0 10G01G03G08G10G14G17G21G22G27G32
  20308950.273    20308957.426    20308955.609   106724459.6190   83161822.0790
  79696720.1100
  21794928.867    21794935.805    21794936.441   114533084.3550   89246636.1580
  85527993.8100
  21478667.023    21478673.887    21478672.621   112871096.1020   87951630.2360
  84286950.0860
  25191000.617    25191006.969    25191005.617   132379695.9290  103153034.9980
  98854959.2640
  22614702.039    22614706.797    22614710.469   118841042.7130   92603439.1370
  88744943.6420
  24331535.656    24331540.566                   127863084.9530   99633582.5330

  20955735.070    20955738.508                   110123171.3200   85810313.0930

  23147566.828    23147572.031                   121641269.6190   94785440.6410

  24111854.258    24111860.738    24111860.453   126708781.9080   98734083.2920
  94620135.7790
  23581153.422    23581160.457    23581158.340   123919783.4740   96560923.0490
  92537531.1110
 22 12 25  1 24 30.0000000  0 10G01G03G08G10G14G17G21G22G27G32
  20304394.789    20304401.488    20304399.820   106700518.4780   83143166.6490
  79678841.9880
  21778664.016    21778670.602    21778671.246   114447610.4430   89180033.1250
  85464165.9080
  21491869.844    21491876.848    21491875.664   112940477.6980   88005693.7990
  84338761.0030
  25210455.797    25210462.121    25210460.516   132481932.0460  103232699.5250
  98931304.4630
  22610886.461    22610891.555    22610895.027   118820992.2800   92587815.4300
  88729970.9130
  24313645.820    24313650.848                   127769072.5540   99560326.0910

  20959821.695    20959825.137                   110144646.1590   85827046.7410

  23139943.641    23139948.176                   121601207.9500   94754223.7680

  24131447.719    24131454.129    24131454.527   126811748.0930   98814316.6670
  94697026.0870
  23583347.273    23583353.488    23583352.285   123931308.7160   96569903.7560
  92546137.6180
 22 12 25  1 25  0.0000000  0 10G01G03G08G10G14G17G21G22G27G32
  20299899.359    20299906.434    20299904.863   106676897.0840   83124760.3660
  79661202.6400
  21762470.469    21762477.484    21762478.141   114362514.6560   89113724.7330
  85400620.3730
  21505142.625    21505149.039    21505147.922   113010224.6620   88060042.0690
  84390844.7580
  25229919.766    25229925.898    25229923.816   132584213.8160  103312399.6150
  99007683.7060
  22607182.023    22607187.102    22607190.473   118801525.5340   92572646.5320
  88715434.0590
  24295761.875    24295767.059                   127675092.7640   99487095.0650

  20963943.227    20963946.156                   110166302.9740   85843922.1780

  23132401.930    23132406.578                   121561575.6470   94723341.4750

  24151067.813    24151074.316    24151075.727   126914854.1560   98894659.0490
  94774020.8690
  23585643.992    23585649.672    23585648.141   123943376.5310   96579307.2640
  92555149.3180
 22 12 25  1 25 30.0000000  0 10G01G03G08G10G14G17G21G22G27G32
  20295465.227    20295472.422    20295470.691   106653595.7080   83106603.4490
  79643802.2640
  21746350.008    21746356.367    21746357.230   114277798.9460   89047712.5060
  85337358.6640
  21518483.922    21518491.020    21518489.656   113080335.9590   88114674.2340
  84443200.5800
  25249391.086    25249397.863    25249395.508   132686539.6230  103392134.0130
  99084095.8220
  22603589.305    22603594.090    22603597.461   118782643.2610   92557933.0600
  88701333.6420
  24277884.078    24277889.793                   127581146.3620   99413890.0370

  20968098.227    20968101.863                   110188141.7040   85860939.3740

  23124942.172    23124946.449                   121522375.0450   94692795.5530

  24170714.352    24170722.457    24170721.129   127018099.0450   98975109.5950
  94851119.2930
  23588043.484    23588049.281    23588047.992   123955987.1280   96589133.7000
  92564566.3350
 22 12 25  1 26  0.0000000  0 10G01G03G08G10G14G17G21G22G27G32
  20291091.664    20291099.227    20291097.516   106630614.2020   83088695.7880
  79626640.7460
  21730301.336    21730308.293    21730308.797   114193464.8200   88981997.6280
  85274381.9100
  21531894.969    21531901.711    21531900.645   113150810.1950   88169589.2100
  84495827.4290
  25268871.055    25268877.656    25268875.332   132788907.4530  103471901.1500
  99160539.3260
  22600107.258    22600111.941    22600115.531   118764345.7210   92543675.2330
  88687669.8810
  24260013.828    24260018.836                   127487235.1080   99340712.4090

  20972288.953    20972292.117                   110210161.6190   85878097.7410

  23117564.602    23117569.824                   121483607.7300   94662587.2630

  24190388.617    24190393.992    24190392.160   127121481.0690   99055667.0280
  94928320.1890
  23590545.922    23590552.078    23590551.422   123969140.2400   96599382.8790
  92574388.4430
 22 12 25  1 26 30.0000000  0 10G01G03G08G10G14G17G21G22G27G32
  20286779.539    20286786.867    20286785.117   106607952.4400   83071037.2730
  79609718.0090
  21714326.102    21714332.738    21714333.441   114109513.9100   88916581.3600
  85211691.3230
  21545374.734    21545381.438    21545380.266   113221646.9130   88224786.6440
  84548724.9650
  25288359.859    25288365.195    25288363.285   132891315.1940  103551699.3950
  99237012.6460
  22596736.484    22596741.793    22596745.027   118746633.3000   92529873.3350
  88674443.0620
  24242150.367    24242155.586                   127393360.7690   99267563.5500

  20976513.313    20976516.688                   110232362.4000   85895397.0550

  23110270.297    23110275.105                   121445275.6380   94632718.0990

  24210086.641    24210092.770    24210092.723   127224998.8390   99136330.1810
  95005622.3860
  23593151.836    23593158.422    23593156.285   123982835.6270   96610054.6140
  92584615.5340
 22 12 25  1 27  0.0000000  0 10G01G03G08G10G14G17G21G22G27G32
  20282527.906    20282535.332    20282533.539   106585610.6350   83053628.0790
  79593034.2020
  21698424.273    21698430.563    21698431.426   114025948.0300   88851465.1050
  85149288.2500
  21558923.336    21558930.035    21558928.887   113292844.7670   88280265.4710
  84601892.1690
  25307853.961    25307860.035    25307857.996   132993761.2640  103631527.5000
  99313514.5810
  22593477.250    22593482.652    22593485.855   118729506.5440   92516527.8000
  88661653.5930
  24224293.234    24224299.113                   127299525.0420   99194444.7830

  20980772.617    20980775.730                   110254743.7210   85912837.0450

  23103059.867    23103064.188                   121407380.8280   94603189.6850

  24229811.734    24229819.078    24229817.527   127328650.9430   99217098.0700
  95083024.9240
  23595861.305    23595867.320    23595866.422   123997073.4130   96621148.9920
  92595247.6430
 22 12 25  1 27 30.0000000  0 10G01G03G08G10G14G17G21G22G27G32
  20278337.492    20278344.750    20278342.938   106563588.5910   83036468.0420
  79576589.1620
  21682595.500    21682602.387    21682602.895   113942768.6030   88786649.9870
  85087173.7670
  21572540.070    21572546.973    21572545.879   113364402.1770   88336024.4750
  84655327.8830
  25327355.383    25327361.789    25327359.801   133096243.3191  103711383.6251
  99390043.3500
  22590329.891    22590334.777    22590338.352   118712965.5720   92503638.7290
  88649301.5520
  24206445.508    24206450.582                   127205729.2340   99121357.1200

  20985065.648    20985069.004                   110277304.9630   85930417.2290

  23095931.969    23095936.605                   121369924.9410   94574003.2940

  24249560.656    24249567.094    24249565.949   127432435.7220   99297969.3320
  95160526.5390
  23598673.688    23598680.063    23598678.777   124011853.2050   96632665.7180
  92606284.4980
 22 12 25  1 28  0.0000000  0 10G01G03G08G10G14G17G21G22G27G32
  20274207.164    20274215.004    20274213.156   106541886.3780   83019557.2340
  79560382.9650
  21666841.031    21666847.406    21666848.266   113859977.3430   88722137.3440
  85025349.1580
  21586225.281    21586232.141    21586231.168   113436318.5230   88392063.1700
  84709031.6320
  25346864.266    25346870.406    25346868.078   133198759.9880  103791266.7260
  99466597.9930
  22587293.734    22587298.742    22587302.223   118697010.7870   92491206.4190
  88637387.2770
  24188604.898    24188609.496                   127111975.0360   99048301.8930

  20989393.750    20989396.531                   110300046.1740   85948137.6530

  23088888.648    23088893.113                   121332909.9490   94545160.4360

  24269335.648    24269341.258    24269340.422   127536351.9550   99378942.9980
  95238126.3240
  23601589.984    23601595.789    23601594.207   124027174.9030   96644604.7040
  92617726.0420
 22 12 25  1 28 30.0000000  0 10G01G03G08G10G14G17G21G22G27G32
  20270138.680    20270146.145    20270144.332   106520504.2580   83002895.8390
  79544415.8040
  21651160.453    21651167.082    21651167.836   113777576.1290   88657928.6240
  84963815.8110
  21599978.984    21599985.684    21599984.582   113508593.0850   88448380.9980
  84763002.8830
  25366377.977    25366384.820    25366382.727   133301309.2930  103871175.2480
  99543177.0030
  22584369.328    22584374.410    22584377.801   118681642.8660   92479231.4120
  88625911.2190
  24170771.203    24170777.047                   127018264.0630   98975280.2990

  20993754.953    20993758.336                   110322967.0630   85965998.0860

  23081928.313    23081933.723                   121296337.8120   94516662.6890

  24289136.063    24289142.293    24289141.090   127640398.2890   99460018.1150
  95315823.2920
  23604608.539    23604614.195    23604613.504   124043038.6040   96656966.0340
  92629572.3100
 22 12 25  1 29  0.0000000  0 10G01G03G08G10G14G17G21G22G27G32
  20266130.977    20266138.086    20266136.277   106499441.8680   82986483.5820
  79528687.3970
  21635554.563    21635561.121    21635561.906   113695566.2610   88594024.8470
  84902574.6850
  21613800.133    21613806.754    21613805.941   113581224.1170   88504976.5990
  84817240.3230
  25385898.078    25385905.094    25385902.996   133403889.1730  103951107.6200
  99619778.8610
  22581556.313    22581561.688    22581565.191   118666861.6850   92467713.6110
  88614873.3180
  24152948.523    24152952.746                   126924597.8570   98902293.6460

  20998150.703    20998154.121                   110346066.8450   85983997.9180

  23075053.898    23075059.066                   121260209.9240   94488511.1070

  24308957.844    24308965.141    24308965.074   127744573.1180   99541193.2630
  95393616.1570
  23607730.359    23607736.586    23607734.398   124059443.7230   96669749.2510
  92641822.8990
 22 12 25  1 29 30.0000000  0 10G01G03G08G10G14G17G21G22G27G32
  20262183.477    20262190.848    20262189.020   106478699.5180   82970320.7140
  79513197.9840
  21620023.297    21620030.066    21620030.836   113613949.5980   88530427.4700
  84841627.2100
  21627688.977    21627695.832    21627694.773   113654210.9120   88561849.4120
  84871743.4370
  25405423.188    25405430.715    25405428.516   133506498.0190  104031062.5740
  99696402.3830
  22578856.219    22578860.664    22578864.016   118652667.8100   92456653.4420
  88604273.9880
  24135132.961    24135137.375                   126830978.3090   98829343.3350

  21002580.563    21002583.797                   110369345.4470   86002137.0860

  23068264.430    23068268.598                   121224528.6800   94460707.5530

  24328807.469    24328812.184    24328811.430   127848875.1340   99622467.5560
  95471504.0350
  23610954.859    23610961.012    23610960.402   124076390.3170   96682954.3820
  92654477.8030
 22 12 25  1 30  0.0000000  0 10G01G03G08G10G14G17G21G22G27G32
  20258297.336    20258304.586    20258302.660   106458276.9080   82954407.0010
  79497947.3440
  21604567.570    21604573.828    21604574.777   113532727.4120   88467137.4770
  84780974.3000
  21641645.211    21641652.066    21641651.207   113727551.7970   88618998.1400
  84926510.9660
  25424955.563    25424961.801    25424959.441   133609133.8190  104111038.5310
  99773046.0060
  22576267.008    22576271.320    22576274.867   118639061.1220   92446050.8280
  88594113.1530
  24117326.547    24117331.238                   126737406.5760   98756430.2460

  21007044.297    21007047.723                   110392802.2300   86020415.0970

  23061559.133    23061564.113                   121189295.5160   94433253.1430

  24348678.219    24348684.496    24348684.938   127953302.5200   99703839.5870
  95549485.5320
  23614282.625    23614289.063    23614287.914   124093877.7600   96696580.9750
  92667536.6140
 22 12 25  1 30 30.0000000  0 10G01G03G08G10G14G17G21G22G27G32
  20254471.992    20254479.148    20254477.309   106438174.2490   82938742.5850
  79482935.6210
  21589186.719    21589193.297    21589194.086   113451901.5450   88404156.2950
  84720617.3330
  21655669.117    21655675.539    21655674.695   113801246.4320   88676422.5210
  84981542.6580
  25444491.188    25444497.660    25444495.250   133711795.0440  104191034.3030
  99849708.6170
  22573789.508    22573793.961    22573797.391   118626042.1810   92435906.1810
  88584391.2000
  24099530.102    24099534.629                   126643884.8250   98683556.1560

  21011541.914    21011545.160                   110416437.0290   86038831.8210

  23054940.297    23054945.426                   121154511.9180   94406149.0650

  24368572.867    24368581.039    24368580.348   128057854.1570   99785308.3530
  95627559.7380
  23617713.055    23617719.609    23617718.219   124111906.1170   96710629.0420
  92680999.3350
 22 12 25  1 31  0.0000000  0 10G01G03G08G10G14G17G21G22G27G32
  20250707.406    20250714.723    20250712.867   106418392.0860   82923327.9160
  79468163.2170
  21573882.156    21573888.430    21573889.152   113371474.0660   88341485.5390
  84660557.8680
  21669759.898    21669766.672    21669765.504   113875293.8560   88734121.7940
  85036837.7910
  25464031.422    25464037.449    25464035.758   133814480.3070  104271048.8180
  99926389.1810
  22571424.023    22571428.660    22571431.902   118613611.5970   92426219.9970
  88575108.6050
  24081743.680    24081748.125                   126550415.0440   98610722.5500

  21016073.016    21016076.645                   110440250.1660   86057387.5100

  23048406.758    23048411.844                   121120180.6690   94379397.4480

  24388492.695    24388499.656    24388498.863   128162528.9810   99866873.1440
  95705726.0200
  23621247.375    23621253.238    23621252.324   124130475.4960   96725098.6830
  92694866.0920
 22 12 25  1 31 30.0000000  0 10G01G03G08G10G14G17G21G22G27G32
  20247003.859    20247011.059    20247009.391   106398929.6500   82908162.3830
  79453629.5830
  21558652.648    21558659.629    21558660.258   113291445.7560   88279125.8310
  84600796.4980
  21683917.195    21683923.914    21683923.105   113949691.7910   88792094.2010
  85092394.6770
  25483576.281    25483582.215    25483580.453   133917187.0781  104351080.0591
 100003085.7850
  22569170.289    22569174.711    22569178.449   118601768.8470   92416991.8760
  88566264.9780
  24063966.289    24063970.918                   126456998.1130   98537930.1130

  21020638.398    21020641.855                   110464240.6430   86076081.3880

  23041960.547    23041964.855                   121086302.5210   94352998.8960

  24408433.242    24408441.063    24408440.777   128267324.8380   99948532.2690
  95783982.7050
  23624883.859    23624889.688    23624888.707   124149584.8220   96739989.0630
  92709136.0490
 22 12 25  1 32  0.0000000  0 10G01G03G08G10G14G17G21G22G27G32
  20243361.219    20243368.438    20243366.645   106379786.9560   82893246.0000
  79439334.7200
  21543500.398    21543506.895    21543507.570   113211818.2230   88217078.4200
  84541334.3960
  21698141.430    21698147.930    21698146.969   114024439.5530   88850339.1920
  85148212.7870
  25503124.031    25503130.133    25503128.793   134019913.4330  104431126.5460
 100079797.0170
  22567028.898    22567032.863    22567036.613   118590514.0390   92408221.8790
  88557860.4130
  24046200.789    24046205.000                   126363635.6160   98465180.1190

  21025237.258    21025240.680                   110488407.7950   86094912.9330

  23035600.453    23035604.535                   121052879.0950   94326954.6850

  24428399.836    24428406.727    24428405.484   128372240.3410  100030284.6010
  95862328.6620
  23628622.516    23628628.359    23628627.723   124169233.8450   96755299.9910
  92723809.0260
 22 12 25  1 32 30.0000000  0 10G01G03G08G10G14G17G21G22G27G32
  20239778.969    20239786.539    20239784.762   106360964.0970   82878578.8330
  79425278.6900
  21528424.367    21528430.676    21528431.551   113132593.0780   88155344.5670
  84482172.7990
  21712431.656    21712438.453    21712437.449   114099535.7280   88908855.6790
  85204291.0790
  25522675.305    25522681.922    25522680.781   134122657.9210  104511187.2120
 100156521.8180
  22564999.211    22565002.969    22565006.859   118579847.4260   92399910.2270
  88549895.0630
  24028445.250    24028449.098                   126270329.2330   98392473.8380

  21029869.922    21029873.078                   110512751.5960   86113882.1290

  23029326.859    23029330.934                   121019912.3670   94301266.3230

  24448387.344    24448393.207    24448392.988   128477273.9801  100112128.9801
  95940762.8670
  23632464.703    23632470.313    23632469.039   124189422.2200   96771031.2020
  92738884.7580
 22 12 25  1 33  0.0000000  0 10G01G03G08G10G14G17G21G22G27G32
  20236258.211    20236265.586    20236263.734   106342461.0570   82864160.8880
  79411461.4870
  21513424.891    21513431.621    21513432.371   113053771.7790   88093925.3950
  84423312.7580
  21726787.930    21726794.688    21726793.699   114174979.2780   88967642.8490
  85260628.7780
  25542229.813    25542236.758    25542234.906
 100233258.6510
  22563081.195    22563084.977    22563089.113   118569769.0940   92392056.9670
  88542369.0280
  24010701.320    24010704.707                   126177080.7520   98319812.6850

  21034535.750    21034539.219                   110537271.7130   86132988.7140

  23023140.578    23023145.074                   120987404.1630   94275935.2790

  24468395.188    24468402.578    24468401.609   128582424.2690  100194064.2340
  96019284.1480
  23636408.992    23636414.695    23636412.957   124210149.5130   96787182.3510
  92754362.9360
 22 12 25  1 33 30.0000000  0 10G01G03G08G10G14G17G21G22G27G32
  20232798.008    20232805.555    20232803.695   106324278.0750   82849992.3280
  79397883.2790
  21498503.039    21498509.441    21498510.363   112975356.0720   88032822.2580
  84364755.5920
  21741210.352    21741216.988    21741216.188   114250769.2490   89026699.9500
  85317225.1760
  25561787.141    25561794.207    25561792.188   134328194.1401  104671345.2651
 100310006.6070
  22561275.313    22561279.078    22561283.266   118560279.3160   92384662.3350
  88535282.5040
  23992967.031    23992971.453                   126083892.0760   98247198.1310

  21039235.328    21039238.543                   110561968.1330   86152232.6770

  23017042.313    23017046.156                   120955356.1070   94250962.7800

  24488428.055    24488433.543    24488433.426   128687689.9430  100276089.4720
  96097891.6850
  23640455.461    23640461.594    23640460.383   124231415.5890   96803753.3090
  92770243.4360
 22 12 25  1 34  0.0000000  0 10G01G03G08G10G14G17G21G22G27G32
  20229399.297    20229406.301    20229404.441   106306414.9740   82836073.0360
  79384543.9620
  21483658.438    21483665.070    21483665.754   112897347.3130   87972036.2160
  84306502.3100
  21755698.641    21755705.262    21755704.301   114326904.9490   89086026.4590
  85374079.7340
  25581347.914    25581354.320    25581352.207   134430982.5431  104751440.1511
 100386764.2350
  22559581.758    22559585.355    22559589.617   118551377.9450   92377726.1910
  88528635.3660
  23975245.500    23975249.969                   125990764.7590   98174631.3840

  21043968.102    21043971.570                   110586840.0590   86171613.4010

  23011030.852    23011035.641                   120923769.6940   94226349.9860

  24508480.758    24508487.547    24508486.266   128793069.5070  100358203.3980
  96176584.1930
  23644604.484    23644610.586    23644609.512   124253219.8420   96820743.6370
  92786525.8350
 22 12 25  1 34 30.0000000  0 10G01G03G08G10G14G17G21G22G27G32
  20226061.000    20226067.824    20226066.023   106288871.8800   82822403.0900
  79371443.5980
  21468891.297    21468898.188    21468898.746   112819747.0820   87911568.5230
  84248554.1060
  21770251.875    21770258.688    21770258.020   114403384.1150   89145620.5990
  85431190.7890
  25600909.688    25600916.957    25600914.781   134533782.3081  104831543.8151
 100463530.1930
  22557999.477    22558003.340    22558007.770   118543065.1110   92371248.6480
  88522427.7200
  23957536.461    23957540.195                   125897700.6480   98102113.8990

  21048734.984    21048738.031                   110611887.8590   86191131.1580

  23005108.688    23005113.465                   120892646.7990   94202098.4180

  24528555.523    24528561.539    24528561.113   128898561.4400  100440404.9130
  96255360.6220
  23648856.273    23648862.273    23648861.125   124275561.8990   96838153.0330
  92803209.8370
 22 12 25  1 35  0.0000000  0 10G01G03G08G10G14G17G21G22G27G32
  20222783.063    20222790.379    20222788.465   106271648.4400   82808982.2200
  79358581.9330
  21454202.938    21454209.285    21454209.836   112742556.5300   87851420.0520
  84190911.8280
  21784870.680    21784877.281    21784876.500   114480205.2880   89205481.2390
  85488557.2340
  25620472.742    25620480.895    25620478.457   134636591.4551  104911654.8431
 100540303.3240
  22556529.625    22556533.551    22556537.859   118535340.5160   92365229.4560
  88516659.3350
  23939839.227    23939843.066                   125804701.3810   98029646.9330

  21053534.383    21053537.863                   110637110.6820   86210785.3020

  22999275.250    22999279.344                   120861988.6370   94178208.9410

  24548651.016    24548656.875    24548656.211   129004163.9160  100522692.5640
  96334219.6320
  23653209.680    23653215.949    23653214.906   124298440.9440   96855980.8680
  92820294.8590
 22 12 25  1 35 30.0000000  0 10G01G03G08G10G14G17G21G22G27G32
  20219566.281    20219573.809    20219571.793   106254744.9880   82795810.7020
  79345959.2270
  21439591.984    21439598.645    21439599.211   112665777.4540   87791592.2130
  84133576.8210
  21799554.508    21799560.926    21799560.148   114557368.0490   89265608.0540
  85546178.7600
  25640036.945    25640046.063    25640043.910   134739408.6421  104991772.1451
 100617082.4090
  22555171.625    22555175.594    22555179.957   118528204.4760   92359668.9010
  88511330.4620
  23922154.789    23922158.434                   125711768.3290   97957231.5690

  21058367.578    21058370.832                   110662508.3420   86230575.6820

  22993530.219    22993533.840                   120831797.0900   94154683.0590

  24568766.734    24568773.246    24568772.969   129109875.9620  100605065.5780
  96413160.4510
  23657666.086    23657671.699    23657670.629   124321856.8810   96874227.0480
  92837780.7740
 22 12 25  1 36  0.0000000  0 10G01G03G08G10G14G17G21G22G27G32
  20216410.555    20216418.043    20216416.121   106238161.4760   82782888.4820
  79333575.4400
  21425060.172    21425066.781    21425067.234   112589411.3430   87732086.1650
  84076550.2100
  21814302.508    21814309.293    21814308.465   114634871.1690   89326000.0820
  85604054.4460
  25659606.977    25659612.043    25659610.715   134842236.4291  105071824.5351
 100693866.3150
  22553925.492    22553929.406    22553933.887   118521656.8050   92354566.8010
  88506440.9650
  23904483.219    23904487.000                   125618903.9440   97884869.7120

  21063233.813    21063237.281                   110688080.7580   86250502.2450

  22987873.297    22987877.770                   120802073.8130   94131522.0790

  24588904.664    24588909.906    24588910.695   129215695.7420  100687522.5290
  96492181.6700
  23662223.352    23662229.449    23662228.289   124345808.9990   96892891.0510
  92855667.1250
 22 12 25  1 36 30.0000000  0  9G01G03G08G14G17G21G22G27G32
  20213315.570    20213322.973    20213321.227   106221897.6590   82770215.3750
  79321430.3670
  21410606.586    21410613.477    21410613.996   112513459.1650   87672902.6800
  84019832.7010
  21829115.414    21829122.133    21829121.434   114712713.1770   89386656.1750
  85662183.2060
  22552791.883    22552795.813    22552799.980   118515697.2020   92349922.9410
  88501990.5870
  23886824.719    23886828.711                   125526109.1330   97812562.0630

  21068133.164    21068136.504                   110713826.7860   86270564.0770

  22982306.727    22982311.375                   120772819.9450   94108726.8610

  24609062.117    24609066.945    24609067.414   129321621.6190  100770062.1900
  96571282.1880
  23666883.781    23666889.559    23666888.223   124370296.6330   96911972.3310
  92873953.3240
 22 12 25  1 37  0.0000000  0  9G01G03G08G14G17G21G22G27G32
  20210281.422    20210288.961    20210287.285   106205954.0880   82757791.8140
  79309524.4620
  21396232.781    21396239.395    21396239.996   112437922.9950   87614043.3430
  83963425.8400
  21843992.523    21843999.297    21843998.438   114790893.1860   89447575.6580
  85720564.3650
  22551769.242    22551773.684    22551777.879   118510326.1290   92345737.6740
  88497979.7050
  23869179.555    23869184.039                   125433386.1550   97740310.3990

  21073065.398    21073068.930                   110739747.3060   86290761.8850

  22976829.133    22976833.613                   120744037.6050   94086299.0690

  24629238.523    24629244.516    24629243.973   129427652.7270  100852683.8520
  96650461.2650
  23671645.453    23671651.512    23671649.664   124395319.7160   96931470.8340
  92892639.4160
 22 12 25  1 37 30.0000000  0  9G01G03G08G14G17G21G22G27G32
  20207308.672    20207315.902    20207314.281   106190330.6390   82745617.7040
  79297857.6090
  21381937.867    21381944.742    21381945.344   112362804.1050   87555509.1640
  83907330.5800
  21858933.508    21858940.504    21858939.672   114869409.5430   89508757.2190
  85779196.7060
  22550859.133    22550863.641    22550867.699   118505543.2740   92342010.7670
  88494408.1010
  23851549.305    23851553.301                   125340736.8020   97668116.0780

  21078031.344    21078034.625                   110765842.2120   86311095.5750

  22971442.242    22971446.582                   120715727.8830   94064239.5730

  24649435.063    24649441.480    24649441.063   129533787.3290  100935386.1090
  96729717.5980
  23676509.500    23676514.973    23676513.461   124420877.5220   96951386.0010
  92911724.7930
 22 12 25  1 38  0.0000000  0  9G01G03G08G14G17G21G22G27G32
  20204396.438    20204403.668    20204402.102   106175026.9520   82733692.7440
  79286429.5330
  21367722.867    21367729.777    21367730.316   112288103.5770   87497300.9880
  83851547.7570
  21873938.492    21873945.578    21873944.539   114948260.8530   89570199.7850
  85838079.1610
  22550060.844    22550065.211    22550069.438   118501348.2370   92338741.8980
  88491275.4220
  23833933.273    23833936.734                   125248162.5430   97595980.2840

  21083030.086    21083033.531                   110792110.0080   86331563.9820

  22966145.211    22966149.938                   120687892.2310   94042549.4600

  24669651.773    24669657.629    24669656.938   129640023.6100  101018167.6330
  96809049.8940
  23681473.953    23681479.773    23681478.547   124446969.0980   96971717.1030
  92931208.7460
 22 12 25  1 38 30.0000000  0  9G01G03G08G14G17G21G22G27G32
  20201545.141    20201552.277    20201550.773   106160042.9560   82722016.8980
  79275240.1840
  21353587.398    21353594.547    21353594.996   112213822.6530   87439419.7550
  83796078.2380
  21889007.031    21889013.746    21889012.887   115027445.4540   89631902.0600
  85897210.5010
  22549374.180    22549378.703    22549382.984   118497740.7120   92335930.8300
  88488581.4660
  23816331.172    23816335.008                   125155665.0330   97523904.3030

  21088061.828    21088064.695                   110818550.9710   86352167.3300

  22960938.805    22960943.438                   120660532.4780   94021230.1550

  24689884.516    24689891.906    24689891.625   129746360.0550  101101027.2120
  96888456.9540
  23686540.219    23686546.523    23686545.035   124473593.7180   96992463.5760
  92951090.7880
 22 12 25  1 39  0.0000000  0  9G01G03G08G14G17G21G22G27G32
  20198754.453    20198761.957    20198760.305   106145379.1760   82710590.5730
  79264289.9460
  21339532.508    21339539.551    21339540.090   112139963.2200   87381866.9590
  83740923.4760
  21904138.547    21904145.609    21904144.465   115106962.9840   89693863.7550
  85956590.4500
  22548799.922    22548804.230    22548808.160   118494720.9280   92333577.7450
  88486326.4320
  23798744.680    23798748.582                   125063246.3400   97451889.7170

  21093126.266    21093129.180                   110845164.9640   86372905.4970

  22955822.984    22955827.445                   120633650.1550   94000282.8950

  24710140.453    24710146.574    24710145.648   129852795.4750  101183963.9090
  96967938.0110
  23691707.836    23691714.035    23691712.781   124500751.2740   97013625.3130
  92971370.7950
 22 12 25  1 39 30.0000000  0  9G01G03G08G14G17G21G22G27G32
  20196024.711    20196032.344    20196030.684   106131035.2100   82699413.4560
  79253578.5390
  21325558.148    21325564.969    21325565.508   112066526.3520   87324643.4430
  83686084.2690
  21919333.516    21919340.262    21919339.289   115186811.8850   89756083.6640
  86016217.8610
  22548336.703    22548341.469    22548345.203   118492288.3690   92331682.2290
  88484509.8810
  23781173.578    23781177.109                   124970908.4430   97379938.1070

  21098223.422    21098226.586                   110871951.9040   86393778.4300

  22950798.547    22950803.480                   120607246.3030   93979708.4880

  24730413.164    24730419.031    24730417.980   129959328.1350  101266976.3530
  97047491.5680
  23696977.922    23696983.770    23696982.543   124528440.8010   97035201.5620
  92992048.0200
 22 12 25  1 40  0.0000000  0  9G01G03G08G14G17G21G22G27G32
  20193356.297    20193363.746    20193361.965   106117011.1590   82688485.6160
  79243106.0240
  21311664.602    21311671.008    21311671.602   111993513.3660   87267750.2360
  83631561.6260
  21934590.891    21934597.621    21934596.934   115266990.6090   89818560.5780
  86076091.5740
  22547985.594    22547990.410    22547993.895   118490442.7960   92330244.1040
  88483131.6770
  23763617.688    23763621.762                   124878652.8710   97308050.6230

  21103353.953    21103356.906                   110898911.5140   86414785.9170

  22945865.141    22945869.930                   120581322.2400   93959507.9160

  24750702.672    24750708.043    24750708.586   130065956.5770  101350063.4460
  97127116.7580
  23702347.500    23702353.301    23702352.480   124556661.5110   97057191.7240
  93013121.9390
 22 12 25  1 40 30.0000000  0  9G01G03G08G14G17G21G22G27G32
  20190748.570    20190755.957    20190754.191   106103306.8880   82677806.9630
  79232872.3210
  21297851.102    21297857.906    21297858.559   111920925.5410   87211188.3070
  83577356.4540
  21949911.047    21949917.660    21949916.738   115347497.8170   89881293.4520
  86136210.5710
  22547745.609    22547750.676    22547754.203   118489183.8040   92329263.0720
  88482191.5060
  23746077.891    23746081.898                   124786481.3460   97236228.6550

  21108516.648    21108519.785                   110926042.9590   86435927.3000

  22941023.828    22941028.574                   120555879.5790   93939682.4870

  24771012.117    24771018.078    24771018.637   130172679.0710  101433223.8780
  97206812.1170
  23707818.469    23707824.574    23707823.594   124585412.6680   97079595.2260
  93034591.9600
 22 12 25  1 41  0.0000000  0  9G01G03G08G14G17G21G22G27G32
  20188201.539    20188208.992    20188207.152   106089922.4480   82667377.5220
  79222877.4390
  21284119.070    21284126.133    21284126.754   111848764.2100   87154958.7240
  83523469.7720
  21965293.266    21965299.918    21965299.129   115428332.1550   89944281.2370
  86196573.8610
  22547618.375    22547622.836    22547626.285   118488511.1530   92328738.9190
  88481689.2070
  23728554.727    23728558.648                   124694395.7510   97164473.6430

  21113712.469    21113715.402                   110953346.1670   86457202.5230

  22936274.391    22936278.691                   120530919.7850   93920233.2960

  24791338.383    24791344.965    24791343.086   130279494.2420  101516456.4440
  97286576.7160
  23713390.734    23713396.102    23713395.605   124614693.5760   97102411.5170
  93056457.5510
 22 12 25  1 41 30.0000000  0  9G01G03G08G14G17G21G22G27G32
  20185715.313    20185722.875    20185721.035   106076857.8950   82657197.3500
  79213121.4370
  21270469.398    21270475.602    21270476.355   111777030.7190   87099062.5150
  83469902.5830
  21980737.234    21980744.371    21980743.457   115509491.9390   90007522.6110
  86257180.1820
  22547601.180    22547606.527    22547609.770   118488424.5500   92328671.4370
  88481624.5260
  23711048.563    23711051.715                   124602397.5370   97092786.7090

  21118940.422    21118943.879                   110980821.4210   86478611.8140

  22931616.539    22931621.184                   120506444.2890   93901161.4920

  24811681.555    24811688.531    24811687.656   130386400.5880  101599760.1040
  97366409.3360
  23719063.656    23719069.008    23719068.543   124644503.4820   97125640.0210
  93078718.2130
 22 12 25  1 42  0.0000000  0  9G01G03G08G14G17G21G22G27G32
  20183290.289    20183297.660    20183295.836   106064113.3190   82647266.5050
  79203604.3880
  21256899.930    21256906.973    21256907.598   111705726.4970   87043500.8060
  83416655.9490
  21996243.711    21996250.266    21996249.465   115590976.7890   90071017.2920
  86318029.2530
  22547696.516    22547701.242    22547704.719   118488923.7450   92329060.4050
  88481997.2890
  23693558.875    23693562.188                   124510488.9330   97021169.6150

  21124201.875    21124204.992                   111008468.1930   86500154.7480

  22927051.422    22927056.293                   120482454.4000   93882468.0910

  24832042.352    24832049.035    24832048.500   130493396.6691  101683133.6341
  97446308.9870
  23724836.883    23724843.074    23724841.457   124674841.7440   97149280.2290
  93101373.4070
 22 12 25  1 42 30.0000000  0  9G01G03G08G14G17G21G22G27G32
  20180926.266    20180933.258    20180931.555   106051688.6840   82637584.9750
  79194326.2530
  21243413.117    21243420.113    21243420.781   111634852.7230   86988274.5050
  83363730.7500
  22011810.641    22011817.816    22011817.184   115672784.7010   90134763.7010
  86379119.5540
  22547903.711    22547907.477    22547911.195   118490008.2690   92329905.4800
  88482807.1490
  23676086.539    23676090.051                   124418671.6140   96949623.6520

  21129495.391    21129498.535                   111036286.4660   86521831.3180

  22922579.141    22922583.945                   120458951.5080   93864154.1470

  24852419.203    24852426.434    24852425.500   130600480.8040  101766575.8640
  97526274.3680
  23730709.969    23730716.375    23730714.707   124705707.5250   97173331.4930
  93124422.5290
 22 12 25  1 43  0.0000000  0  9G01G03G08G14G17G21G22G27G32
  20178622.695    20178629.777    20178628.121   106039583.8610   82628152.6450
  79185286.9370
  21230008.523    21230015.379    21230015.879   111564410.5200   86933384.5000
  83311127.8390
  22027439.508    22027446.570    22027445.984   115754914.3360   90198760.7980
  86440450.1020
  22548221.102    22548225.250    22548228.762   118491677.6290   92331206.2840
  88484053.7400
  23658631.805    23658635.629                   124326947.4580   96878150.2860

  21134821.297    21134824.715                   111064275.7330   86543641.1330

  22918199.977    22918204.004                   120435936.4790   93846220.3810

  24872813.750    24872820.895    24872819.055   130707651.4440  101850085.4360
  97606304.4870
  23736684.414    23736690.227    23736689.180   124737099.8570   97197793.0490
  93147864.8640
 22 12 25  1 43 30.0000000  0  9G01G03G08G14G17G21G22G27G32
  20176380.156    20176387.016    20176385.434   106027798.8960   82618969.5530
  79176486.4720
  21216686.234    21216692.867    21216693.477   111494401.2170   86878831.8150
  83258848.1890
  22043129.078    22043136.164    22043135.355   115837363.9430   90263007.2300
  86502019.5990
  22548649.742    22548654.344    22548657.641   118493931.3970   92332962.4490
  88485736.7400
  23641195.383    23641199.023                   124235318.2860   96806750.9370

  21140180.047    21140183.250                   111092435.9440   86565584.1520

  22913913.086    22913917.766                   120413410.7530   93828667.8690

  24893224.023    24893231.156    24893229.762   130814907.1250  101933661.2460
  97686397.9600
  23742757.984    23742763.980    23742762.727   124769017.9470   97222664.2870
  93171699.7840
 22 12 25  1 44  0.0000000  0  9G01G03G08G14G17G21G22G27G32
  20174198.188    20174205.289    20174203.750   106016333.6770   82610035.6120
  79167924.7740
  21203446.367    21203453.109    21203453.691   111424825.9820   86824617.3620
  83206892.6810
  22058879.586    22058886.852    22058885.887   115920132.7830   90327502.4190
  86563827.4810
  22549189.945    22549194.023    22549197.660   118496769.0360   92335173.5810
  88487855.7430
  23623776.555    23623781.168                   124143785.8960   96735426.9870

  21145571.094    21145574.598                   111120766.2640   86587659.7290

  22909720.133    22909725.063                   120391375.9110   93811497.8790

  24913649.719    24913656.141    24913654.828   130922246.1350  102017302.0500
  97766553.6910
  23748931.000    23748937.332    23748936.383   124801460.8990   97247944.5030
  93195926.6510
 22 12 25  1 44 30.0000000  0  9G01G03G08G14G17G21G22G27G32
  20172076.984    20172084.484    20172082.953   106005188.4610   82601351.0280
  79159602.0540
  21190289.195    21190296.254    21190296.777   111355686.2270   86770742.2460
  83155262.3770
  22074690.563    22074697.477    22074696.324   116003219.0090   90392244.9160
  86625872.3690
  22549840.961    22549845.207    22549848.844   118500190.2970   92337839.4910
  88490410.5580
  23606378.211    23606381.633                   124052352.1430   96664179.9220

  21150994.906    21150998.016                   111149267.3950   86609868.3950

  22905620.719    22905625.164                   120369832.9740   93794711.1880

  24934091.047    24934098.469    24934096.223   131029667.2570  102101006.8240
  97846770.7620
  23755204.766    23755210.484    23755209.676   124834428.0080   97273633.1510
  93220544.9590
 22 12 25  1 45  0.0000000  0  9G01G03G08G14G17G21G22G27G32
  20170016.875    20170024.637    20170022.918   105994363.1490   82592915.7120
  79151518.2080
  21177215.766    21177222.488    21177223.180   111286983.0730   86717207.3450
  83103958.0900
  22090561.688    22090568.578    22090567.547   116086621.6360   90457233.9610
  86688153.5460
  22550603.063    22550607.199    22550610.965   118504194.5370   92340959.6660
  88493400.7150
  23588997.695    23589001.883                   123961019.1570   96593011.3440

  21156450.750    21156454.078                   111177939.0390   86632209.9280

  22901615.469    22901619.328                   120348783.1450   93778308.7380

  24954548.078    24954554.969    24954553.848   131137168.7570  102184774.1850
  97927047.8430
  23761578.172    23761583.582    23761582.488   124867918.3280   97299729.5190
  93245553.9690
 22 12 25  1 45 30.0000000  0  9G01G03G08G14G17G21G22G27G32
  20168018.219    20168025.480    20168023.832   105983857.4510   82584729.4540
  79143673.0360
  21164225.305    21164231.938    21164232.734   111218717.4190   86664013.3630
  83052980.5360
  22106492.539    22106499.535    22106498.324   116170338.7150   90522468.0380
  86750669.5210
  22551475.469    22551480.156    22551483.750   118508780.9410   92344533.4790
  88496825.6160
  23571637.781    23571641.043                   123869788.5580   96521922.5600

  21161938.930    21161942.395                   111206780.0930   86654683.4780

  22897703.344    22897708.348                   120328227.8640   93762291.6350

  24975020.891    24975026.773    24975025.672   131244748.8180  102268602.7950
  98007383.5700
  23768050.344    23768055.949    23768054.914   124901930.5500   97326232.5500
  93270952.7160
 22 12 25  1 46  0.0000000  0  9G01G03G08G14G17G21G22G27G32
  20166080.172    20166087.230    20166085.555   105973671.6880   82576792.4920
  79136066.7940
  21151318.133    21151325.031    21151325.758   111150890.8270   86611161.4970
  83002330.8410
  22122483.047    22122490.070    22122488.766   116254369.1130   90587946.2590
  86813419.5050
  22552458.797    22552463.734    22552467.289   118513949.3030   92348560.7570
  88500685.0990
  23554296.242    23554300.625                   123778662.2560   96450915.0690

  21167460.125    21167463.148                   111235791.2590   86677289.5750

  22893886.281    22893890.570                   120308168.1850   93746660.7190

  24995506.445    24995513.594    24995512.258   131352406.2200  102352491.6930
  98087777.1370
  23774621.445    23774627.820    23774626.789   124936464.1820   97353141.8650
  93296740.8050
 22 12 25  1 46 30.0000000  0  9G01G03G08G14G17G21G22G27G32
  20164202.469    20164209.848    20164208.047   105963805.9210   82569104.8800
  79128699.5110
  21138494.789    21138501.715    21138502.563   111083504.4160   86558652.6270
  82952009.8490
  22138532.844    22138539.703    22138538.652   116338711.8350   90653667.8420
  86876402.6700
  22553553.547    22553557.750    22553561.328   118519699.0860   92353041.0960
  88504978.7460
  23536975.438    23536980.105                   123687642.1030   96379990.2770

  21173012.734    21173016.020                   111264972.3940   86700028.1200

  22890163.695    22890167.926                   120288605.3360   93731416.9570

  25016007.398    25016014.281    25016012.879   131460139.6100  102436439.7440
  98168227.3510
  23781292.227    23781298.535    23781296.941   124971518.1990   97380456.6970
  93322917.4930
 22 12 25  1 47  0.0000000  0  9G01G03G08G14G17G21G22G27G32
  20162385.898    20162393.336    20162391.535   105954259.9690   82561666.4770
  79121571.0400
  21125755.969    21125762.559    21125763.176   111016559.2260   86506487.5740
  82902018.3430
  22154641.758    22154648.539    22154647.645   116423364.6280   90719631.0460
  86939617.3960
  22554757.961    22554762.422    22554765.879   118526029.4750   92357973.8460
  88509705.9680
  23519675.453    23519680.324                   123596729.9910   96309149.6830

  21178598.172    21178601.207                   111294323.1040   86722898.7970

  22886535.648    22886540.020                   120269540.3200   93716561.1000

  25036522.516    25036528.867    25036528.172   131567947.1050  102520445.6070
  98248732.9480
  23788061.852    23788068.160    23788066.305   125007091.5490   97408176.1750
  93349482.0090
 22 12 25  1 47 30.0000000  0  9G01G03G08G14G17G21G22G27G32
  20160630.258    20160637.578    20160635.781   105945033.7950   82554477.2520
  79114681.3630
  21113100.734    21113107.422    21113108.031   110950056.2700   86454667.1050
  82852357.0790
  22170809.602    22170816.340    22170815.457   116508326.2900   90785834.9270
  87003062.7740
  22556073.063    22556077.410    22556080.809   118532939.7380   92363358.4600
  88514866.2100
  23502396.625    23502401.020                   123505927.8320   96238394.7700

  21184215.453    21184218.668                   111323843.1740   86745901.4560

  22883002.836    22883007.168                   120250974.2070   93702094.0100

  25057051.313    25057058.223    25057057.043   131675827.0830  102604507.9630
  98329292.6680
  23794929.258    23794936.031    23794934.418   125043183.0690   97436299.4320
  93376433.4730
 22 12 25  1 48  0.0000000  0  9G01G03G08G14G17G21G22G27G32
  20158935.375    20158942.781    20158940.953   105936127.3720   82547537.1820
  79108030.4550
  21100529.867    21100536.719    21100537.258   110883996.7340   86403192.1560
  82803026.9120
  22187036.094    22187042.445    22187041.703   116593595.7450   90852278.6380
  87066737.9930
  22557498.266    22557502.602    22557506.066   118540429.2690   92369194.4360
  88520459.0190
  23485138.977    23485143.141                   123415237.6080   96167727.0660

  21189865.227    21189868.523                   111353532.2580   86769035.8090

  22879564.852    22879569.453                   120232908.1690   93688016.5920

  25077593.172    25077601.336    25077599.074   131783778.0700  102688625.5620
  98409905.4290
  23801896.531    23801902.504    23801900.938   125079791.8140   97464825.7150
  93403771.1460
 22 12 25  1 48 30.0000000  0  9G01G03G08G14G17G21G22G27G32
  20157301.258    20157308.703    20157306.969   105927540.9000   82540846.4250
  79101618.4860
  21088044.070    21088050.484    21088051.086   110818381.9030   86352063.7280
  82754028.8540
  22203319.117    22203327.074    22203326.121   116679171.1970   90918960.7940
  87130641.7260
  22559033.703    22559037.797    22559041.367   118548497.5630   92375481.4060
  88526484.0310
  23467902.617    23467907.156                   123324661.2090   96097148.0500

  21195546.867    21195550.211                   111383390.3110   86792301.8150

  22876222.000    22876226.793                   120215343.5600   93674329.8950

  25098148.914    25098156.652    25098155.418   131891798.6480  102772797.4280
  98490570.1230
  23808960.922    23808967.348    23808965.715   125116916.9210   97493754.3870
  93431494.4620
 22 12 25  1 49  0.0000000  0  9G01G03G08G14G17G21G22G27G32
  20155728.406    20155735.637    20155733.852   105919274.1560   82534404.8070
  79095445.2680
  21075642.383    21075649.145    21075649.727   110753212.6780   86301282.5260
  82705363.5370
  22219662.664    22219669.617    22219668.656   116765051.0310   90985880.1280
  87194772.7450
  22560679.063    22560683.230    22560686.762   118557143.6970   92382218.6330
  88532940.5480
  23450688.555    23450693.043                   123234200.3530   96026659.0850

  21201261.156    21201264.031                   111413417.0000   86815699.2260

  22872975.477    22872980.043                   120198281.2360   93661034.5800

  25118718.461    25118724.793    25118722.871   131999887.0660  102857022.1900
  98571285.4750
  23816123.031    23816129.680    23816128.438   125154557.1310   97523084.4160
  93459602.3970
 22 12 25  1 49 30.0000000  0 10G01G03G04G08G14G17G21G22G27G32
  20154216.141    20154223.281    20154221.535   105911327.1600   82528212.3430
  79089510.8330
  21063325.992    21063332.977    21063333.570   110688490.0840   86250849.3420
  82657031.7430
  25620523.336                    25620532.258   134636768.0841
 100540433.9911
  22236062.313    22236069.438    22236068.418   116851233.6680   91053035.4230
  87259129.8980
  22562433.750    22562438.391    22562441.957   118566366.8900   92389405.5160
  88539827.9680
  23433497.164    23433500.984                   123143857.0530   95956261.7050

  21207006.703    21207009.895                   111443611.8620   86839227.6860

  22869824.141    22869828.410                   120181722.0320   93648131.3190

  25139299.359    25139305.668    25139304.711   132108041.7550  102941298.6050
  98652050.4180
  23823383.328    23823389.953    23823388.875   125192711.3320   97552814.9460
  93488094.1690
 22 12 25  1 50  0.0000000  0 10G01G03G04G08G14G17G21G22G27G32
  20152764.773    20152771.984    20152770.207   105903700.0930   82522269.1700
  79083815.2830
  21051095.016    21051101.969    21051102.527   110624215.3750   86200765.1660
  82609034.4040
  25600635.219                    25600644.457   134532258.9680
 100462391.7020
  22252519.797    22252527.063    22252525.934   116937718.0830   91120425.8510
  87323712.3860
  22564298.781    22564303.199    22564306.813   118576166.5470   92397041.5940
  88547145.8680
  23416327.688    23416332.262                   123053633.4510   95885957.5980

  21212784.609    21212788.137                   111473975.2560   86862887.4700

  22866768.883    22866773.137                   120165667.1730   93635621.0470

  25159892.828    25159899.488    25159898.492   132216261.3030  103025625.5040
  98732863.6680
  23830741.648    23830748.316    23830746.809   125231378.5690   97582945.2790
  93516969.0540
 22 12 25  1 50 30.0000000  0 10G01G03G04G08G14G17G21G22G27G32
  20151374.195    20151381.496    20151379.828   105896392.8050   82516575.1850
  79078358.5490
  21038949.641    21038956.191    21038956.813   110560389.5450   86151030.7680
  82561372.2790
  25580720.305                    25580729.355   134427606.8630
 100384242.6080
  22269034.656    22269041.434    22269040.340   117024502.9680   91188050.4180
  87388519.2620
  22566273.063    22566277.441    22566281.379   118586541.8470   92405126.2280
  88554893.6370
  23399182.109    23399186.289                   122963531.3310   95815748.1540

  21218594.859    21218598.168                   111504507.7740   86886679.0290

  22863810.594    22863813.770                   120150117.6250   93623504.5260

  25180497.727    25180504.473    25180503.629   132324544.0230  103110001.6070
  98813724.1130
  23838197.617    23838203.391    23838201.813   125270557.6810   97613474.4570
  93546226.1800
 22 12 25  1 51  0.0000000  0 10G01G03G04G08G14G17G21G22G27G32
  20150044.602    20150051.809    20150050.129   105889405.4520   82511130.4870
  79073140.7180
  21026889.883    21026896.082    21026896.777   110497013.6450   86101646.9650
  82514046.1440
  25560777.906                    25560787.738   134322814.3471
 100305988.7420
  22285605.734    22285613.230    22285611.926   117111586.4090   91255907.6340
  87453549.0790
  22568356.969    22568360.957    22568365.000   118597492.0180   92413658.8260
  88563070.7040
  23382059.328    23382064.074                   122873552.6000   95745634.8670

  21224436.984    21224440.410                   111535208.5900   86910601.7390

  22860947.391    22860951.969                   120135074.5640   93611782.6480

  25201116.539    25201121.277    25201121.031   132432888.4880  103194425.9460
  98894630.7220
  23845750.219    23845756.582    23845755.254   125310247.5760   97644401.6430
  93575864.7520
 22 12 25  1 51 30.0000000  0 10G01G03G04G08G14G17G21G22G27G32
  20148775.734    20148783.059    20148781.453   105882737.6810   82505934.8250
  79068161.5410
  21014915.391    21014921.965    21014922.469   110434088.4390   86052614.3530
  82467056.5560
  25540811.547                    25540820.063   134217883.5260
 100227631.4240
  22302234.156    22302240.918    22302239.816   117198966.3320   91323995.8670
  87518800.3040
  22570549.727    22570554.129    22570557.816   118609015.9050   92422638.4680
  88571676.2030
  23364961.203    23364965.438                   122783699.0090   95675619.0710

  21230311.102    21230314.395                   111566076.8410   86934654.9160

  22858181.414    22858184.977                   120120538.5170   93600455.8660

  25221744.633    25221750.250    25221749.527   132541292.7390  103278896.7920
  98975581.9880
  23853400.164    23853406.469    23853404.840   125350446.8330   97675725.7390
  93605883.6620
 22 12 25  1 52  0.0000000  0 10G01G03G04G08G14G17G21G22G27G32
  20147567.836    20147575.109    20147573.445   105876389.5860   82500988.2520
  79063421.0710
  21003026.852    21003033.594    21003034.105   110371614.9890   86003933.7520
  82420404.3300
  25520817.633                    25520826.566   134112816.5960
 100149172.5790
  22318918.250    22318924.988    22318923.969   117286641.7940   91392314.3940
  87584272.2340
  22572851.516    22572856.328    22572859.867   118621112.7890   92432064.5970
  88580709.5730
  23347887.180    23347891.293                   122693972.8670   95605702.6080

  21236217.047    21236220.422                   111597112.6850   86958838.6870

  22855511.719    22855516.148                   120106511.0410   93589525.3900

  25242383.430    25242390.148    25242389.582   132649755.4790  103363413.1660
  99056576.8670
  23861146.516    23861152.637    23861151.230   125391154.3060   97707445.8410
  93636282.1080
 22 12 25  1 52 30.0000000  0 10G01G03G04G08G14G17G21G22G27G32
  20146420.734    20146427.902    20146426.207   105870361.2300   82496290.8310
  79058919.3870
  20991224.531    20991231.313    20991231.910   110309594.3780   85955606.0150
  82374090.2520
  25500798.898                    25500807.098   134007615.9920
 100070613.7960
  22335658.570    22335665.039    22335663.988   117374611.3750   91460862.0990
  87649963.7820
  22575262.414    22575266.906    22575270.797   118633781.7530   92441936.4970
  88590170.1420
  23330837.047    23330841.203                   122604375.8050   95535886.7050

  21242155.273    21242158.328                   111628316.5840   86983153.4010

  22852939.461    22852943.926                   120092992.5160   93578991.4640

  25263034.148    25263040.629    25263040.457   132758275.0660  103447973.9240
  99137614.2010
  23868989.172    23868995.664    23868994.273   125432368.9310   97739561.1340
  93667059.2650
 22 12 25  1 53  0.0000000  0 10G01G03G04G08G14G17G21G22G27G32
  20145334.055    20145341.652    20145339.820   105864652.6600   82491842.5930
  79054656.4850
  20979509.016    20979515.563    20979516.133   110248027.5880   85907631.9110
  82328115.0750
  25480754.859                    25480763.254   133902284.1530
  99991957.0990
  22352453.922    22352460.855    22352460.004   117462873.4600   91529637.7420
  87715873.7530
  22577782.625    22577786.414    22577790.359   118647021.9840   92452253.5390
  88600057.2950
  23313812.016    23313816.758                   122514910.2510   95466173.3010

  21248124.797    21248128.129                   111659688.1170   87007598.7490

  22850464.094    22850468.566                   120079983.9190   93568854.9110

  25283694.875    25283701.684    25283701.363   132866849.8700  103532577.6430
  99218692.7750
  23876928.672    23876934.688    23876933.230   125474089.4930   97772070.6650
  93698214.2170
 22 12 25  1 53 30.0000000  0 10G01G03G04G08G14G17G21G22G27G32
  20144308.547    20144316.195    20144314.348   105859263.9240   82487643.5770
  79050632.4380
  20967879.563    20967886.277    20967886.945   110186915.6390   85860012.2270
  82282479.5520
  25460686.844                    25460694.969   133796823.4000
  99913204.0530
  22369305.008    22369311.648    22369310.852   117551426.2950   91598639.9310
  87782000.8520
  22580409.969    22580415.000    22580418.273   118660832.5490   92463015.0120
  88610370.3510
  23296813.328    23296817.605                   122425577.9060   95396563.6870

  21254126.523    21254129.789                   111691227.1150   87032174.5890

  22848085.695    22848090.473                   120067486.2800   93559116.4880

  25304365.609    25304373.246    25304372.906   132975478.4150  103617223.2660
  99299811.5290
  23884963.781    23884969.492    23884968.543   125516314.8140   97804973.5140
  93729746.1050
 22 12 25  1 54  0.0000000  0 10G01G03G04G08G14G17G21G22G27G32
  20143344.234    20143351.410    20143349.707   105854194.8750   82483693.6710
  79046847.0960
  20956337.117    20956343.672    20956344.363   110126259.3180   85812747.5740
  82237184.2720
  25440592.281    25440599.883    25440601.301   133691235.8430  104175008.0291
  99834356.3720
  22386211.367    22386217.848    22386217.168   117640268.4760   91667867.5940
  87848344.0290
  22583146.594    22583151.191    22583154.785   118675212.3420   92474220.0260
  88621108.5090
  23279839.180    23279843.672                   122336380.6300   95327059.3090

  21260159.664    21260163.301                   111722933.5010   87056880.8500

  22845805.391    22845809.945                   120055500.4300   93549776.8980

  25325048.086    25325054.836    25325053.980   133084159.0920  103701909.5530
  99380969.2150
  23893094.930    23893100.520    23893098.926   125559043.4690   97838268.5500
  93761653.8600
 22 12 25  1 54 30.0000000  0 10G01G03G04G08G14G17G21G22G27G32
  20142440.242    20142447.563    20142445.953   105849445.4640   82479992.8220
  79043300.4590
  20944881.594    20944888.031    20944888.707   110066059.5060   85765838.6440
  82192229.8820
  25420476.641    25420482.641    25420486.105   133585523.9600  104092635.2510
  99755415.7870
  22403171.719    22403178.500    22403177.883   117729398.2240   91737319.3340
  87914901.9370
  22585990.953    22585995.594    22585999.387   118690160.3570   92485867.8330
  88632270.9850
  23262892.227    23262896.074                   122247320.4410   95257661.7630

  21266225.313    21266228.508                   111754806.5660   87081717.0040

  22843622.242    22843626.605                   120044027.0930   93540836.6360

  25345737.641    25345745.750    25345745.285   133192890.2280  103786635.1050
  99462164.5350
  23901321.039    23901327.082    23901325.352   125602274.1460   97871954.7870
  93793936.4950
 22 12 25  1 55  0.0000000  0 10G01G03G04G08G14G17G21G22G27G32
  20141597.602    20141604.660    20141602.984   105845015.9470   82476541.2530
  79039992.7060
  20933512.828    20933519.637    20933520.160   110006317.4000   85719286.3640
  82147617.2990
  25400337.547    25400343.359    25400346.535   133479690.5400  104010167.7690
  99676384.4770
  22420187.344    22420194.031    22420193.219   117818814.3430   91806994.2020
  87981673.6780
  22588943.688    22588947.992    22588951.945   118705675.8540   92497957.8260
  88643857.2210
  23245970.352    23245975.242                   122158399.4330   95188372.6660

  21272322.297    21272325.457                   111786847.2120   87106683.7360

  22841536.297    22841540.859                   120033067.3520   93532296.5990

  25366439.531    25366445.945    25366445.426   133301670.5220  103871398.9760
  99543396.5630
  23909643.445    23909649.188    23909647.773   125646005.8580   97906031.4290
  93826593.2890
 22 12 25  1 55 30.0000000  0 10G01G03G04G08G14G17G21G22G27G32
  20140815.398    20140822.527    20140821.008   105840906.2340   82473338.8750
  79036923.7600
  20922231.891    20922238.316    20922238.855   109947033.8060   85673091.3750
  82103347.1070
  25380176.070    25380181.352    25380183.660   133373737.8350  103927607.2820
  99597264.0170
  22437256.703    22437263.520    22437262.629   117908514.8020   91876890.6540
  88048657.7770
  22592003.461    22592008.563    22592012.168   118721757.6730   92510489.0900
  88655866.3600
  23229076.844    23229080.746                   122069619.8410   95119193.7810

  21278451.539    21278454.598                   111819054.9620   87131780.6780

  22839548.242    22839552.113                   120022621.7900   93524157.1980

  25387147.461    25387155.191    25387154.215   133410498.2920  103956199.7840
  99624663.9990
  23918060.031    23918066.297    23918064.965   125690237.1780   97940497.4050
  93859623.1590
 22 12 25  1 56  0.0000000  0 10G01G03G04G08G14G17G21G22G27G32
  20140094.156    20140101.371    20140099.758   105837116.0080   82470385.4510
  79034093.3920
  20911037.898    20911044.395    20911044.844   109888209.2800   85627254.1050
  82059419.7150
  25359990.555    25359996.996    25359999.215   133267668.0840  103844955.6510
  99518056.1950
  22454379.609    22454386.801    22454386.012   117998498.1830   91947007.5610
  88115853.1440
  22595171.016    22595176.406    22595179.914   118738404.4260   92523460.5740
  88668297.3620
  23212208.602    23212213.996                   121980983.3740   95050126.4150

  21284611.555    21284615.094                   111851429.2020   87157007.3600

  22837659.031    22837662.805                   120012691.1600   93516419.0500

  25407865.906    25407873.000    25407872.090   133519371.4960  104041036.0600
  99705965.4290
  23926571.523    23926577.918    23926577.051   125734966.4160   97975351.3500
  93893024.8900
 22 12 25  1 56 30.0000000  0 10G01G03G04G08G14G17G21G22G27G32
  20139433.563    20139441.121    20139439.469   105833645.5330   82467681.1830
  79031501.8030
  20899931.398    20899937.945    20899938.473   109829844.8650   85581775.3500
  82015835.9380
  25339784.008    25339790.699    25339793.355   133161483.7120  103762214.6480
  99438762.7960
  22471556.758    22471563.680    22471562.781   118088762.7080   92017343.5360
  88183258.4490
  22598446.641    22598451.223    22598454.961   118755615.2880   92536871.6390
  88681149.6230
  23195369.414    23195374.723                   121892491.8340   94981171.9700

  21290804.070    21290807.434                   111883970.4260   87182364.1510

  22835866.594    22835871.477                   120003276.3170   93509082.8190

  25428592.898    25428599.152    25428598.492   133628288.8040  104125906.6880
  99787299.8140
  23935178.625    23935183.512    23935183.113   125780192.5700   98010592.5190
  93926797.6810
 22 12 25  1 57  0.0000000  0 10G01G03G04G08G14G17G21G22G27G32
  20138834.336    20138841.621    20138839.965   105830494.7390   82465226.0100
  79029148.9300
  20888912.516    20888919.332    20888919.789   109771941.4690   85536655.8330
  81972596.4000
  25319556.352    25319563.145    25319565.727   133055187.3110  103679386.3150
  99359385.6870
  22488787.039    22488793.738    22488792.984   118179307.7830   92087898.1240
  88250873.2620
  22601828.641    22601833.770    22601837.285   118773389.1380   92550721.3890
  88694422.2980
  23178558.617    23178563.500                   121804147.5380   94912332.2650

  21297028.320    21297031.602                   111916678.3620   87207850.8500

  22834173.664    22834178.059                   119994377.8370   93502148.9390

  25449328.180    25449333.770    25449332.605   133737248.8350  104210810.6410
  99868666.0760
  23943878.945    23943884.016    23943883.680   125825914.1890   98046219.7290
  93960940.4130
 22 12 25  1 57 30.0000000  0  9G01G03G04G08G14G17G21G22G32
  20138295.539    20138302.867    20138301.172   105827663.7170   82463020.0150
  79027034.8600
  20877982.125    20877988.434    20877989.012   109714499.9830   85491896.2470
  81929701.7980
  25299308.570    25299314.855    25299316.992   132948781.3000  103596472.6250
  99279926.7470
  22506069.977    22506077.000    22506076.148   118270130.7540   92158669.2530
  88318695.5910
  22605317.961    22605322.734    22605326.578   118791724.8680   92565008.9580
  88708114.5530
  23161775.883    23161780.207                   121715952.8500   94843609.1530

  21303284.102    21303287.457                   111949552.9550   87233467.4140

  22832578.898    22832583.203                   119985996.6170   93495618.1280

  23952672.664    23952678.582    23952678.023   125872129.9380   98082232.0180
  93995452.1600
 22 12 25  1 58  0.0000000  0  9G01G03G04G08G14G17G21G22G32
  20137817.797    20137824.922    20137823.301   105825152.3830   82461063.1330
  79025159.5010
  20867138.969    20867145.781    20867146.344   109657521.1290   85447497.1550
  81887152.6740
  25279040.234    25279045.508    25279048.414   132842267.8940  103513475.3050
  99200387.5810
  22523405.563    22523412.590    22523411.703   118361230.0250   92229655.6810
  88386724.2480
  22608913.398    22608918.477    22608922.461   118810621.2400   92579733.3900
  88722225.4610
  23145021.539    23145026.086                   121627909.3920   94775003.8610

  21309571.547    21309575.066                   111982594.1680   87259213.8080

  22831081.617    22831087.133                   119978133.2290   93489490.8270

  23961560.969    23961566.832    23961566.168   125918838.4260   98118628.2300
  94030331.8710
 22 12 25  1 58 30.0000000  0  9G01G03G04G08G14G17G21G22G32
  20137400.555    20137407.867    20137406.227   105822960.5880   82459355.2380
  79023522.7770
  20856384.750    20856391.285    20856391.809   109601005.5610   85403459.0660
  81844949.5140
  25258749.719                    25258759.246   132735649.6420
  99120770.1060
  22540793.641    22540800.602    22540799.598   118452604.2890   92300856.3800
  88454958.2520
  22612615.867    22612620.648    22612624.766   118830076.9470   92594893.6690
  88736754.0730
  23128296.477    23128301.066                   121540019.1770   94706517.9880

  21315890.922    21315894.129                   112015800.9500   87285089.2180

  22829684.680    22829689.090                   119970788.2560   93483767.4580

  23970543.164    23970549.102    23970547.402   125966038.0260   98155407.1250
  94065578.3320
 22 12 25  1 59  0.0000000  0  9G01G03G04G08G14G17G21G22G32
  20137044.313    20137051.582    20137049.977   105821088.3840   82457896.3680
  79022124.7010
  20845718.563    20845724.918    20845725.508   109544954.0790   85359782.5980
  81803092.9150
  25238442.922    25238448.680    25238450.648   132628928.8990  103347231.2251
  99041076.1500
  22558233.359    22558240.320    22558239.547   118544251.6690   92372269.9180
  88523396.2180
  22616424.461    22616429.195    22616433.309   118850090.8330   92610488.8990
  88751699.4750
  23111601.094    23111605.668                   121452284.0240   94638152.9290

  21322241.641    21322244.922                   112049174.3670   87311094.4730

  22828385.945    22828390.172                   119963962.5240   93478448.7160

  23979618.430    23979624.387    23979622.727   126013727.3380   98192567.6220
  94101190.4660
 22 12 25  1 59 30.0000000  0  9G01G03G04G08G14G17G21G22G32
  20136749.141    20136756.070    20136754.523   105819536.1900   82456686.8670
  79020965.5890
  20835140.656    20835147.289    20835147.855   109489367.9460   85316468.7470
  81761583.7970
  25218115.672    25218120.641    25218123.121   132522108.8200  103263994.8280
  98961307.9200
  22575724.773    22575732.121    22575731.258   118636171.2300   92443895.5330
  88592037.4230
  22620339.211    22620343.980    22620347.977   118870662.0270   92626518.3820
  88767061.0640
  23094935.703    23094940.047                   121364706.6670   94569910.8210

  21328624.047    21328627.387                   112082714.6470   87337229.7530

  22827185.367    22827190.313                   119957656.7450   93473535.1160

  23988786.289    23988792.492    23988790.957   126061905.3770   98230108.9700
  94137167.5750
 22 12 25  2  0  0.0000000  0  9G01G03G04G08G14G17G21G22G32
  20136514.383    20136521.695    20136519.918   105818303.5810   82455726.3920
  79020045.1300
  20824651.422    20824658.203    20824658.617   109434247.4680   85273517.7370
  81720422.4310
  25197769.570    25197774.957    25197778.027   132415191.2380  103180682.3640
  98881466.8780
  22593268.383    22593275.195    22593274.105   118728360.6100   92515731.3920
  88660880.1210
  22624359.430    22624364.082    22624368.348   118891788.9500   92642980.9080
  88782837.6350
  23078300.617    23078305.105                   121277288.5430   94501792.8050

  21335038.203    21335041.434                   112116421.0020   87363494.4410

  22826085.242    22826088.762                   119951871.1000   93469026.8360

  23998046.602    23998052.844    23998051.723   126110570.2120   98268029.6260
  94173508.2130
 22 12 25  2  0 30.0000000  0  9G01G03G04G08G14G17G21G22G32
  20136340.523    20136347.785    20136346.137   105817390.3910   82455014.8110
  79019363.1950
  20814251.211    20814257.871    20814258.391   109379593.2690   85230930.0570
  81679609.2330
  25177405.273    25177410.344    25177413.191   132308178.5610  103097295.9170
  98801554.8710
  22610862.625    22610869.176    22610868.305   118820817.9510   92587776.0530
  88729922.9300
  22628485.484    22628489.980    22628494.129   118913470.1130   92659875.3120
  88799028.1190
  23061696.156    23061700.457                   121190031.7400   94433800.5000

  21341483.695    21341487.016                   112150292.9210   87389888.1440

  22825082.992    22825087.059                   119946606.1470   93464924.2710

  24007399.227    24007405.359    24007404.852   126159720.2760   98306328.3400
  94210211.1650
 22 12 25  2  1  0.0000000  0  9G01G03G04G08G14G17G21G22G32
  20136227.914    20136234.910    20136233.125   105816796.9360   82454552.3790
  79018920.0390
  20803939.555    20803946.375    20803946.867   109325406.3480   85188706.5030
  81639144.9930
  25157023.875    25157029.809    25157033.180   132201073.5830  103013837.5221
  98721573.9110
  22628507.164    22628514.008    22628513.234   118913542.4540   92660028.9070
  88799165.2270
  22632716.094    22632721.172    22632725.258   118935704.5310   92677200.8170
  88815631.7410
  23045123.336    23045127.301                   121102938.8460   94365935.9060

  21347960.773    21347964.477                   112184330.7820   87416411.1470

  22824180.656    22824184.766                   119941862.9620   93461228.3130

  24016843.734    24016850.641    24016849.668   126209354.3270   98345004.1920
  94247275.5080
 22 12 25  2  1 30.0000000  0  9G01G03G04G08G14G17G21G22G32
  20136175.680    20136182.707    20136181.027   105816522.8430   82454338.7950
  79018715.3400
  20793717.469    20793724.027    20793724.453   109271686.9980   85146847.2820
  81599029.9270
  25136624.719    25136631.621    25136634.648   132093878.3930  102930308.7900
  98641525.6160
  22646202.047    22646209.168    22646208.352   119006531.2760   92732487.7180
  88868604.9150
  22637052.602    22637057.039    22637061.281   118958490.4880   92694956.1020
  88832647.2020
  23028581.148    23028585.520                   121016011.1080   94298200.0250

  21354469.773    21354473.074                   112218534.7220   87443063.5630

  22823376.680    22823381.668                   119937641.6140   93457938.9420

  24026381.070    24026386.715    24026386.180   126259470.4290   98384055.7300
  94284699.8600
 22 12 25  2  2  0.0000000  0  9G01G03G04G08G14G17G21G22G32
  20136184.352    20136191.500    20136189.652   105816568.2980   82454374.2090
  79018749.3000
  20783584.156    20783590.672    20783591.113   109218436.2070   85105353.1690
  81559264.7430
  25116210.148    25116215.961    25116218.512   131986595.8050  102846712.0470
  98561412.0090
  22663947.570    22663954.336    22663953.793   119099783.5900   92805151.8440
  88938241.3810
  22641493.523    22641497.813    22641502.199   118981826.8460   92713140.2520
  88850073.6710
  23012071.195    23012075.699                   120929251.1330   94230594.8540

  21361010.141    21361013.445                   112252904.4320   87469845.1450

  22822673.250    22822677.641                   119933942.7190   93455056.6930

  24036009.867    24036015.238    24036014.035   126310067.3280   98423481.8950
  94322483.2610
 22 12 25  2  2 30.0000000  0  9G01G03G04G08G14G17G21G22G32
  20136253.531    20136260.969    20136259.207   105816933.6910   82454658.9340
  79019022.1500
  20773540.219    20773546.715    20773547.215   109165654.9250   85064224.9170
  81519850.1630
  25095777.445    25095783.805    25095787.148   131879228.7690  102763049.4270
  98481235.3090
  22681743.023    22681749.789    22681749.203   119193297.5560   92878019.8520
  89008073.2180
  22646038.758    22646043.348    22646047.324   119005712.5930   92731752.4900
  88867910.4100
  22995594.109    22995598.406                   120842661.4360   94163122.3700

  21367582.125    21367585.441                   112287440.4320   87496756.3120

  22822068.766    22822073.402                   119930767.1750   93452582.2640

  24045729.078    24045735.238    24045734.227   126361143.7690   98463281.7100
  94360624.7600
 22 12 25  2  3  0.0000000  0  9G01G03G04G08G14G17G21G22G32
  20136383.906    20136391.305    20136389.613   105817618.6170   82455192.6380
  79019533.6200
  20763585.477    20763592.074    20763592.734   109113343.4990   85023462.7800
  81480786.4680
  25075332.430    25075337.418    25075341.137   131771779.2550  102679322.6100
  98400997.0290
  22699587.203    22699594.453    22699593.461   119287071.4960   92951090.4480
  89078099.1970
  22650687.859    22650693.020    22650696.836   119030145.9660   92750791.4620
  88886156.0800
  22979148.602    22979153.359                   120756243.5080   94095783.7290

  21374185.383    21374188.895                   112322142.1420   87523796.6000

  22821563.523    22821568.719                   119928115.1880   93450515.7790

  24055539.594    24055545.840    24055544.359   126412697.8670   98503453.7150
  94399122.9450
 22 12 25  2  3 30.0000000  0  9G01G03G04G08G14G17G21G22G32
  20136575.180    20136582.516    20136580.770   105818623.1190   82455975.3620
  79020283.7230
  20753720.680    20753727.086    20753727.633   109061502.5610   84983067.2430
  81442074.0890
  25054869.711    25054875.434    25054879.605   131664249.9690  102595533.5890
  98320699.2730
  22717481.305    22717488.102    22717487.254   119381103.5040   93024362.1230
  89148317.8870
  22655441.422    22655446.109    22655450.340   119055125.6220   92770256.1120
  88904809.7090
  22962737.273    22962741.969                   120669999.5580   94028580.6600

  21380820.852    21380823.953                   112357009.2060   87550965.7360

  22821159.648    22821163.707                   119925987.0660   93448857.5030

  24065440.500    24065446.906    24065445.371   126464728.0200   98543996.6840
  94437976.6270
 22 12 25  2  4  0.0000000  0  9G01G03G04G08G14G17G21G22G32
  20136827.250    20136834.551    20136832.824   105819947.2220   82457007.1240
  79021272.5120
  20743945.484    20743951.914    20743952.273   109010132.8480   84943038.9090
  81403713.5920
  25034393.508    25034397.484    25034402.766   131556643.4590  102511684.3000
  98240343.8000
  22735424.102    22735430.801    22735429.781   119475392.2360   93097833.8560
  89218728.2910
  22660298.555    22660303.332    22660307.512   119080650.1620   92790145.3570
  88923870.2460
  22946359.289    22946363.750                   120583931.6530   93961514.7580

  21387487.141    21387490.449                   112392042.0870   87578264.0890

  22820854.023    22820858.527                   119924383.3680   93447607.8700

  24075432.047    24075438.305    24075436.453   126517232.6620   98584909.3980
  94477184.6380
 22 12 25  2  4 30.0000000  0  9G01G03G04G08G14G17G21G22G32
  20137139.484    20137147.297    20137145.551   105821590.6640   82458287.7210
  79022499.7400
  20734259.438    20734266.301    20734266.664   108959234.6050   84903377.9360
  81365705.1720
  25013900.445    25013906.219    25013911.902   131448961.9880  102427776.6030
  98159932.3210
  22753414.656    22753421.969    22753420.777   119569935.5410   93171503.9510
  89289328.7970
  22665259.516    22665263.863    22665268.113   119106717.7340   92810457.7190
  88943336.2250
  22930014.492    22930019.285                   120498041.5430   93894587.4040

  21394185.039    21394188.406                   112427239.8690   87605690.9240

  22820648.883    22820652.680                   119923303.7980   93446766.6610

  24085512.617    24085519.180    24085517.855   126570209.8950   98626190.3470
  94516745.5650
 22 12 25  2  5  0.0000000  0  9G01G03G04G08G14G17G21G22G32
  20137513.250    20137520.957    20137519.148   105823553.7870   82459817.4250
  79023965.7080
  20724663.977    20724670.527    20724670.977   108908808.9060   84864085.1960
  81328049.6270
  24993396.234    24993402.715    24993406.598   131341208.5010  102343813.0220
  98079467.0410
  22771453.930    22771461.008    22771460.023   119664732.2150   93245371.4740
  89360118.5070
  22670322.852    22670327.395    22670331.754   119133327.3220   92831192.4410
  88963207.0150
  22913704.672    22913709.270                   120412332.2400   93827800.9370

  21400914.664    21400917.863                   112462603.5380   87633247.0290

  22820543.070    22820547.402                   119922749.5990   93446334.8190

  24095684.078    24095690.520    24095689.105   126623658.5670   98667838.6580
  94556658.5200
 22 12 25  2  5 30.0000000  0  9G01G03G04G08G14G17G21G22G32
  20137947.625    20137955.320    20137953.512   105825836.8540   82461596.4380
  79025670.5940
  20715158.273    20715164.875    20715165.387   108858856.4760   84825161.2290
  81290747.5010
  24972877.680    24972884.746    24972887.797   131233385.7130  102259795.2190
  97998950.0710
  22789541.023    22789547.848    22789547.164   119759780.2020   93319434.8290
  89431095.8900
  22675489.102    22675494.035    22675498.176   119160477.5910   92852348.4840
  88983481.5510
  22897429.656    22897434.219                   120326805.3800   93761156.6410

  21407675.625    21407679.117                   112498133.6230   87660932.8020

  22820537.672    22820542.461                   119922721.3670   93446312.8310

  24105944.688    24105950.125    24105949.195   126677577.1440   98709853.1310
  94596922.3900
 22 12 25  2  6  0.0000000  0  9G01G03G04G08G14G17G21G22G32
  20138443.141    20138450.500    20138448.770   105828439.3630   82463624.3680
  79027614.0230
  20705742.852    20705749.379    20705749.879   108809377.4550   84786606.1640
  81253798.9050
  24952348.813    24952353.453    24952356.949   131125495.9110  102175725.2320
  97918383.0040
  22807676.203    22807682.363    22807681.875   119855077.9900   93393692.8290
  89502259.8070
  22680759.172    22680763.227    22680767.270   119188166.5430   92873924.2750
  89004158.3580
  22881190.156    22881193.980                   120241463.0520   93694656.1330

  21414468.320    21414471.688                   112533828.6090   87688747.0690

  22820632.594    22820637.203                   119923218.8990   93446700.5180

  24116293.992    24116299.977    24116299.035   126731963.4780   98752232.0980
  94637535.5490
 22 12 25  2  6 30.0000000  0  9G01G03G04G08G14G17G21G22G32
  20138999.563    20139006.473    20139004.797   105831361.3390   82465901.2310
  79029796.0180
  20696417.141    20696423.922    20696424.594   108760372.4130   84748420.4190
  81217204.2300
  24931805.758    24931810.043    24931813.172   131017541.4430  102091604.9070
  97837767.6500
  22825856.805    22825863.945    22825863.332   119950623.5690   93468143.9350
  89573608.7830
  22686129.930    22686134.270    22686138.570   119216392.7020   92895918.6720
  89025236.3030
  22864985.352    22864989.535                   120156307.2890   93628300.9830

  21421292.219    21421295.652                   112569689.0070   87716690.2320

  22820827.617    22820831.727                   119924242.4160   93447498.0710

  24126731.742    24126737.813    24126737.523   126786816.0150   98794974.3260
  94678496.8770
 22 12 25  2  7  0.0000000  0  9G01G03G04G08G14G17G21G22G32
  20139616.133    20139623.297    20139621.551   105834602.8570   82468427.0880
  79032216.6310
  20687182.180    20687188.898    20687189.426   108711841.9720   84710604.5010
  81180963.9790
  24911250.602    24911254.355    24911258.770   130909525.1810  102007436.3870
  97757106.1810
  22844085.578    22844092.398    22844092.117   120046415.4930   93542786.9830
  89645141.6850
  22691602.938    22691607.652    22691611.805   119245154.5070   92918330.4570
  89046714.2590
  22848816.617    22848820.781                   120071340.1220   93562092.8010

  21428148.023    21428151.008                   112605715.0630   87744762.4790

  22821121.852    22821126.438                   119925792.5600   93448705.9860

  24137258.664    24137264.164    24137262.758   126842133.0970   98838078.5220
  94719805.0440
 22 12 25  2  7 30.0000000  0  9G01G03G04G08G14G17G21G22G32
  20140293.563    20140300.945    20140299.199   105838163.8920   82471201.9200
  79034875.8520
  20678037.664    20678044.301    20678044.855   108663786.6060   84673158.7720
  81145078.4970
  24890682.930    24890689.121    24890692.832   130801449.5701  101923221.6561
  97676400.4060
  22862360.844    22862368.074    22862367.094   120142451.6780   93617620.3670
  89716857.0160
  22697177.648    22697182.531    22697186.590   119274450.3900   92941158.3860
  89068591.0260
  22832684.516    22832688.168                   119986563.7660   93496033.3060

  21435034.930    21435038.129                   112641906.2250   87772963.3760

  22821517.078    22821522.059                   119927869.4040   93450324.3130

  24147873.711    24147878.949    24147877.387   126897912.9380   98881543.3530
  94761458.8350
 22 12 25  2  8  0.0000000  0  9G01G03G04G08G14G17G21G22G32
  20141032.078    20141039.383    20141037.707   105842044.4770   82474225.7540
  79037773.6800
  20668983.664    20668990.191    20668990.707   108616206.8620   84636083.6460
  81109548.1680
  24870107.734    24870113.395    24870115.266   130693317.3720  101838962.7850
  97595652.3030
  22880681.219    22880689.285    22880688.277   120238730.7350   93692642.9930
  89788753.6920
  22702853.992    22702858.617    22702862.770   119304278.7000   92964401.2100
  89090865.4100
  22816588.789    22816592.508                   119901980.4910   93430124.2500

  21441953.492    21441956.477                   112678262.9450   87801293.2800

  22822012.688    22822017.293                   119930473.0280   93452353.1280

  24158575.672    24158581.531    24158579.672   126954153.9240   98925367.4850
  94803456.9750
 22 12 25  2  8 30.0000000  0  9G01G03G04G08G14G17G21G22G32
  20141831.109    20141838.621    20141836.891   105846244.6410   82477498.6080
  79040910.1720
  20660019.797    20660026.586    20660027.063   108569103.2420   84599379.5280
  81074373.3990
  24849519.500    24849525.785    24849527.602   130585131.1131  101754661.8401
  97514863.9000
  22899048.945    22899056.293    22899055.789   120335250.6840   93767853.3410
  89860830.2770
  22708630.563    22708635.777    22708639.742   119334637.8900   92988057.7020
  89113536.2180
  22800529.852    22800534.137                   119817592.3780   93364367.2730

  21448903.055    21448906.723                   112714785.2480   87829752.2150

  22822608.883    22822612.957                   119933604.0510   93454792.8900

  24169364.617    24169370.648    24169369.648   127010854.3190   98969549.5990
  94845798.1800
 22 12 25  2  9  0.0000000  0  9G01G03G04G08G14G17G21G22G32
  20142691.109    20142698.762    20142697.070   105850764.1610   82481020.3090
  79044285.1370
  20651147.242    20651153.742    20651154.301   108522475.9840   84563046.6060
  81039554.3560
  24828923.570    24828928.664    24828930.664   130476893.2670  101670320.6340
  97434036.9030
  22917461.133    22917469.035    22917468.402   120432009.5360   93843249.8290
  89933085.2360
  22714509.070    22714513.809    22714517.672   119365526.0230   93012126.3690
  89136602.0100
  22784509.055    22784513.148                   119733401.6250   93298764.0970

  21455884.461    21455888.016                   112751472.8210   87858339.9230

  22823304.297    22823308.984                   119937262.1520   93457643.3810

  24180241.703    24180247.746    24180246.352   127068012.0480   99014088.1120
  94888480.9020
 22 12 25  2  9 30.0000000  0 10G01G03G04G08G14G17G19G21G22G32
  20143612.148    20143619.691    20143618.008   105855603.5640   82484791.2690
  79047898.9820
  20642365.102    20642371.637    20642372.254   108476326.1540   84527085.7110
  81005091.8340
  24808317.531    24808322.805    24808326.082   130368606.9060  101585941.5970
  97353173.7060
  22935919.758    22935926.883    22935926.473   120529006.6180   93918831.9770
  90005518.1270
  22720487.633    22720491.777    22720495.895   119396941.9980   93036606.3490
  89160061.9910
  22768526.375    22768530.477                   119649410.8220   93233316.7200

  25595649.578    25595651.602                   134506050.6791  104809911.3051

  21462896.961    21462900.785                   112788325.8800   87887056.5830

  22824101.266    22824105.676                   119941448.6040   93460905.5450

  24191205.289    24191211.688    24191210.102   127125626.0720   99058982.1680
  94931504.3520
 22 12 25  2 10  0.0000000  0 10G01G03G04G08G14G17G19G21G22G32
  20144593.641    20144601.430    20144599.711   105860762.3510   82488811.1010
  79051751.3250
  20633673.867    20633680.508    20633681.039   108430653.6370   84491496.7520
  80970985.7430
  24787703.344    24787706.570    24787709.844   130260274.2400  101501526.5740
  97272275.9600
  22954422.695    22954429.719    22954428.879   120626238.8510   93994597.3390
  90078126.5980
  22726565.789    22726570.293    22726574.281   119428883.5960   93061495.8880
  89183914.4570
  22752581.188    22752585.711                   119565621.2280   93168026.1450

  25574018.766

  21469941.930    21469945.203                   112825344.0440   87915901.9040

  22824998.055    22825002.988                   119946162.3530   93464578.6290

  24202255.180    24202261.695    24202261.008   127183693.9840   99104229.8770
  94974866.7400
 22 12 25  2 10 30.0000000  0 10G01G03G04G08G14G17G19G21G22G32
  20145636.469    20145643.738    20145642.160   105866240.5900   82493079.8600
  79055842.2100
  20625074.047    20625080.273    20625080.891   108385458.8840   84456280.0720
  80937236.4460
  24767078.258    24767083.270    24767088.125   130151897.8980  101417077.5130
  97191345.5660
  22972970.102    22972976.848    22972975.906   120723704.8940   94070544.8960
  90150909.6890
  22732743.406    22732748.277    22732752.313   119461349.1220   93086793.6770
  89208158.1550
  22736675.555    22736679.867                   119482035.4730   93102894.3860

  25552386.375                                   134278678.9331

  21477017.391    21477021.156                   112862527.8730   87944876.3060

  22825995.023    22826000.273                   119951404.0440   93468663.0320

  24213391.375    24213397.367    24213396.645   127242214.0190   99149829.8880
  95018566.7710
 22 12 25  2 11  0.0000000  0 10G01G03G04G08G14G17G19G21G22G32
  20146739.617    20146747.012    20146745.500   105872038.3390   82497597.5790
  79060171.7030
  20616564.625    20616570.992    20616571.598   108340742.4860   84421436.1330
  80903844.3430
  24746448.242    24746452.348    24746454.172   130043480.5130  101332596.4430
  97110384.5290
  22991561.516    22991567.902    22991567.691   120821402.7580   94146673.1000
  90223865.8550
  22739021.133    22739025.441    22739029.715   119494336.9170   93112498.4280
  89232791.8700
  22720808.938    22720813.145                   119398655.7600   93037923.1920

  25530750.250

  21484124.836    21484128.402                   112899876.9980   87973979.5200

  22827094.188    22827097.406                   119957173.8550   93473158.9640

  24224613.242    24224619.512    24224617.637   127301184.4880   99195780.9280
  95062603.1980
 22 12 25  2 11 30.0000000  0 10G01G03G04G08G14G17G19G21G22G32
  20147903.469    20147911.121    20147909.414   105878155.0610   82502363.8620
  79064739.3790
  20608146.039    20608152.660    20608153.254   108296504.1760   84386964.7320
  80870809.2460
  24725808.852    24725814.492    24725816.844   129935024.3500  101248085.1190
  97029394.5210
  23010196.609    23010202.957    23010202.258   120919330.5610   94222980.4620
  90296993.7540
  22745397.344    22745402.063    22745405.871   119527844.6410   93138608.3280
  89257813.8560
  22704982.125    22704985.895                   119315483.5480   92973113.6880

  25509112.031

  21491263.523    21491266.922                   112937390.9220   88003211.1450

  22828292.133    22828296.488                   119963471.2010   93478066.0510

  24235920.711    24235926.355    24235924.395   127360603.0200   99242081.0930
  95106974.1600
 22 12 25  2 12  0.0000000  0  9G01G03G04G08G14G17G21G22G32
  20149128.680    20149135.801    20149134.223   105884591.4610   82507379.2410
  79069545.7840
  20599818.859    20599825.637    20599826.156   108252745.1140   84352866.7840
  80838132.0560
  24705164.586    24705168.945    24705172.465   129826532.7200  101163546.1640
  96948378.0100
  23028874.625    23028881.527    23028880.922   121017486.8260   94299465.8760
  90370292.2660
  22751872.258    22751876.941    22751881.082   119561871.2940   93165122.5930
  89283223.3530
  22689194.875    22689199.152                   119232521.9430   92908468.2930

  21498433.977    21498437.176                   112975069.9010   88032571.3800

  22829590.391    22829595.535                   119970296.8420   93483384.7290

  24247312.078    24247318.316    24247316.488   127420468.4870   99288729.5080
  95151678.8870
 22 12 25  2 12 30.0000000  0 10G01G03G04G08G14G17G19G21G22G32
  20150414.078    20150421.434    20150419.738   105891347.3970   82512643.6040
  79074590.8020
  20591583.258    20591589.719    20591590.250   108209465.4480   84319142.3720
  80805812.8300
  24684512.391    24684517.215    24684521.145   129718007.9870  101078981.4110
  96867336.8170
  23047595.914    23047603.379    23047603.008   121115869.9580   94376128.0360
  90443760.1730
  22758445.672    22758450.672    22758454.512   119596414.8610   93192039.6480
  89309018.8380
  22673447.992    22673452.387                   119149772.9540   92843988.5660

  25465829.828    25465832.914                   133823823.7251  104278328.0961

  21505635.016    21505638.648                   113012914.8010   88062060.9070

  22830990.055    22830994.836                   119977650.8790   93489115.1440

  24258789.359    24258795.395    24258793.816   127480778.8450   99335724.6000
  95196715.8590
 22 12 25  2 13  0.0000000  0 10G01G03G04G08G14G17G19G21G22G32
  20151760.570    20151767.859    20151766.113   105898422.8350   82518156.9400
  79079874.4110
  20583438.523    20583445.270    20583445.742   108166665.5480   84285791.8140
  80773851.8890
  24663853.164    24663859.758    24663862.844   129609452.8790  100994392.9990
  96786272.9520
  23066360.859    23066367.770    23066367.262   121214478.3180   94452965.7200
  90517396.2930
  22765117.250    22765122.145    22765125.902   119631473.5330   93219358.0730
  89335199.0080
  22657742.766    22657746.531                   119067238.5920   92779676.0900

  25444185.742                                   133710086.8761

  21512868.609    21512871.820                   113050925.2250   88091679.4100

  22832490.266    22832494.535                   119985533.1040   93495257.1620

  24270349.773    24270355.617    24270354.520   127541532.3740   99383065.0080
  95242083.7820
 22 12 25  2 13 30.0000000  0 10G01G03G04G08G14G17G19G21G22G32
  20153167.609    20153174.980    20153173.324   105905817.7900   82523919.2430
  79085396.6280
  20575385.563    20575392.027    20575392.547   108124345.7830   84252815.3750
  80742249.4670
  24643192.984    24643197.367    24643200.789   129500870.1820  100909783.1270
  96705188.4870
  23085168.180    23085175.203    23085174.137   121313309.6070   94529977.1100
  90591198.8570
  22771886.578    22771891.012    22771895.090   119667045.3820   93247076.3830
  89361762.3990
  22642077.398    22642082.082                   118984921.2750   92715532.7320

  25422541.492    25422544.012                   133596344.9541  104101069.6871

  21520133.219    21520136.453                   113089100.8690   88121426.6620

  22834090.859    22834094.805                   119993943.7440   93501810.9100

  24281995.367    24282000.707    24281999.160   127602727.0850   99430749.2230
  95287781.1530
 22 12 25  2 14  0.0000000  0 10G01G03G04G08G14G17G19G21G22G32
  20154635.977    20154643.008    20154641.348   105913532.2180   82529930.4930
  79091157.4080
  20567423.570    20567430.203    20567430.715   108082506.3360   84220213.2100
  80711005.7340
  24622524.188    24622530.230    24622534.391   129392262.4130  100825153.7260
  96624085.2750
  23104016.000    23104024.340    23104023.082   121412362.0100   94607160.7930
  90665166.5620
  22778752.516    22778757.367    22778761.547   119703128.6320   93275193.1820
  89388707.6410
  22626455.086    22626459.352                   118902822.8140   92651559.9260

  25400897.813    25400898.648                   133482599.7200  104012437.1600

  21527428.930    21527432.527                   113127441.5260   88151302.4960

  22835791.820    22835796.438                   120002882.6440   93508776.2910

  24293723.547    24293729.328    24293727.859   127664361.0750   99478775.7090
  95333806.5170
 22 12 25  2 14 30.0000000  0 10G01G03G04G08G14G17G19G21G22G32
  20156164.625    20156171.797    20156170.191   105921566.2910   82536190.8190
  79097156.8850
  20559553.297    20559559.895    20559560.438   108041147.7640   84187985.7620
  80680121.1050
  24601853.648    24601858.672    24601863.074   129283632.4850  100740507.0320
  96542965.5280
  23122907.664    23122914.906    23122914.012   121511633.8860   94684515.4830
  90739298.1440
  22785716.125    22785720.941    22785724.984   119739721.4610   93303707.0560
  89416033.4350
  22610873.977    22610878.523                   118820945.6910   92587759.5820

  25379252.430    25379254.770                   133368853.4161  103923803.6571

  21534756.453    21534759.922                   113165948.2740   88181307.7510

  22837592.797    22837597.922                   120012350.1340   93516153.5720

  24305535.414    24305541.227    24305539.637   127726432.4780   99527143.0110
  95380158.5140
 22 12 25  2 15  0.0000000  0 10G01G03G04G08G14G17G19G21G22G32
  20157754.117    20157761.535    20157759.832   105929919.7520   82542700.0130
  79103394.8640
  20551774.484    20551781.129    20551781.645   108000270.0560   84156133.0060
  80649595.5470
  24581177.984    24581183.254    24581185.934   129174982.6810  100655844.8450
  96461830.9760
  23141839.594    23141847.414    23141846.125   121611123.4250   94762039.8030
  90813592.2730
  22792776.578    22792780.992    22792784.988   119776821.7010   93332616.3060
  89443738.1270
  22595335.594    22595340.430                   118739291.9550   92524133.3030

  25357606.305    25357609.410                   133255107.4700  103835170.3030

  21542115.789    21542119.238                   113204620.4190   88211441.8860

  22839495.422    22839499.934                   120022345.8030   93523942.4000

  24317429.922    24317435.930    24317434.152   127788939.2940   99575849.6600
  95426835.7200
 22 12 25  2 15 30.0000000  0 10G01G03G04G08G14G17G19G21G22G32
  20159404.602    20159411.816    20159410.277   105938592.5180   82549458.0140
  79109871.2920
  20544087.008    20544093.965    20544094.391   107959873.3620   84124655.0630
  80619429.1880
  24560499.156    24560505.031    24560507.207   129066315.8740  100571169.3850
  96380683.6460
  23160813.039    23160820.273    23160819.672   121710828.3260   94839731.9170
  90888047.2170
  22799932.461    22799937.117    22799941.234   119814427.4380   93361919.4520
  89471820.3030
  22579841.055    22579845.090                   118657863.8610   92460682.8580

  25335962.430    25335964.719                   133141363.7500  103746538.8490

  21549506.297    21549509.805                   113243457.6960   88241704.6940

  22841497.641    22841502.277                   120032869.3390   93532142.5560

  24329406.406    24329413.086    24329411.582   127851879.4620   99624893.9490
  95473836.4910
 22 12 25  2 16  0.0000000  0 10G01G03G04G08G14G17G19G21G22G32
  20161115.664    20161123.004    20161121.383   105947584.4840   82556464.7540
  79116586.0800
  20536491.727    20536498.234    20536498.754   107919957.9110   84093552.1160
  80589622.2100
  24539818.188    24539824.492    24539826.336   128957634.4660  100486482.5810
  96299525.4490
  23179827.211    23179834.457    23179833.523   121810747.0490   94917590.6480
  90962661.8360
  22807183.789    22807188.887    22807192.969   119852536.5780   93391614.8720
  89500278.4140
  22564389.289    22564393.059                   118576663.4300   92397409.8130

  25314317.258    25314320.598                   133027624.3200  103657910.6900

  21556927.969    21556931.738                   113282460.5660   88272096.5380

  22843600.250    22843605.980                   120043920.7400   93540754.0540

  24341466.523    24341472.777    24341471.250   127915250.9530   99674274.3390
  95521159.3760
 22 12 25  2 16 30.0000000  0 10G01G03G04G08G14G17G19G21G22G32
  20162887.391    20162894.859    20162893.188   105956895.8240   82563720.3400
  79123539.3610
  20528987.813    20528994.203    20528994.754   107880524.0770   84062824.4610
  80560174.8790
  24519134.508    24519139.746    24519142.254   128848941.3550  100401786.6350
  96218358.5400
  23198881.297    23198888.180    23198887.285   121910877.6930   94995614.5180
  91037434.7150
  22814531.609    22814536.199    22814540.543   119891147.3040   93421701.1430
  89529111.0890
  22548980.820    22548985.027                   118495693.2210   92334316.1480

  25292676.188    25292677.918                   132913891.5670  103569287.8160

  21564381.695    21564385.063                   113321628.8850   88302617.2950

  22845804.672    22845808.934                   120055500.0040   93549776.8650

  24353606.484    24353613.055    24353612.113   127979051.9710   99723989.4240
  95568803.0050
 22 12 25  2 17  0.0000000  0 10G01G03G04G08G14G17G19G21G22G32
  20164719.953    20164727.477    20164725.938   105966526.5750   82571224.8270
  79130731.1550
  20521575.188    20521581.934    20521582.398   107841572.1390   84032472.3070
  80531087.4000
  24498449.320    24498455.008    24498457.008   128740239.3250  100317083.7670
  96137184.9130
  23217975.711    23217982.082    23217982.164   122011218.5420   95073802.1960
  91112364.5720
  22821973.734    22821978.934    22821983.074   119930257.6660   93452176.7210
  89558316.8530
  22533617.492    22533621.102                   118414955.0790   92271403.3160

  25271034.328    25271036.852                   132800167.3490  103480671.5260

  21571866.266    21571870.168                   113360962.7180   88333267.0280

  22848108.500    22848113.004                   120067607.0690   93559210.9440

  24365829.055    24365835.383    24365833.887   128043280.5720   99774037.6800
  95616765.9060
 22 12 25  2 17 30.0000000  0 10G01G03G04G08G14G17G19G21G22G32
  20166613.602    20166620.961    20166619.352   105976476.7160   82578978.1890
  79138161.4650
  20514254.688    20514261.375    20514261.863   107803102.2070   84002495.7470
  80502359.8690
  24477761.445    24477768.160    24477771.379   128631531.0160  100232375.9900
  96056006.6230
  23237109.594    23237116.332    23237116.141   122111767.8230   95152152.2800
  91187450.0690
  22829511.492    22829516.180    22829520.266   119969865.6420   93483040.0530
  89587894.1920
  22518297.797    22518301.793                   118334451.2750   92208673.0920

  25249395.305    25249397.684                   132686453.5710  103392063.3480

  21579383.258    21579386.555                   113400462.0390   88364045.7180

  22850512.758    22850517.598                   120080241.3960   93569055.8850

  24378132.984    24378138.781    24378136.977   128107934.7200   99824417.5680
  95665046.6170
 22 12 25  2 18  0.0000000  0 10G01G03G04G08G14G17G19G21G22G32
  20168567.477    20168575.078    20168573.543   105986746.1410   82586980.3410
  79145830.1910
  20507025.875    20507032.613    20507033.012   107765114.4510   83972894.9120
  80473992.4050
  24457075.359    24457081.457    24457083.785   128522819.0391  100147665.4101
  95974825.6140
  23256282.117    23256289.086    23256288.867   122212523.5300   95230663.2210
  91262689.7050
  22837142.180    22837147.328    22837151.656   120009969.1280   93514289.5070
  89617841.5820
  22503023.047    22503027.098                   118254184.0320   92146127.1870

  25227758.977    25227760.902                   132572752.2140  103303464.8850

  21586931.211    21586934.367                   113440126.4860   88394953.0740

  22853017.359    22853021.516                   120093403.1960   93579311.8390

  24390515.586    24390522.930    24390521.031   128173012.4140   99875127.4460
  95713643.6280
 22 12 25  2 18 30.0000000  0 10G01G03G04G08G14G17G19G21G22G32
  20170582.906    20170589.977    20170588.461   105997335.0160   82595231.4040
  79153737.4700
  20499889.055    20499895.500    20499895.949   107727609.1710   83943670.0230
  80445985.2310
  24436387.695    24436394.270    24436396.133   128414106.2940  100062954.1730
  95893644.0550
  23275494.766    23275501.844    23275501.039   122313483.9940   95309333.7130
  91338082.2530
  22844867.563    22844872.773    22844877.004   120050566.2220   93545923.5540
  89648157.5440
  22487794.273    22487798.566                   118174155.8580   92083767.5760

  25206125.453    25206126.914                   132459065.5180  103214877.8020

  21594510.422    21594513.965                   113479957.1550   88425989.9530

  22855622.617    22855626.629                   120107092.3140   93589978.6910

  24402980.930    24402986.980    24402984.898   128238511.8060   99926165.9260
  95762555.4930
 22 12 25  2 19  0.0000000  0 10G01G03G04G08G14G17G19G21G22G32
  20172658.781    20172665.855    20172664.238   106008243.4210   82603731.4640
  79161883.3590
  20492843.734    20492850.355    20492850.883   107690586.5690   83914821.2430
  80418338.4920
  24415701.117    24415706.281    24415709.395   128305395.5801   99978244.5171
  95812463.9760
  23294745.477    23294752.375    23294751.770   122414647.5130   95388162.4110
  91413626.4460
  22852686.758    22852691.840    22852695.945   120091654.9480   93577940.7340
  89678840.6850
  22472611.266    22472615.391                   118094368.8950   92021595.9200

  25184494.938    25184496.441                   132345395.6470  103126303.8520

  21602121.844    21602125.133                   113519953.7080   88457156.0950

  22858328.016    22858331.484                   120121308.5140   93601056.2580

  24415524.406    24415530.945    24415528.410   128304430.8920   99977531.4820
  95811780.7810
 22 12 25  2 19 30.0000000  0 10G01G03G04G08G14G17G19G21G22G32
  20174795.336    20174802.434    20174800.793   106019471.2110   82612480.3980
  79170267.7460
  20485890.180    20485897.082    20485897.574   107654046.6970   83886348.6260
  80391052.2240
  24395014.266    24395020.977    24395023.250   128196689.6000   99893538.5820
  95731287.4440
  23314034.328    23314041.426    23314040.355   122516011.4720   95467147.3140
  91489320.2890
  22860599.148    22860603.891    22860607.953   120133233.1520   93610339.3330
  89709889.3340
  22457474.273    22457478.965                   118014825.2150   91959613.8370

  25162867.063    25162869.215                   132231744.5280  103037744.5610

  21609764.180    21609767.883                   113560115.9460   88488451.3400

  22861133.172    22861137.480                   120136051.4430   93612544.2740

  24428148.891    24428154.695    24428152.496   128370767.5550  100029222.3970
  95861317.8980
 22 12 25  2 20  0.0000000  0 10G01G03G04G08G14G17G19G21G22G32
  20176992.570    20176999.707    20176998.105   106031018.1400   82621478.0080
  79178890.4540
  20479028.953    20479035.508    20479036.113   107617989.4300   83858252.0650
  80364126.3620
  24374330.914    24374336.051    24374338.645   128087990.7470   99808838.1540
  95650116.2180
  23333361.094    23333368.281    23333367.613   122617574.5230   95546287.3480
  91565162.8270
  22868603.680    22868608.672    22868612.555   120175298.3840   93643117.4050
  89741301.6590
  22442384.477    22442388.871                   117935526.8230   91897822.8910

  25141244.578    25141246.074                   132118114.1090  102949201.3960

  21617438.359    21617441.801                   113600443.9390   88519875.7440

  22864038.570    22864042.602                   120151320.7220   93624442.4090

  24440850.484    24440856.977    24440855.387   128437519.5610  100081236.9440
  95911165.1840
 22 12 25  2 20 30.0000000  0 10G01G03G04G08G14G17G19G21G22G32
  20179250.555    20179257.895    20179256.242   106042884.4060   82630724.4560
  79187751.6360
  20472259.430    20472266.016    20472266.414   107582415.0640   83830531.7780
  80337561.1050
  24353648.102    24353653.453    24353655.898   127979302.0210   99724145.6490
  95568952.5640
  23352725.523    23352732.430    23352731.266   122719334.3080   95625580.6820
  91641152.2630
  22876700.859    22876705.469    22876709.566   120217848.7340   93676273.5040
  89773076.2500
  22427341.750    22427346.145                   117856476.1190   91836224.9410

  25119625.773    25119627.254                   132004506.9380  102860676.3320

  21625144.016    21625147.594                   113640937.2080   88551428.9350

  22867044.234    22867048.777                   120167116.0610   93636750.4900

  24453631.461    24453637.637    24453636.355   128504684.9640  100133573.6340
  95961321.1740
 22 12 25  2 21  0.0000000  0 10G01G03G04G08G14G17G19G21G22G32
  20181569.336    20181576.855    20181575.047   106055069.9690   82640219.6930
  79196851.2440
  20465581.836    20465588.344    20465588.848   107547323.6690   83803187.8440
  80311356.4930
  24332967.875    24332972.398    24332975.914   127870626.0610   99639463.0780
  95487798.4180
  23372126.945    23372133.918    23372132.609   122821289.3300   95705026.1500
  91717287.5130
  22884889.750    22884894.348    22884898.609   120260882.1240   93709805.9960
  89805211.5450
  22412346.461    22412350.840                   117777675.2970   91774821.7140

  25098011.844    25098013.566                   131890924.3300  102772170.4260

  21632881.422    21632884.957                   113681596.6940   88583111.6480

  22870149.664    22870154.473                   120183437.3970   93649468.4140

  24466490.984    24466497.469    24466496.203   128572261.8140  100186230.9110
  96011784.4100
 22 12 25  2 21 30.0000000  0 10G01G03G04G08G14G17G19G21G22G32
  20183949.000    20183956.375    20183954.578   106067574.7530   82649963.6810
  79206189.2340
  20458995.898    20459002.625    20459003.055   107512715.2070   83776220.2110
  80285512.5200
  24312289.313    24312295.469    24312298.918   127761965.5340   99554792.5450
  95406655.8570
  23391565.133    23391572.047    23391570.711   122923437.6030   95784622.1980
  91793567.0510
  22893170.469    22893174.770    22893179.137   120304396.2270   93743713.0660
  89837705.8380
  22397399.281    22397403.238                   117699126.7740   91713615.0690

  25076402.797    25076404.895                   131777369.1340  102683685.8570

  21640650.297    21640653.609                   113722422.2350   88614923.7580

  22873355.836    22873360.160                   120200284.0750   93662595.6990

  24479428.180    24479434.840    24479433.051   128640247.8710  100239207.0530
  96062553.2150
 22 12 25  2 22  0.0000000  0 10G01G03G04G08G14G17G19G21G22G32
  20186389.289    20186396.633    20186394.930   106080399.0210   82659956.6130
  79215765.7950
  20452502.414    20452508.785    20452509.359   107478590.0460   83749629.1750
  80260029.4500
  24291616.289    24291621.141    24291624.777   127653323.5440   99470136.4390
  95325527.0490
  23411039.352    23411046.855    23411045.875   123025777.4610   95864367.5340
  91869989.6540
  22901542.539    22901546.469    22901550.797   120348389.1710   93777993.2730
  89870557.6730
  22382500.320    22382504.383                   117620832.8400   91652606.8140

  25054800.367    25054801.598                   131663843.0470  102595223.9440

  21648450.875    21648454.270                   113763414.1180   88646865.4840

  22876661.547    22876665.941                   120217655.9250   93676132.2100

  24492443.742    24492449.430    24492448.000   128708641.3120  100292500.6330
  96113626.2430
 22 12 25  2 22 30.0000000  0 10G01G03G04G08G14G17G19G21G22G32
  20188890.813    20188897.902    20188896.129   106093542.6440   82670198.4030
  79225580.8470
  20446100.219    20446106.965    20446107.480   107444948.1160   83723414.6870
  80234907.2250
  24270945.508    24270951.008    24270955.672   127544702.6521   99385496.8211
  95244414.0910
  23430551.008    23430557.375    23430556.555   123128306.9160   95944260.6030
  91946553.8520
  22910004.266    22910008.660    22910013.141   120392858.6760   93812644.8190
  89903765.4100
  22367650.680    22367654.477                   117542795.4840   91591798.4910

  25033202.742    25033203.910                   131550348.4610  102506786.5960

  21656282.750    21656286.211                   113804572.2210   88678936.7260

  22880066.953    22880071.773                   120235552.5630   93690077.6580

  24505535.305    24505540.766    24505539.590   128777439.8960  100346109.9590
  96165001.8350
 22 12 25  2 23  0.0000000  0 10G01G03G04G08G14G17G19G21G22G32
  20191452.578    20191459.707    20191458.059   106107005.6390   82680689.0450
  79235634.3700
  20439790.664    20439797.082    20439797.566   107411789.4040   83697576.7380
  80210145.8760
  24250280.055    24250285.820    24250289.773   127436105.7200   99300875.8300
  95163318.9780
  23450096.023    23450103.711    23450102.547   123231024.0520   96024299.9210
  92023258.1960
  22918556.656    22918561.395    22918565.574   120437802.5010   93847665.9650
  89937327.3370
  22352849.797    22352853.762                   117465017.2370   91531192.0630

  25011611.344    25011612.848                   131436887.7840  102418375.6540

  21664146.500    21664150.070                   113845896.6560   88711137.5860

  22883572.344    22883577.074                   120253973.7050   93704431.7940

  24518703.078    24518710.027    24518708.574   128846641.6580  100400033.4010
  96216678.4530
 22 12 25  2 23 30.0000000  0 10G01G03G04G08G14G17G19G21G22G32
  20194075.195    20194082.605    20194080.672   106120787.9300   82691428.4990
  79245926.3420
  20433572.266    20433579.047    20433579.621   107379113.9450   83672115.3480
  80185745.3820
  24229620.234    24229625.730    24229629.680   127327535.4190   99216275.6030
  95082243.7500
  23469678.578    23469685.582    23469684.875   123333926.9270   96104483.9720
  92100101.2530
  22927198.867    22927203.934    22927207.840   120483218.3330   93883054.8790
  89971241.7090
  22338098.406    22338102.602                   117387500.3260   91470789.2740

  24990027.078    24990028.680                   131323462.8930  102329992.6430

  21672042.281    21672045.473                   113887387.3050   88743467.9610

  22887178.117    22887182.457                   120272918.9860   93719194.3480

  24531948.867    24531955.020    24531953.461   128916244.2860  100454269.1860
  96268654.4500
 22 12 25  2 24  0.0000000  0 10G01G03G04G08G14G17G19G21G22G32
  20196758.414    20196765.766    20196764.121   106134889.0680   82702416.3960
  79256456.4200
  20427446.477    20427452.891    20427453.508   107346921.2320   83647030.1200
  80161705.3710
  24208966.297    24208971.000    24208975.098   127218994.1340   99131697.9650
  95001190.1840
  23489295.063    23489302.742    23489301.422   123437013.5200   96184811.1830
  92177081.4820
  22935930.617    22935935.773    22935939.520   120529103.6160   93918809.6300
  90005506.7020
  22323397.984    22323401.953                   117310246.5080   91410591.4940

  24968451.742    24968451.992                   131210075.7190  102241638.9810

  21679969.148    21679972.168                   113929043.5280   88775927.3530

  22890882.148    22890886.852                   120292387.3850   93734364.5290

  24545269.203    24545275.512    24545274.355   128986245.3500  100508815.4680
  96320927.9370
 22 12 25  2 24 30.0000000  0 10G01G03G04G08G14G17G19G21G22G32
  20199502.969    20199510.023    20199508.289   106149309.4330   82713653.0470
  79267224.8820
  20421412.344    20421418.828    20421419.324   107315211.6580   83622321.3650
  80138026.1470
  24188317.023    24188322.941    24188326.793   127110484.9310   99047145.3460
  94920160.5560
  23508946.398    23508953.715    23508953.168   123540281.9020   96265280.0330
  92254197.4560
  22944751.234    22944756.418    22944760.137   120575456.3910   93954928.6590
  90040120.7380
  22308747.094    22308751.500                   117233258.3020   91350600.6810

  24946883.141    24946883.000                   131096728.7120  102153316.6060

  21687927.555    21687930.754                   113970866.1610   88808516.4110

  22894686.656    22894691.145                   120312378.8170   93749942.2880

  24558666.266    24558671.918    24558670.215   129056643.0030  100563670.7990
  96373497.6380
 22 12 25  2 25  0.0000000  0 10G01G03G04G08G14G17G19G21G22G32
  20202307.422    20202314.605    20202313.098   106164049.1070   82725138.5150
  79278231.7770
  20415470.281    20415476.758    20415477.238   107283985.2710   83597989.1220
  80114707.7510
  24167675.414    24167680.926    24167683.750   127002010.6230   98962619.8940
  94839157.0540
  23528631.781    23528639.426    23528638.262   123643730.2630   96345889.1600
  92331447.8350
  22953660.477    22953665.695    22953669.504   120622274.4530   93991410.2510
  90075082.2580
  22294148.023    22294151.941                   117156537.8450   91290818.5060

  24925320.375    24925321.758                   130983424.2440  102065027.5020

  21695917.586    21695921.195                   114012854.6070   88841234.6810

  22898590.625    22898594.707                   120332892.8370   93765927.2520

  24572137.164    24572142.723    24572141.938   129127435.2410  100618833.5790
  96426361.9750
 22 12 25  2 25 30.0000000  0 10G01G03G04G08G14G17G19G21G22G32
  20205172.875    20205180.324    20205178.680   106179107.9120   82736872.6470
  79289476.9920
  20409620.023    20409626.449    20409626.930   107253241.8600   83574033.2160
  80091750.0180
  24147040.313    24147045.781    24147048.922   126893573.9690   98878123.7940
  94758181.6160
  23548351.969    23548358.867    23548358.281   123747356.6670   96426636.9700
  92408831.1920
  22962657.633    22962662.645    22962666.840   120669555.3930   94028252.5070
  90110389.4480
  22279600.313    22279604.172                   117080087.5030   91231246.8200

  24903767.859    24903769.426                   130870164.4111  101976772.9771

  21703939.477    21703942.762                   114055009.7590   88874082.8520

  22902593.344    22902597.844                   120353928.8320   93782318.9460

  24585682.469    24585689.172    24585688.070   129198619.7140  100674302.0090
  96479519.2080
 22 12 25  2 26  0.0000000  0 10G01G03G04G08G14G17G19G21G22G32
  20208099.352    20208106.602    20208105.051   106194486.0070   82748855.5790
  79300960.6300
  20403861.070    20403868.125    20403868.633   107222981.5240   83550453.7390
  80069153.0100
  24126412.727    24126419.086    24126422.387   126785177.8800   98793659.3350
  94677236.4910
  23568104.695    23568111.547    23568110.816   123851158.9170   96507521.8440
  92486345.8480
  22971742.922    22971747.840    22971751.805   120717297.0220   94065453.7640
  90146040.6280
  22265104.047    22265107.930                   117003909.7130   91171887.5020

  24882224.023    24882225.496                   130756951.5300  101888555.2430

  21711992.758    21711996.648                   114097331.4260   88907060.7680

  22906695.609    22906700.383                   120375486.5380   93799117.1600

  24599303.125    24599309.367    24599308.395   129270194.4510  100730074.5120
  96532967.8770
 22 12 25  2 26 30.0000000  0 10G01G03G04G08G14G17G19G21G22G32
  20211086.531    20211093.684    20211092.070   106210183.1990   82761087.1640
  79312682.5630
  20398195.195    20398201.559    20398202.125   107193203.9690   83527250.4550
  80046916.5410
  24105794.406    24105800.391    24105803.449   126676824.9820   98709228.5040
  94596323.6090
  23587891.250    23587897.992    23587897.270   123955135.5450   96588542.5840
  92563990.7060
  22980914.914    22980920.000    22980923.988   120765496.8360   94103012.0220
  90182033.9450
  22250659.570    22250664.270                   116928006.6200   91112742.2420

  24860689.320    24860691.289                   130643787.6420  101800375.6210

  21720078.164    21720081.902                   114139819.9290   88940168.6830

  22910897.117    22910901.746                   120397565.1230   93816321.2500

  24612996.336    24613002.887    24613002.195   129342157.0860  100786149.3280
  96586706.2290
 22 12 25  2 27  0.0000000  0 10G01G03G04G08G14G17G19G21G22G32
  20214134.344    20214141.492    20214139.938   106226199.5890   82773567.4640
  79324642.8580
  20392620.180    20392626.984    20392627.504   107163909.2630   83504423.4160
  80025040.6310
  24085184.930    24085190.121    24085193.414   126568518.1230   98624833.5220
  94515445.0770
  23607709.711    23607716.488    23607715.914   124059284.1460   96669697.3280
  92641764.0300
  22990174.227    22990178.926    22990182.914   120814152.6060   94140925.5760
  90218367.7760
  22236268.789    22236272.750                   116852380.3400   91053812.6830

  24839165.117    24839166.844                   130530675.1730  101712236.0370

  21728194.953    21728198.984                   114182475.3630   88973406.6740

  22915197.875    22915202.168                   120420164.1300   93833930.8750

  24626764.555    24626770.410    24626769.621   129414505.5111  100842524.6931
  96640732.6280
 22 12 25  2 27 30.0000000  0 10G01G03G04G08G14G17G19G21G22G32
  20217242.766    20217250.098    20217248.449   106242535.0500   82786296.4010
  79336841.4170
  20387137.742    20387144.152    20387144.699   107135097.1330   83481972.4080
  80003525.0830
  24064583.422    24064589.414    24064592.379   126460259.9820   98540476.5090
  94434602.9670
  23627560.805    23627567.727    23627567.871   124163603.1170   96750984.8170
  92719664.5180
  22999519.266    22999524.035    22999528.008   120863261.8800   94179192.5190
  90255040.2360
  22221930.680    22221934.703                   116777032.8990   90995100.3830

  24817649.594    24817651.973                   130417616.2170  101624138.1420

  21736343.969    21736347.734                   114225297.5940   89006774.6470

  22919597.195    22919601.656                   120443283.1940   93851945.7380

  24640606.367    24640611.113    24640610.219   129487237.4970  100899198.9440
  96695045.4550
 22 12 25  2 28  0.0000000  0 10G01G03G04G08G14G17G19G21G22G32
  20220412.109    20220419.363    20220417.668   106259189.6320   82799273.9990
  79349278.2920
  20381746.648    20381753.223    20381753.801   107106767.5810   83459897.4330
  79982369.9010
  24043992.297    24043998.066    24044001.160   126352053.4840   98456159.7850
  94353799.4180
  23647444.852    23647450.984    23647450.309   124268090.0760   96832403.2280
  92797690.4940
  23008950.352    23008955.168    23008959.145   120912822.3400   94217811.0180
  90292049.6050
  22207645.797    22207649.996                   116701966.8140   90936607.3380

  24796148.992    24796148.793                   130304613.1850  101536083.8500

  21744524.680    21744528.352                   114268286.7060   89040272.6500

  22924095.313    22924099.805                   120466921.4270   93870365.1460

  24654518.422    24654524.578    24654523.277   129560350.8590  100956170.4050
  96749643.1380
 22 12 25  2 28 30.0000000  0 10G01G03G04G08G14G17G19G21G22G32
  20223642.320    20223649.406    20223647.719   106276163.2980   82812500.2290
  79361953.4360
  20376447.438    20376454.145    20376454.547   107078920.3790   83438198.3190
  79961574.9320
  24023410.961    24023418.063    24023420.473   126243901.4320   98371885.4660
  94273036.5390
  23667359.586    23667366.063    23667364.875   124372743.5200   96913951.3500
  92875840.7690
  23018466.711    23018471.473    23018475.559   120962831.5670   94256779.2040
  90329394.1290
  22193415.109    22193419.578                   116627184.3450   90878335.2940

  24774654.008    24774655.996                   130191668.1280  101448074.7000

  21752737.227    21752740.836                   114311442.7860   89073900.7570

  22928692.297    22928696.781                   120491078.1300   93889188.5460

  24668502.953    24668509.559    24668508.270   129633843.4140  101013437.3320
  96804523.9090
 22 12 25  2 29  0.0000000  0 10G01G03G04G08G14G17G19G21G22G32
  20226932.977    20226940.180    20226938.313   106293456.0710   82825975.1140
  79374866.8660
  20371240.117    20371246.695    20371247.129   107051555.4150   83416874.9790
  79941140.0580
  24002842.070    24002847.738    24002850.551   126135806.6280   98287655.7540
  94192316.4020
  23687305.445    23687311.641    23687311.898   124477561.3270   96995627.5780
  92954113.8060
  23028068.320    23028073.223    23028077.137   121013287.1310   94296095.1880
  90367071.9360
  22179238.875    22179243.188                   116552687.8210   90820286.0650

  24753172.625    24753174.602                   130078783.7130  101360112.8620

  21760980.930    21760984.625                   114354765.3550   89107658.5980

  22933387.680    22933392.430                   120515752.8370   93908415.6100

  24682560.359    24682566.586    24682565.035   129707712.8770  101070997.9610
  96859686.1970
 22 12 25  2 29 30.0000000  0 10G01G03G04G08G14G17G19G21G22G32
  20230284.109    20230291.543    20230289.730   106311067.7600   82839698.5120
  79388018.4480
  20366124.242    20366130.934    20366131.480   107024672.3480   83395927.1420
  79921065.0480
  23982283.766    23982289.215    23982292.305   126027771.7510   98203472.7100
  94111640.9720
  23707282.070    23707289.426    23707288.246   124582541.5970   97077430.3680
  93032508.1480
  23037753.961    23037759.195    23037763.086   121064186.5820   94335757.0830
  90405081.2150
  22165117.438    22165121.668                   116478479.4690   90762461.3850

  24731703.445    24731705.102                   129965962.1230  101272199.8910

  21769256.867    21769260.473                   114398254.9900   89141546.6240

  22938181.109    22938186.133                   120540944.7240   93928045.6390

  24696688.617    24696694.453    24696693.543   129781956.9140  101128850.4760
  96915128.1820
 22 12 25  2 30  0.0000000  0 10G01G03G04G08G14G17G19G21G22G32
  20233696.352    20233703.434    20233701.863   106328998.3760   82853670.4160
  79401408.2030
  20361100.258    20361107.020    20361107.555   106998271.0180   83375354.6790
  79901349.7780
  23961737.508    23961742.730    23961746.328   125919799.5610   98119338.5330
  94031012.4110
  23727290.164    23727296.953    23727296.102   124687682.6950   97159358.4840
  93111022.5840
  23047523.906    23047528.828    23047532.824   121115527.3650   94375762.8660
  90443420.1110
  22151051.758    22151055.672                   116404561.3240   90704862.8360

  24710246.625    24710248.648                   129853205.5250  101184337.6340

  21777564.672    21777568.117                   114441911.7830   89175564.8980

  22943073.680    22943077.828                   120566653.1160   93948078.1730

  24710887.438    24710893.703    24710892.395   129856573.3570  101186993.1600
  96970848.2400
