     2.11           OBSERVATION DATA    M (MIXED)           RINEX VERSION / TYPE
Mdb2Rinex 5.6.29X   Unknown             20230302 164126 UTC PGM / RUN BY / DATE
gfzrnx-1.15-8044    HEADER EDIT         20230217 033606 UTC COMMENT
SNR is mapped to RINEX snr flag value [1-9]                 COMMENT
LX:     < 12dBHz -> 1; 12-17dBHz -> 2; 18-23dBHz -> 3       COMMENT
       24-29dBHz -> 4; 30-35dBHz -> 5; 36-41dBHz -> 6       COMMENT
       42-47dBHz -> 7; 48-53dBHz -> 8; >= 54dBHz -> 9       COMMENT
Map of observations from RINEX 3 to RINEX 2.11              COMMENT
 G: C1C->C1 C2W->P2 C5Q->C5 L1C->L1 L2W->L2 L5Q->L5         COMMENT
MAD1                                                        MARKER NAME
IGN & CAM           Unknown                                 OBSERVER / AGENCY
1833575             LEICA GR50          4.61/7.811          REC # / TYPE / VERS
Unknown             LEIAR20         LEIM                    ANT # / TYPE
  4854006.8637  -312714.6848  4112992.0029                  APPROX POSITION XYZ
        0.0350        0.0000        0.0000                  ANTENNA: DELTA H/E/N
     6    C1    P2    C5    L1    L2    L5                  # / TYPES OF OBSERV
    30.000                                                  INTERVAL
  2023    02    16    00    00   00.0000000     GPS         TIME OF FIRST OBS
  2023    02    16    23    59   30.0000000     GPS         TIME OF LAST OBS
    30                                                      # OF SATELLITES
   G01   905   905   906   897   897   906                  PRN / # OF OBS
   G02  1149  1144        1144  1142                        PRN / # OF OBS
   G03   869   869   871   867   867   871                  PRN / # OF OBS
   G04  1018  1013  1025  1012  1009  1025                  PRN / # OF OBS
   G05  1020  1020        1017  1017                        PRN / # OF OBS
   G06  1053  1053  1058  1049  1049  1058                  PRN / # OF OBS
   G07  1094  1083        1088  1080                        PRN / # OF OBS
   G08   863   863   865   862   862   865                  PRN / # OF OBS
   G09   854   854   857   852   852   857                  PRN / # OF OBS
   G10  1131  1129  1114  1125  1124  1114                  PRN / # OF OBS
   G11  1102  1101  1106  1098  1098  1106                  PRN / # OF OBS
   G12   867   867         865   865                        PRN / # OF OBS
   G13   901   899         901   899                        PRN / # OF OBS
   G14  1160  1154  1163  1150  1148  1163                  PRN / # OF OBS
   G15   829   829         828   828                        PRN / # OF OBS
   G16   901   857         888   855                        PRN / # OF OBS
   G17  1127  1127        1124  1124                        PRN / # OF OBS
   G18  1082  1079  1067  1076  1075  1067                  PRN / # OF OBS
   G19  1147  1147        1142  1142                        PRN / # OF OBS
   G20   941   905         930   901                        PRN / # OF OBS
   G21   946   943         941   939                        PRN / # OF OBS
   G23  1132  1131  1130  1126  1126  1130                  PRN / # OF OBS
   G24   888   888   890   878   878   890                  PRN / # OF OBS
   G25   907   903   913   894   893   913                  PRN / # OF OBS
   G26   848   848   861   847   847   861                  PRN / # OF OBS
   G27   896   894   897   891   891   897                  PRN / # OF OBS
   G29   968   968         966   966                        PRN / # OF OBS
   G30   986   982   989   973   970   989                  PRN / # OF OBS
   G31  1044  1044        1042  1042                        PRN / # OF OBS
   G32  1143  1143  1146  1139  1139  1146                  PRN / # OF OBS
                                                            END OF HEADER
 23  2 16  0  0  0.0000000  0 10G01G03G04G06G09G14G17G19G21G31
  20989370.420    20989372.660    20989371.580   110300316.3130   85948460.9900
  82367207.2030
  20435838.580    20435840.200    20435840.100   107391396.4920   83681808.2540
  80195022.3840
  21385883.340    21385884.060    21385887.780   112383914.4100   87572056.1710
  83923143.2280
  24370087.560    24370091.140    24370091.820   128065675.1860   99791446.6380
  95633480.9670
  23597365.160    23597369.100    23597369.520   124005278.2130   96627597.5950
  92601485.4670
  25136935.140    25136940.800    25136947.860   132095474.4760  102931554.3320
  98642700.1700
  21197108.460    21197107.540                   111391592.6360   86798661.8040

  22403342.340    22403339.800                   117730357.0140   91737928.7840

  22828006.860    22828006.140                   119962687.7990   93477321.9670

  24534864.840    24534865.160                   128931604.3580  100466192.0600

 23  2 16  0  0 30.0000000  0 10G01G03G04G06G09G14G17G19G21G31
  20999379.520    20999381.700    20999380.760   110352914.1860   85989446.3320
  82406484.8240
  20440093.040    20440094.720    20440094.560   107413754.0300   83699229.7160
  80211717.9420
  21371982.560    21371983.380    21371987.120   112310865.6230   87515135.0750
  83868593.8470
  24352446.220    24352449.640    24352450.520   127972969.1000   99719208.1490
  95564252.4200
  23576377.100    23576381.080    23576381.440   123894986.6480   96541656.3030
  92519125.0930
  25152017.660    25152023.160    25152030.520   132174731.5880  102993312.6440
  98701885.0890
  21192880.340    21192879.420                   111369373.6210   86781348.2850

  22388118.220    22388115.580                   117650353.3950   91675588.3200

  22839993.460    22839992.860                   120025677.8460   93526405.0860

  24531626.000    24531626.360                   128914584.5560  100452929.9100

 23  2 16  0  1  0.0000000  0 10G01G03G04G06G09G14G17G19G21G31
  21009451.780    21009453.900    21009453.120   110405844.2440   86030690.5120
  82446010.5020
  20444409.660    20444411.360    20444411.200   107436438.1030   83716905.6170
  80228657.3430
  21358165.060    21358166.020    21358169.840   112238254.8110   87458555.2570
  83814371.5270
  24334803.040    24334806.220    24334807.340   127880252.5680   99646961.4860
  95495016.0850
  23555418.220    23555422.200    23555422.560   123784847.8860   96455834.0890
  92436878.8540
  25167104.940    25167110.500    25167117.960   132254013.9530  103055090.6090
  98761088.8820
  21188754.420    21188753.420                   111347691.4310   86764453.0660

  22372978.500    22372975.900                   117570794.0470   91613594.0460

  22852019.380    22852018.920                   120088874.5880   93575649.2640

  24528486.340    24528486.700                   128898086.2310  100440074.1070

 23  2 16  0  1 30.0000000  0 10G01G03G04G06G09G14G17G19G21G31
  21019586.900    21019589.020    21019588.220   110459104.6350   86072192.1010
  82485782.8450
  20448787.860    20448789.520    20448789.500   107459445.8860   83734833.7580
  80245838.4870
  21344431.060    21344432.000    21344435.980   112166082.4980   87402317.1250
  83760476.6570
  24317157.360    24317160.900    24317161.940   127787525.0630   99574706.2970
  95425771.4980
  23534488.620    23534492.540    23534493.060   123674862.8080   96370131.6090
  92354747.3600
  25182196.160    25182201.820    25182209.180   132333317.0940  103116884.7750
  98820308.1460
  21184730.540    21184729.520                   111326545.6280   86747975.8150

  22357923.540    22357921.080                   117491680.1660   91551946.8940

  22864084.240    22864083.880                   120152275.5400   93625052.5660

  24525446.060    24525446.440                   128882109.0940  100427624.4190

 23  2 16  0  2  0.0000000  0 10G01G03G04G06G09G14G17G19G21G31
  21029784.980    21029787.200    21029786.420   110512696.1200   86113951.6750
  82525802.4330
  20453227.680    20453229.280    20453229.380   107482777.2050   83753014.0110
  80263261.2280
  21330781.080    21330781.980    21330786.020   112094351.7240   87346423.0440
  83706911.5040
  24299510.180    24299513.700    24299514.740   127694788.4980   99502444.0700
  95356520.1810
  23513588.960    23513592.780    23513593.400   123565034.8520   96284551.5660
  92272733.1760
  25197290.960    25197296.720    25197304.180   132412638.9800  103178693.4820
  98879541.3690
  21180809.120    21180808.060                   111305938.3060   86731918.1620

  22342954.060    22342951.760                   117413015.6190   91490649.8740

  22876188.200    22876187.720                   120215881.8240   93674615.8780

  24522505.320    24522505.880                   128866655.3770  100415582.6070

 23  2 16  0  2 30.0000000  0 10G01G03G04G06G09G14G17G19G21G31
  21040045.600    21040047.800    21040047.120   110566615.8470   86155967.0250
  82566067.1410
  20457728.320    20457729.880    20457730.140   107506428.2650   83771443.4080
  80280922.7350
  21317215.060    21317215.940    21317219.840   112023062.0340   87290872.6650
  83653675.7330
  24281860.980    24281864.540    24281865.460   127602041.3290   99430173.5520
  95287260.9310
  23492719.180    23492722.840    23492723.580   123455363.8390   96199093.8010
  92190836.1880
  25212388.460    25212394.180    25212401.640   132491974.1060  103240512.5300
  98938784.4860
  21176989.740    21176988.660                   111285867.2680   86716278.3980

  22328070.080    22328067.920                   117334800.4960   91429703.0570

  22888330.680    22888330.040                   120279690.4830   93724336.8840

  24519663.920    24519664.480                   128851724.2610  100403947.9970

 23  2 16  0  3  0.0000000  0 10G01G03G04G06G09G14G17G19G21G31
  21050369.780    21050371.940    21050371.340   110620869.7430   86198242.7690
  82606581.3950
  20462290.760    20462292.280    20462292.660   107530404.0330   83790125.8250
  80298826.7180
  21303734.580    21303735.480    21303739.080   111952221.6090   87235672.3690
  83600775.4520
  24264211.100    24264214.800    24264215.580   127509290.7780   99357900.3890
  95217999.1660
  23471880.880    23471884.380    23471885.220   123345858.3300   96113764.9990
  92109062.7980
  25227489.000    25227494.840    25227502.320   132571325.6810  103302344.3640
  98998039.8570
  21173273.820    21173272.720                   111266339.8950   86701062.2610

  22313273.380    22313271.280                   117257043.6260   91369113.3170

  22900512.780    22900512.060                   120343707.6870   93774220.3790

  24516923.540    24516923.960                   128837323.0490  100392726.3230

 23  2 16  0  3 30.0000000  0 10G01G03G04G06G09G14G17G19G21G31
  21060756.000    21060758.120    21060757.580   110675449.7180   86240772.5980
  82647339.1540
  20466913.260    20466914.720    20466915.200   107554695.4690   83809054.2200
  80316966.4310
  21290338.480    21290339.420    21290342.740   111881824.6710   87180817.6450
  83548206.3580
  24246559.440    24246562.980    24246563.740   127416530.0080   99285619.2850
  95148729.7700
  23451072.960    23451076.400    23451077.320   123236512.9570   96028560.9750
  92027408.9670
  25242590.480    25242596.520    25242604.200   132650682.9670  103364180.6110
  99057299.4890
  21169660.000    21169658.960                   111247349.3220   86686264.4140

  22298562.940    22298560.840                   117179740.0230   91308876.7720

  22912733.180    22912732.360                   120407925.8180   93824260.4460

  24514282.820    24514283.100                   128823445.3070  100381912.5160

 23  2 16  0  4  0.0000000  0 10G01G03G04G06G09G14G17G19G21G31
  21071205.480    21071207.560    21071207.060   110730361.7730   86283561.1990
  82688344.8890
  20471596.840    20471598.140    20471598.700   107579307.6400   83828232.5380
  80335345.6460
  21277028.400    21277029.260    21277032.380   111811879.5160   87126314.9570
  83495974.6200
  24228907.160    24228910.560    24228911.400   127323766.3300   99213335.9090
  95079458.1980
  23430297.180    23430300.580    23430301.520   123127336.4060   95943488.5010
  91945881.2190
  25257693.900    25257700.000    25257707.760   132730049.3500  103426023.9420
  99116565.8910
  21166149.640    21166148.640                   111228902.5360   86671890.2960

  22283940.520    22283938.380                   117102898.6580   91249000.4080

  22924993.000    22924992.000                   120472350.9640   93874461.8360

  24511742.820    24511743.220                   128810098.3310  100371512.3140

 23  2 16  0  4 30.0000000  0 10G01G03G04G06G09G14G17G19G21G31
  21081717.120    21081719.280    21081718.760   110785601.1470   86326604.8390
  82729595.0420
  20476340.340    20476341.520    20476342.140   107604234.8560   83847656.3460
  80353960.1330
  21263803.780    21263804.560    21263807.560   111742383.6970   87072162.4040
  83444078.4270
  24211253.680    24211256.900    24211257.820   127230996.3120   99141047.5670
  95010181.9020
  23409553.240    23409556.520    23409557.420   123018326.6040   95858545.9580
  91864477.9700
  25272797.620    25272803.660    25272811.840   132809417.3880  103487868.5070
  99175833.4950
  21162742.120    21162741.140                   111210996.0640   86657937.1980

  22269405.800    22269403.600                   117026517.9130   91189482.9670

  22937291.060    22937290.020                   120536977.8550   93924820.4220

  24509303.440    24509303.840                   128797278.9900  100361523.2440

 23  2 16  0  5  0.0000000  0 10G01G03G04G06G09G14G17G19G21G31
  21092291.480    21092293.580    21092293.020   110841169.4850   86369904.8240
  82771090.8510
  20481143.960    20481145.080    20481145.620   107629477.8160   83867326.1870
  80372810.3970
  21250665.420    21250666.140    21250669.020   111673341.1020   87018363.0120
  83392520.6830
  24193599.520    24193602.660    24193603.620   127138222.8960   99068756.6040
  94940903.0490
  23388841.820    23388844.980    23388845.820   122909487.8620   95773736.6980
  91783202.4640
  25287901.400    25287907.740    25287915.860   132888786.1590  103549713.6810
  99235101.5980
  21159437.960    21159437.040                   111193632.6040   86644407.2290

  22254959.640    22254957.320                   116950602.2970   91130327.9680

  22949627.920    22949627.040                   120601808.6990   93975337.9300

  24506965.000    24506965.460                   128784990.3470  100351947.7130

 23  2 16  0  5 30.0000000  0 10G01G03G04G06G09G14G17G19G21G31
  21102928.800    21102930.940    21102930.280   110897068.6580   86413462.6030
  82812833.7220
  20486007.840    20486008.920    20486009.380   107655037.5680   83887242.8750
  80391897.2240
  21237614.100    21237614.820    21237617.660   111604755.9340   86964920.0570
  83341304.5270
  24175945.240    24175948.440    24175949.460   127045449.4200   98996465.5760
  94871624.1580
  23368163.840    23368166.920    23368167.720   122800824.8530   95689064.3690
  91702058.1920
  25303005.240    25303011.640    25303020.020   132968154.9390  103611558.8070
  99294369.6910
  21156237.740    21156236.840                   111176815.2210   86631302.7770

  22240602.960    22240600.600                   116875157.0560   91071539.4890

  22962004.100    22962003.300                   120666845.5940   94026015.9950

  24504728.100    24504728.600                   128773235.8920  100342788.4230

 23  2 16  0  6  0.0000000  0 10G01G03G04G06G09G14G17G19G21G31
  21113628.680    21113630.840    21113630.180   110953296.7470   86457276.6670
  82854822.2050
  20490931.460    20490932.480    20490932.880   107680911.1790   83907404.1260
  80411218.4220
  21224649.900    21224650.620    21224653.560   111536628.4850   86911833.7610
  83290430.1670
  24158290.880    24158294.120    24158295.200   126952675.2080   98924173.9860
  94802344.7220
  23347519.420    23347522.460    23347523.160   122692338.2670   95604529.5020
  91621045.6500
  25318108.340    25318114.720    25318123.280   133047519.0170  103673400.2830
  99353634.3170
  21153141.340    21153140.420                   111160543.2620   86618623.3240

  22226335.900    22226333.540                   116800182.7740   91013117.9910

  22974419.120    22974418.400                   120732086.6880   94076853.1680

  24502592.800    24502593.140                   128762015.1640  100334045.0220

 23  2 16  0  6 30.0000000  0 10G01G03G04G06G09G14G17G19G21G31
  21124390.600    21124392.580    21124392.080   111009850.6970   86501344.6730
  82897054.0350
  20495914.000    20495915.040    20495915.380   107707094.7640   83927806.9210
  80430771.0970
  21211772.540    21211773.320    21211776.500   111468957.9930   86859103.5380
  83239897.0380
  24140636.200    24140639.360    24140640.380   126859898.6370   98851880.5420
  94733063.5420
  23326908.500    23326911.600    23326912.260   122584027.8470   95520131.9220
  91540164.6620
  25333209.500    25333215.760    25333224.740   133126872.9460  103735233.8100
  99412891.3030
  21150148.360    21150147.440                   111144814.8300   86606367.4070

  22212158.380    22212156.040                   116725679.1640   90955063.2590

  22986872.320    22986871.660                   120797528.5750   94127846.8130

  24500558.760    24500558.840                   128751326.5140  100325716.2180

 23  2 16  0  7  0.0000000  0 10G01G03G04G06G09G14G17G19G21G31
  21135215.360    21135217.380    21135216.900   111066735.2980   86545670.3170
  82939532.7680
  20500956.280    20500957.320    20500957.600   107733592.1290   83948454.2190
  80450558.0940
  21198983.460    21198984.280    21198987.780   111401751.4230   86806734.8180
  83189710.3570
  24122982.240    24122985.220    24122986.180   126767125.9180   98779590.0910
  94663785.1650
  23306332.520    23306335.640    23306336.280   122475901.0070   95435877.3730
  91459420.7580
  25348309.200    25348315.520    25348324.440   133206218.8080  103797061.0180
  99472142.2470
  21147259.880    21147258.960                   111129635.5180   86594539.3720

  22198071.880    22198069.620                   116651654.3460   90897381.6110

  22999364.600    22999363.980                   120863175.7550   94179000.4190

  24498627.100    24498627.180                   128741176.2530  100317806.9460

 23  2 16  0  7 30.0000000  0 10G01G03G04G06G09G14G17G19G21G31
  21146102.380    21146104.460    21146103.960   111123946.9790   86590250.8250
  82982255.7490
  20506057.400    20506058.560    20506058.700   107760398.9190   83969342.6310
  80470576.1560
  21186282.460    21186283.300    21186287.040   111335007.5250   86754726.6160
  83139869.1740
  24105328.480    24105331.220    24105332.320   126674354.7490   98707300.8510
  94594508.0420
  23285791.400    23285794.540    23285795.140   122367957.0010   95351765.2880
  91378813.3680
  25363406.060    25363412.620    25363421.320   133285550.6100  103858877.2780
  99531382.6350
  21144475.400    21144474.500                   111115003.0350   86583137.4370

  22184076.360    22184074.140                   116578107.7680   90840072.6240

  23011895.520    23011894.800                   120929025.8790   94230312.1720

  24496797.500    24496797.640                   128731561.9870  100310315.3450

 23  2 16  0  8  0.0000000  0 10G01G03G04G06G09G14G17G19G21G31
  21157051.720    21157053.860    21157053.240   111181486.0550   86635086.4520
  83025223.2110
  20511217.300    20511218.540    20511218.560   107787514.5100   83990471.6630
  80490824.8120
  21173670.000    21173670.880    21173674.760   111268728.8270   86703080.9060
  83090375.3760
  24087675.380    24087678.140    24087679.240   126581587.1140   98635014.3540
  94525233.4710
  23265285.700    23265288.740    23265289.300   122260198.8090   95267797.9920
  91298344.7470
  25378499.840    25378506.640    25378515.240   133364865.9870  103920680.6940
  99590610.7700
  21141795.220    21141794.260                   111100918.5990   86572162.5520

  22170172.420    22170170.200                   116505042.5950   90783138.7460

  23024465.160    23024464.260                   120995079.5100   94281782.5050

  24495070.380    24495070.500                   128722485.6650  100303242.9130

 23  2 16  0  8 30.0000000  0 10G01G03G04G06G09G14G17G19G21G31
  21168062.940    21168065.200    21168064.400   111239350.5400   86680175.6330
  83068433.6880
  20516435.460    20516436.740    20516436.660   107814936.0820   84011839.1230
  80511301.9630
  21161146.180    21161146.960    21161150.980   111202915.5560   86651797.8680
  83041229.1320
  24070022.700    24070025.680    24070026.640   126488822.3450   98562730.1370
  94455961.0690
  23244815.460    23244818.460    23244818.980   122152627.2320   95183976.1020
  91218015.4700
  25393589.780    25393596.280    25393605.340   133444160.4810  103982467.7940
  99649823.2940
  21139219.240    21139218.220                   111087381.6460   86561614.2770

  22156360.300    22156358.080                   116432460.0560   90726580.9500

  23037072.980    23037072.000                   121061334.2120   94333409.5160

  24493445.520    24493445.640                   128713946.3800  100296588.9470

 23  2 16  0  9  0.0000000  0 10G01G03G04G06G09G14G17G19G21G31
  21179136.940    21179139.180    21179138.320   111297544.3380   86725521.4330
  83111890.0800
  20521712.420    20521713.700    20521713.640   107842666.5310   84033447.2650
  80532009.7580
  21148712.060    21148712.720    21148716.820   111137573.7170   86600882.1760
  82992434.9310
  24052371.460    24052374.600    24052375.300   126396065.6270   98490452.1610
  94386694.7100
  23224381.880    23224384.880    23224385.360   122045248.7460   95100304.6710
  91137830.3880
  25408675.920    25408682.480    25408691.580   133523435.4690  104044239.7340
  99709021.1570
  21136748.220    21136747.120                   111074396.3010   86551495.8240

  22142641.440    22142639.180                   116360367.1910   90670404.7200

  23049719.860    23049718.880                   121127793.7650   94385196.1460

  24491923.760    24491924.180                   128705949.5400  100290357.6720

 23  2 16  0  9 30.0000000  0 10G01G03G04G06G09G14G17G19G21G31
  21190272.480    21190274.680    21190273.860   111356061.7010   86771119.3600
  83155588.0950
  20527046.940    20527048.240    20527048.260   107870699.4940   84055291.1290
  80552943.4720
  21136367.060    21136367.520    21136371.700   111072699.9910   86550331.2500
  82943990.3090
  24034721.300    24034724.420    24034724.760   126303313.1350   98418177.4850
  94317431.4200
  23203984.620    23203987.600    23203988.020   121938060.6240   95016781.5670
  91057787.4410
  25423756.760    25423763.540    25423772.720   133602682.7620  104105990.0420
  99768198.3770
  21134381.380    21134380.240                   111061958.4520   86541803.9940

  22129015.120    22129012.880                   116288760.6780   90614607.4630

  23062404.760    23062403.760                   121194453.0750   94437138.4290

  24490504.580    24490504.820                   128698490.9820  100284545.8490

 23  2 16  0 10  0.0000000  0 10G01G03G04G06G09G14G17G19G21G31
  21201470.020    21201472.320    21201471.460   111414905.5600   86816971.6990
  83199529.9140
  20532439.340    20532440.680    20532440.880   107899036.9100   84077372.2360
  80574104.5270
  21124112.040    21124112.400    21124116.560   111008299.3530   86500148.9670
  82895898.9620
  24017072.560    24017075.880    24017076.160   126210568.9190   98345909.2460
  94248174.4050
  23183624.600    23183627.640    23183627.920   121831068.4060   94933411.1190
  90977890.7790
  25438832.420    25438839.420    25438848.580   133681902.7740  104167719.0600
  99827355.2240
  21132119.440    21132118.320                   111050071.8430   86532541.6990

  22115482.480    22115480.240                   116217646.2640   90559193.6630

  23075128.080    23075127.120                   121261314.8540   94489238.4900

  24489188.460    24489188.580                   128691574.7400  100279156.5930

 23  2 16  0 10 30.0000000  0 10G01G03G04G06G09G14G17G19G21G31
  21212730.180    21212732.600    21212731.660   111474078.1400   86863080.1860
  83243717.2060
  20537889.920    20537891.320    20537891.660   107927680.1720   84099691.6570
  80595493.9800
  21111947.880    21111948.220    21111952.180   110944376.2610   86450338.7980
  82848164.2230
  23999426.360    23999429.560    23999429.900   126117836.8860   98273650.5120
  94178926.4180
  23163302.700    23163305.920    23163306.080   121724277.0340   94850197.1770
  90898144.1240
  25453902.900    25453909.820    25453919.240   133761095.2310  104229426.6340
  99886491.4230
  21129963.100    21129961.960                   111038740.2180   86523711.8570

  22102044.580    22102042.320                   116147029.7150   90504167.8070

  23087890.380    23087889.480                   121328381.0650   94541497.8420

  24487976.200    24487976.260                   128685204.3290  100274192.6680

 23  2 16  0 11  0.0000000  0 10G01G03G04G06G09G14G17G19G21G31
  21224051.700    21224054.240    21224053.320   111533573.0740   86909439.8530
  83288145.2080
  20543397.340    20543398.780    20543399.240   107956622.1040   84122243.8080
  80617106.4560
  21099873.780    21099874.180    21099877.840   110880926.5080   86400897.4590
  82800782.9450
  23981781.460    23981784.620    23981785.060   126025112.0900   98201397.4320
  94109683.8990
  23143018.400    23143021.680    23143021.720   121617682.9430   94767136.9640
  90818544.7700
  25468966.480    25468973.500    25468983.040   133840251.3310  104291105.8480
  99945600.4690
  21127911.200    21127910.020                   111027957.3290   86515309.6070

  22088700.760    22088698.400                   116076907.3830   90449527.0540

  23100690.660    23100689.840                   121395646.4230   94593912.3840

  24486866.940    24486866.940                   128679375.0100  100269650.3500

 23  2 16  0 11 30.0000000  0 10G01G03G04G06G09G14G17G19G21G31
  21235435.220    21235437.780    21235436.920   111593393.8300   86956053.4090
  83332816.5270
  20548962.120    20548963.580    20548964.060   107985865.3220   84145030.7290
  80638943.9260
  21087890.840    21087891.300    21087894.680   110817955.7200   86351829.3430
  82753759.3400
  23964139.000    23964142.100    23964142.580   125932399.6150   98129153.9510
  94040450.5530
  23122772.720    23122776.100    23122776.000   121511292.3330   94684235.3000
  90739097.3560
  25484023.280    25484030.400    25484040.400   133919372.1010  104352757.4300
 100004683.0490
  21125964.640    21125963.440                   111017728.0220   86507338.7180

  22075452.220    22075449.860                   116007285.9830   90395276.6390

  23113529.380    23113528.580                   121463114.0490   94646484.5240

  24485861.440    24485861.380                   128674091.2770  100265533.1840

 23  2 16  0 12  0.0000000  0 10G01G03G04G06G09G14G17G19G21G31
  21246880.460    21246882.880    21246881.960   111653538.4520   87002919.3340
  83377729.7050
  20554583.740    20554585.200    20554585.680   108015407.0930   84168050.2870
  80661004.3370
  21075999.080    21075999.600    21076002.740   110755464.1310   86303134.6250
  82707093.5770
  23946498.740    23946501.880    23946502.320   125839699.1260   98056919.8100
  93971226.1360
  23102566.020    23102569.340    23102569.140   121405106.0650   94601492.8660
  90659802.5410
  25499072.580    25499079.720    25499089.980   133998527.0871  104414465.0111
 100063735.9180
  21124123.200    21124122.040                   111008051.1970   86499798.3310

  22062299.120    22062296.800                   115938166.0940   90341417.0140

  23126406.220    23126405.460                   121530782.1850   94699212.9040

  24484959.640    24484959.640                   128669352.3930  100261840.5950

 23  2 16  0 12 30.0000000  0 10G01G03G04G06G09G14G17G19G21G31
  21258388.620    21258391.080    21258390.000   111714014.2780   87050043.3310
  83422890.1990
  20560263.460    20560264.900    20560265.240   108045254.0150   84191307.6310
  80683292.6220
  21064200.280    21064200.840    21064203.900   110693461.1820   86254820.6650
  82660792.7080
  23928862.500    23928865.580    23928866.060   125747019.4050   97984701.8640
  93902017.2480
  23082400.060    23082403.420    23082403.160   121299134.1680   94518917.4740
  90580667.8060
  25514115.160    25514122.400    25514133.040   134077573.2490  104476058.4880
 100122762.7600
  21122388.480    21122387.360                   110998935.2640   86492695.0040

  22049243.360    22049241.040                   115869557.8010   90287956.0310

  23139322.620    23139321.680                   121598658.2830   94752103.3290

  24484163.100    24484163.180                   128665167.0070  100258579.2710

 23  2 16  0 13  0.0000000  0 10G01G03G04G06G09G14G17G19G21G31
  21269956.240    21269958.680    21269957.560   111774802.4920   87097410.7480
  83468283.9710
  20565997.440    20565998.920    20565999.100   108075386.2390   84214787.2830
  80705793.9540
  21052491.320    21052491.900    21052494.940   110631930.2340   86206874.4990
  82614844.2990
  23911226.840    23911229.920    23911230.600   125654343.2970   97912486.7170
  93832811.0710
  23062271.840    23062275.280    23062275.100   121193360.6450   94436496.6580
  90501681.2110
  25529147.300    25529154.240    25529165.520   134156563.3950  104537608.3350
 100181747.7720
  21120757.080    21120755.940                   110990362.2590   86486014.7380

  22036282.000    22036279.720                   115801445.6970   90234881.6930

  23152274.960    23152273.860                   121666723.5540   94805141.1830

  24483468.440    24483468.780                   128661517.6400  100255735.6370

 23  2 16  0 13 30.0000000  0 10G01G03G04G06G09G14G17G19G21G31
  21281586.600    21281588.900    21281587.760   111835920.1340   87145034.8720
  83513923.7550
  20571788.860    20571790.360    20571790.380   108105820.1780   84238502.0410
  80728520.5980
  21040875.800    21040876.420    21040879.520   110570890.4590   86159311.0620
  82569262.6800
  23893595.520    23893598.560    23893599.260   125561689.4650   97840288.9500
  93763621.5230
  23042185.220    23042188.720    23042188.660   121087805.3330   94354245.8760
  90422857.5590
  25544171.500    25544178.420    25544190.200   134235512.2580  104599125.8870
 100240701.8520
  21119232.360    21119231.220                   110982350.0690   86479771.4660

  22023418.880    22023416.620                   115733849.6790   90182209.4960

  23165266.580    23165265.340                   121734995.2620   94858339.8940

  24482879.340    24482879.620                   128658422.3160  100253323.7360

 23  2 16  0 14  0.0000000  0 10G01G03G04G06G09G14G17G19G21G31
  21293278.580    21293280.800    21293279.540   111897361.5460   87192911.2750
  83559805.3050
  20577636.440    20577638.020    20577637.880   108136549.3580   84262446.8560
  80751467.7150
  21029353.020    21029353.680    21029356.920   110510338.2720   86112127.5690
  82524045.1710
  23875967.520    23875970.400    23875971.360   125469053.7760   97768105.3080
  93694445.5490
  23022139.640    23022143.120    23022143.240   120982465.3050   94272162.8430
  90344194.6800
  25559186.300    25559193.160    25559205.120   134314411.6620  104660604.8800
 100299619.0900
  21117813.440    21117812.340                   110974893.8260   86473961.3970

  22010653.460    22010651.240                   115666767.1040   90129937.3900

  23178296.260    23178295.060                   121803467.2050   94911694.6260

  24482394.840    24482395.200                   128655876.6560  100251340.1450

 23  2 16  0 14 30.0000000  0 10G01G03G04G06G09G14G17G19G21G31
  21305031.540    21305033.720    21305032.460   111959123.2160   87241037.2330
  83605926.0150
  20583539.380    20583540.940    20583540.820   108167569.4640   84286618.3680
  80774632.0820
  21017922.760    21017923.460    21017926.840   110450272.2920   86065322.9350
  82479190.7290
  23858342.660    23858345.440    23858346.520   125376434.3880   97695934.3590
  93625281.7300
  23002134.940    23002138.320    23002138.580   120877339.8620   94190247.0170
  90265692.0340
  25574190.840    25574197.540    25574209.880   134393255.9080  104722040.9450
 100358495.0010
  21116499.840    21116498.780                   110967990.9740   86468582.5500

  21997985.600    21997983.360                   115600197.1350   90078064.7130

  23191363.620    23191362.400                   121872136.7630   94965203.3380

  24482014.580    24482015.020                   128653878.4760  100249783.1450

 23  2 16  0 15  0.0000000  0 10G01G03G04G06G09G14G17G19G21G31
  21316845.860    21316848.060    21316846.960   112021207.5680   87289414.6340
  83652287.6890
  20589498.020    20589499.480    20589499.500   108198882.2100   84311017.9110
  80798014.9790
  21006585.900    21006586.580    21006590.140   110390697.0770   86018900.7180
  82434702.7790
  23840721.600    23840724.440    23840725.500   125283835.4680   97623779.3790
  93556133.2080
  22982172.060    22982175.260    22982175.740   120772434.2330   94108502.4590
  90187353.5360
  25589184.840    25589191.520    25589204.000   134472044.9220  104783433.8260
 100417329.6490
  21115292.220    21115291.140                   110961644.8990   86463637.5520

  21985416.300    21985413.960                   115534144.8390   90026595.4140

  23204468.940    23204467.660                   121941005.8240   95018867.5120

  24481739.200    24481739.580                   128652431.2390  100248655.4730

 23  2 16  0 15 30.0000000  0 10G01G03G04G06G09G14G17G19G21G31
  21328721.620    21328723.960    21328723.000   112083615.5600   87338044.2080
  83698891.0270
  20595512.360    20595513.720    20595513.840   108230487.7310   84335645.5870
  80821616.5020
  20995343.080    20995343.640    20995347.400   110331615.5960   85972863.2270
  82390583.5300
  23823104.900    23823107.860    23823108.800   125191259.5390   97551642.3160
  93487001.8660
  22962251.780    22962254.780    22962255.400   120667752.1270   94026932.0700
  90109181.9360
  25604167.940    25604174.280    25604187.640   134550777.5030  104844782.7650
 100476122.1200
  21114190.900    21114189.740                   110955857.2570   86459127.6950

  21972946.280    21972943.860                   115468614.4600   89975532.7960

  23217612.540    23217611.340                   122010076.1840   95072688.5270

  24481569.140    24481569.340                   128651536.8010  100247958.5360

 23  2 16  0 16  0.0000000  0 10G01G03G04G06G09G14G17G19G21G31
  21340658.620    21340660.980    21340660.060   112146344.8370   87386924.1430
  83745734.2960
  20601581.840    20601583.120    20601583.400   108262382.9690   84360499.0150
  80845434.3710
  20984194.160    20984194.600    20984198.500   110273027.6310   85927210.3010
  82346832.8070
  23805492.460    23805495.500    23805496.340   125098706.0100   97479522.7060
  93417887.2350
  22942374.100    22942376.920    22942377.700   120563293.9850   93945536.1930
  90031177.5750
  25619139.300    25619145.680    25619159.840   134629449.0870  104906084.1220
 100534868.9810
  21113195.600    21113194.420                   110950626.6530   86455051.8930

  21960575.680    21960573.220                   115403606.4520   89924877.2280

  23230794.140    23230793.000                   122079345.8910   95126664.8890

  24481503.940    24481504.220                   128651194.3010  100247691.6900

 23  2 16  0 16 30.0000000  0 10G01G03G04G06G09G14G17G19G21G31
  21352656.580    21352658.880    21352658.040   112209394.0300   87436053.3660
  83792816.4640
  20607706.020    20607707.260    20607707.700   108294565.8120   84385576.5530
  80869467.0110
  20973139.240    20973139.700    20973143.580   110214933.8840   85881942.4790
  82303451.1400
  23787884.400    23787887.420    23787888.200   125006175.2060   97407420.8030
  93348789.5770
  22922539.280    22922542.020    22922542.900   120459061.2760   93864315.9780
  89953341.5670
  25634098.580    25634104.420    25634119.560   134708055.9750  104967368.9341
 100593567.4430
  21112306.200    21112305.020                   110945952.4270   86451409.6340

  21948304.780    21948302.280                   115339122.3040   89874629.8540

  23244013.480    23244012.380                   122148813.2170   95180795.2480

  24481543.660    24481544.060                   128651403.2890  100247854.5640

 23  2 16  0 17  0.0000000  0 10G01G03G04G06G09G14G17G19G21G31
  21364715.820    21364718.180    21364717.600   112272765.8770   87485433.9990
  83840139.5750
  20613885.320    20613886.520    20613887.120   108327038.2500   84410879.7480
  80893715.9160
  20962179.300    20962179.800    20962183.640   110157339.1160   85837063.4690
  82260442.1050
  23770281.440    23770284.440    23770285.180   124913671.5400   97335340.0440
  93279712.1870
  22902748.380    22902751.080    22902752.000   120355059.5180   93783275.7250
  89875678.0210
  25649045.680    25649051.120    25649067.080   134786598.5340  105028569.7490
 100652217.9370
  21111523.300    21111522.220                   110941838.1760   86448203.7240

  21936134.560    21936132.020                   115275167.5100   89824794.9720

  23257270.900    23257269.940                   122218481.1300   95235081.8970

  24481688.880    24481689.540                   128652167.6780  100248450.2270

 23  2 16  0 17 30.0000000  0 10G01G03G04G06G09G14G17G19G21G31
  21376835.660    21376838.020    21376837.560   112336456.0290   87535062.6690
  83887700.3620
  20620118.720    20620119.940    20620120.620   108359795.1720   84436404.6220
  80918177.2500
  20951313.840    20951314.420    20951318.220   110100241.0140   85792571.4640
  82217803.9360
  23752683.160    23752686.060    23752686.860   124821192.3950   97263278.3700
  93210653.0950
  22883001.040    22883003.700    22883004.640   120251287.1290   93702414.2030
  89798185.7530
  25663979.440    25663984.420    25664000.980
 100710815.4320
  21110846.300    21110845.220                   110938280.2960   86445431.3460

  21924064.920    21924062.400                   115211741.1370   89775371.8430

  23270565.620    23270564.840                   122288345.1840   95289521.3680

  24481939.420    24481940.000                   128653484.0600  100249476.0140

 23  2 16  0 18  0.0000000  0 10G01G03G04G06G09G14G17G19G21G31
  21389016.720    21389019.180    21389018.500   112400468.0470   87584942.1390
  83935501.5250
  20626406.820    20626408.120    20626408.700   108392839.4950   84462153.4430
  80942853.2010
  20940543.960    20940544.620    20940548.400   110043645.2330   85748470.8820
  82175540.8820
  23735090.580    23735093.640    23735094.300   124728743.1100   97191239.9900
  93141616.3230
  22863298.540    22863301.240    22863302.040   120147750.5360   93621736.4230
  89720869.5460
  25678899.920    25678904.440    25678921.640   134943527.6321  105150818.5921
 100769360.9660
  21110275.920    21110274.820                   110935282.9870   86443095.7700

  21912096.960    21912094.380                   115148848.8230   89726364.8650

  23283898.380    23283897.700                   122358409.0110   95344116.5220

  24482295.740    24482296.380                   128655357.0200  100250935.5000

 23  2 16  0 18 30.0000000  0 10G01G03G04G06G09G14G17G19G21G31
  21401258.480    21401261.120    21401260.240   112464799.3060   87635070.3620
  83983541.0730
  20632749.000    20632750.360    20632750.780   108426167.8440   84488123.5830
  80967741.2540
  20929869.540    20929870.260    20929874.000   109987551.1110   85704761.2060
  82133652.4500
  23717503.500    23717506.820    23717507.300   124636322.8360   97119224.2100
  93072601.2020
  22843640.920    22843643.700    22843644.300   120044449.8680   93541242.4800
  89643729.5510
  25693806.300    25693810.360    25693828.240   135021855.6460  105211856.0511
 100827851.0560
  21109811.860    21109810.720                   110932844.4320   86441195.5930

  21900230.680    21900228.060                   115086491.1140   89677774.4570

  23297268.800    23297268.100                   122428670.5350   95398865.7160

  24482757.900    24482758.320                   128657785.3110  100252827.7180

 23  2 16  0 19  0.0000000  0 10G01G03G04G06G09G14G17G19G21G31
  21413560.600    21413563.120    21413562.280   112529446.8730   87685445.0650
  84031816.8310
  20639144.520    20639145.960    20639146.200   108459776.6390   84514312.2520
  80992838.7190
  20919290.440    20919291.140    20919294.860   109931957.7570   85661441.7340
  82092137.9710
  23699921.760    23699925.180    23699925.560   124543930.4390   97047230.1410
  93003606.8920
  22824028.180    22824031.040    22824031.580   119941385.0670   93460932.3400
  89566765.6680
                                  25708719.940
 100886281.7640
  21109453.680    21109452.560                   110930962.4280   86439729.0920

  21888466.180    21888463.480                   115024668.1570   89629600.7470

  23310676.300    23310675.460                   122499126.5200   95453766.4630

  24483325.080    24483325.560                   128660740.7491  100255123.9511

 23  2 16  0 19 30.0000000  0 10G01G03G04G06G09G14G17G19G21G31
  21425922.880    21425925.100    21425924.360   112594410.5970   87736066.1380
  84080328.6720
  20645593.240    20645594.720    20645594.840   108493664.9780   84540718.7440
  81018144.9480
  20908807.000    20908807.660    20908811.340   109876867.0290   85618513.9200
  82050998.8170
  23682345.700    23682349.020    23682349.420   124451567.4790   96975259.0190
  92934634.5960
  22804460.820    22804463.800    22804464.340   119838558.7300   93380808.0100
  89489979.8650
  25723573.420    25723586.200    25723596.380   135178279.3731  105333776.4311
 100944651.4810
  21109201.580    21109200.400                   110929637.6310   86438696.7770

  21876803.880    21876801.140                   114963382.4750   89581845.6840

  23324120.720    23324119.960                   122569777.1420   95508818.8670

  24483997.940    24483998.220                   128664276.1891  100257878.8791

 23  2 16  0 20  0.0000000  0  9G01G03G04G06G09G17G19G21G31
  21438348.640    21438350.820    21438350.000   112659708.6610   87786947.7260
  84129090.1830
  20652098.500    20652100.020    20652100.000   108527850.4130   84567356.7390
  81043673.0190
  20898423.060    20898423.700    20898427.300   109822299.0720   85575993.4580
  82010250.0490
  23664779.040    23664782.440    23664782.780   124359254.0830   96903326.5120
  92865699.2650
  22784942.920    22784945.900    22784946.520   119735991.9350   93300885.9170
  89413387.8630
  21109059.120    21109057.820                   110928888.8650   86438113.3100

  21865247.780    21865245.080                   114902654.8100   89534525.4420

  23337605.640    23337604.980                   122640640.6620   95564037.1540

  24484779.920    24484780.020                   128668384.8700  100261080.4870

 23  2 16  0 20 30.0000000  0  9G01G03G04G06G09G17G19G21G31
  21450831.420    21450833.760    21450832.920   112725306.6510   87838063.0160
  84178075.6670
  20658653.640    20658655.100    20658655.020   108562297.8410   84594198.8900
  81069396.7420
  20888132.420    20888133.020    20888136.560   109768221.4670   85533855.0900
  81969867.4460
  23647215.580    23647218.940    23647219.320   124266957.5700   96831407.1690
  92796776.5680
  22765468.460    22765471.300    22765472.020   119633653.0310   93221141.4040
  89336966.0510
  21109019.920    21109018.580                   110928682.9070   86437952.8170

  21853791.860    21853789.260                   114842453.8880   89487615.6570

  23351124.600    23351124.060                   122711683.1580   95619394.9020

  24485664.480    24485664.420                   128673033.2930  100264702.6820

 23  2 16  0 21  0.0000000  0  9G01G03G04G06G09G17G19G21G31
  21463375.360    21463377.820    21463377.040   112791225.5900   87889428.4050
  84227300.8290
  20665262.480    20665263.940    20665263.820   108597027.6500   84621261.0730
  81095331.3360
  20877939.480    20877940.040    20877943.580   109714657.2240   85492116.7470
  81929868.2090
  23629659.760    23629662.960    23629663.400   124174700.8660   96759518.8350
  92727883.5880
  22746041.920    22746044.580    22746045.380   119531565.9500   93141593.1080
  89260732.2710
  21109088.060    21109086.680                   110929040.8510   86438231.7290

  21842440.740    21842438.160                   114782803.5310   89441134.8740

  23364681.540    23364681.080                   122782925.4090   95674908.2990

  24486655.840    24486656.040                   128678243.4980  100268762.6030

 23  2 16  0 21 30.0000000  0  9G01G03G04G06G09G17G19G21G31
  21475978.860    21475981.500    21475980.700   112857457.9190   87941037.9830
  84276759.9960
  20671923.520    20671924.980    20671924.940   108632031.6230   84648536.8900
  81121470.6640
  20867843.180    20867843.660    20867847.240   109661600.7070   85450774.0270
  81890248.1120
  23612110.500    23612113.500    23612114.120   124082478.3070   96687657.1070
  92659016.0870
  22726662.480    22726664.840    22726665.840   119429725.8640   93062237.2660
  89184682.9430
  21109262.100    21109260.760                   110929955.4420   86438944.3890

  21831193.420    21831190.880                   114723698.8460   89395079.2920

  23378275.100    23378274.680                   122854360.1990   95730571.7260

  24487752.880    24487753.260                   128684008.5240  100273254.8640

 23  2 16  0 22  0.0000000  0  9G01G03G04G06G09G17G19G21G31
  21488642.860    21488645.580    21488644.660   112924007.6850   87992894.9150
  84326456.2150
  20678637.380    20678638.840    20678638.840   108667313.1350   84676028.9710
  81147817.2400
  20857844.620    20857845.100    20857848.700   109609057.8910   85409831.6000
  81851011.6260
  23594568.820    23594571.660    23594572.580   123990295.7050   96615826.4970
  92590178.4570
  22707331.320    22707333.480    22707334.660   119328139.6810   92983079.2640
  89108823.2090
  21109543.020    21109541.760                   110931431.8500   86440094.8310

  21820051.260    21820048.760                   114665146.8100   89349454.3450

  23391906.100    23391905.700                   122925991.7550   95786388.4830

  24488956.440    24488956.700                   128690333.6080  100278183.5420

 23  2 16  0 22 30.0000000  0  9G01G03G04G06G09G17G19G21G31
  21501366.600    21501369.240    21501368.240   112990870.7960   88044996.0220
  84376386.4490
  20685403.200    20685404.620    20685404.660   108702867.5220   84703733.6830
  81174367.5900
  20847943.420    20847943.880    20847947.540   109557026.6840   85369287.8260
  81812157.1850
  23577034.380    23577037.140    23577038.160   123898151.0010   96544025.4440
  92521369.1180
  22688048.280    22688050.280    22688051.620   119226806.2010   92904118.1790
  89033152.1920
  21109930.200    21109929.000                   110933466.6470   86441680.3780

  21809014.060    21809011.580                   114607145.9700   89304258.8990

  23405573.800    23405573.360                   122997815.8960   95842355.3130

  24490265.960    24490266.160                   128697215.6480  100283546.1860

 23  2 16  0 23  0.0000000  0  9G01G03G04G06G09G17G19G21G31
  21514150.980    21514153.640    21514152.720   113058053.4210   88097346.0910
  84426555.2610
  20692221.960    20692223.360    20692223.360   108738700.3000   84731655.3220
  81201125.8260
  20838141.040    20838141.580    20838145.280   109505515.1210   85329148.9750
  81773690.7850
  23559508.620    23559511.320    23559512.360   123806052.1770   96472260.1470
  92452594.0320
  22668814.960    22668816.860    22668818.280   119125734.3460   92825360.9530
  88957676.5330
  21110424.920    21110423.740                   110936066.4890   86443706.2250

  21798083.420    21798081.000                   114549705.3340   89259499.9830

  23419279.360    23419278.780                   123069838.3040   95898476.6390

  24491682.820    24491682.880                   128704661.5730  100289348.2400

 23  2 16  0 23 30.0000000  0  9G01G03G04G06G09G17G19G21G31
  21526994.220    21526996.800    21526996.100   113125545.4470   88149937.2570
  84476955.1230
  20699091.680    20699093.000    20699093.100   108774800.7490   84759785.5420
  81228083.9510
  20828436.040    20828436.540    20828440.360   109454515.0250   85289408.6670
  81735606.3320
  23541990.020    23541992.660    23541993.580   123713991.1190   96400524.2710
  92383847.1450
  22649630.000    22649631.820    22649633.260   119024916.8870   92746801.9600
  88882390.8500
  21111025.340    21111024.160                   110939221.8120   86446164.9060

  21787258.000    21787255.580                   114492817.4420   89215171.7730

  23433020.900    23433020.240                   123142049.9690   95954745.4320

  24493205.260    24493205.220                   128712662.1700  100295582.5050

 23  2 16  0 24  0.0000000  0  9G01G03G04G06G09G17G19G21G31
  21539897.720    21539900.220    21539899.460   113193353.5610   88202774.7260
  84527591.0290
  20706013.500    20706014.800    20706014.960   108811174.9800   84788129.0880
  81255246.5140
  20818830.000    20818830.400    20818834.380   109404034.9970   85250073.6070
  81697910.2260
  23524480.120    23524482.660    23524483.580   123621976.4700   96328824.5550
  92315134.9030
  22630495.200    22630496.960    22630498.320   118924363.3310   92668448.6010
  88807302.2440
  21111732.920    21111731.780                   110942940.2360   86449062.3690

  21776539.580    21776537.120                   114436491.6330   89171281.5530

  23446799.700    23446799.020                   123214457.7340   96011167.0380

  24494834.620    24494834.520                   128721224.5960  100302254.5540

 23  2 16  0 24 30.0000000  0  9G01G03G04G06G09G17G19G21G31
  21552860.680    21552863.220    21552862.320   113261474.3390   88255855.8210
  84578460.4110
  20712986.660    20712987.940    20712988.120   108847818.9390   84816682.8180
  81282610.5120
  20809322.600    20809322.940    20809327.000   109354073.4430   85211142.5530
  81660601.3130
  23506978.820    23506981.360    23506982.180   123530006.7170   96257159.8250
  92246456.2180
  22611410.340    22611412.260    22611413.460   118824073.0970   92590300.4360
  88732410.2670
  21112547.040    21112545.940                   110947218.4180   86452396.0110

  21765928.000    21765925.540                   114380727.4190   89127828.9400

  23460615.000    23460614.480                   123287057.9270   96067738.5770

  24496570.400    24496570.520                   128730346.7520  100309362.7700

 23  2 16  0 25  0.0000000  0  9G01G03G04G06G09G17G19G21G31
  21565883.100    21565885.620    21565884.940   113329907.6130   88309180.4210
  84629563.1510
  20720010.960    20720012.240    20720012.480   108884731.9030   84845446.1650
  81310175.3810
  20799914.200    20799914.500    20799918.540   109304632.0830   85172616.8440
  81623680.8490
  23489486.480    23489488.980    23489489.800   123438083.6530   96185531.4880
  92177812.4000
  22592376.180    22592378.220    22592379.140   118724048.8360   92512359.5250
  88657716.9130
  21113467.760    21113466.700                   110952056.8210   86456166.1870

  21755423.760    21755421.360                   114325527.3450   89084815.9090

  23474466.940    23474466.560                   123359850.7550   96124460.2300

  24498412.720    24498412.920                   128740029.2520  100316907.6140

 23  2 16  0 25 30.0000000  0  9G01G03G04G06G09G17G19G21G31
  21578965.020    21578967.360    21578967.060   113398653.0350   88362748.2630
  84680898.9830
  20727086.280    20727087.600    20727087.900   108921912.9580   84874418.4070
  81337940.4490
  20790605.100    20790605.340    20790609.340   109255712.4430   85134497.6730
  81587149.9800
  23472003.140    23472005.740    23472006.620   123346208.9950   96113940.8580
  92109204.7330
  22573393.220    22573395.320    22573395.960   118624293.0840   92434627.8330
  88583224.0640
  21114495.200    21114494.120                   110957455.7290   86460373.1180

  21745027.280    21745024.960                   114270893.5730   89042244.1570

  23488355.540    23488355.160                   123432835.6910   96181331.5630

  24500361.780    24500362.080                   128750272.2360  100324889.1860

 23  2 16  0 26  0.0000000  0  9G01G03G04G06G09G17G19G21G31
  21592105.700    21592108.020    21592107.700   113467707.6200   88416557.0090
  84732465.6930
  20734211.920    20734213.220    20734213.640   108959358.5620   84903596.7980
  81365903.0730
  20781395.060    20781395.300    20781399.180   109207313.4060   85096784.1640
  81551007.8750
  23454528.840    23454531.640    23454532.440   123254381.7780   96042387.2060
  92040632.4680
  22554461.280    22554463.540    22554463.900   118524805.7160   92357105.2770
  88508931.6200
  21115628.820    21115627.780                   110963412.9050   86465015.0680

  21734738.600    21734736.360                   114216826.2610   89000113.8020

  23502280.320    23502279.840                   123506010.2830   96238350.6920

  24502417.360    24502417.500                   128761073.4640  100333305.7570

 23  2 16  0 26 30.0000000  0  9G01G03G04G06G09G17G19G21G31
  21605305.900    21605308.380    21605307.700   113537075.2700   88470609.6870
  84784266.1820
  20741388.520    20741389.900    20741390.300   108997072.0700   84932983.9410
  81394065.7480
  20772285.200    20772285.440    20772289.180   109159440.6870   85059480.7690
  81515258.7950
  23437064.740    23437067.640    23437068.420   123162607.8860   95970875.1110
  91972100.0610
  22535581.780    22535584.120    22535584.340   118425593.4450   92279797.0830
  88434844.6170
  21116869.500    21116868.460                   110969932.6360   86470095.3670

  21724558.980    21724556.720                   114163331.6710   88958429.7250

  23516241.800    23516241.180                   123579378.2540   96295520.5010

  24504580.060    24504580.040                   128772437.7120  100342161.0340

 23  2 16  0 27  0.0000000  0  9G01G03G04G06G09G17G19G21G31
  21618565.200    21618567.680    21618566.840   113606752.9310   88524903.9400
  84836298.1760
  20748615.420    20748616.840    20748617.260   109035049.9040   84962577.0500
  81422425.8070
  20763275.220    20763275.460    20763279.140   109112093.0620   85022586.5430
  81479901.8310
  23419610.620    23419613.640    23419614.340   123070886.3310   95899403.8090
  91903606.7160
  22516754.540    22516757.000    22516757.180   118326656.0830   92202703.1010
  88360962.8990
  21118216.740    21118215.620                   110977012.2150   86475611.9160

  21714488.220    21714485.940                   114110409.4750   88917191.6620

  23530239.560    23530238.900                   123652937.1210   96352839.0520

  24506849.300    24506849.320                   128784362.8780  100351453.4110

 23  2 16  0 27 30.0000000  0  9G01G03G04G06G09G17G19G21G31
  21631883.060    21631885.400    21631884.740   113676738.3060   88579437.9790
  84888559.9520
  20755892.080    20755893.520    20755893.920   109073289.2390   84992373.9260
  81450981.1470
  20754365.120    20754365.300    20754368.940   109065270.0580   84986101.1070
  81444936.6280
  23402166.460    23402169.460    23402170.120   122979216.8750   95827973.0870
  91835152.2830
  22497979.780    22497982.340    22497982.480   118227994.2080   92125823.7830
  88287286.9000
  21119670.100    21119668.980                   110984649.6780   86481563.1760

  21704526.460    21704524.140                   114058060.0180   88876399.8960

  23544273.200    23544272.460                   123726684.3520   96410304.3820

  24509224.920    24509225.080                   128796847.1870  100361181.4830

 23  2 16  0 28  0.0000000  0  9G01G03G04G06G09G17G19G21G31
  21645260.080    21645262.460    21645261.880   113747035.2330   88634214.7770
  84941054.3720
  20763219.120    20763220.600    20763221.040   109111793.3540   85022377.1250
  81479734.2100
  20745555.860    20745556.060    20745559.660   109018977.2890   84950028.8380
  81410367.3800
  23384733.400    23384736.460    23384736.920   122887605.4470   95756587.5950
  91766741.1720
  22479258.760    22479261.340    22479261.460   118129614.4770   92049164.3110
  88213821.5890
  21121230.460    21121229.400                   110992849.3830   86487952.5460

  21694675.000    21694672.620                   114006290.1800   88836059.7750

  23558343.460    23558342.640                   123800623.9200   96467919.5910

  24511707.980    24511708.100                   128809895.0720  100371348.7050

 23  2 16  0 28 30.0000000  0  9G01G03G04G06G09G17G19G21G31
  21658695.380    21658697.820    21658697.100   113817638.1670   88689230.0210
  84993777.3180
  20770595.440    20770596.940    20770597.360   109150556.2250   85052581.9550
  81508680.5060
  20736846.820    20736847.020    20736850.640   108973211.0270   84914366.8370
  81376191.3070
  23367310.860    23367313.780    23367314.280   122796048.5910   95685244.6110
  91698370.8220
  22460591.000    22460593.500    22460593.600   118031514.2360   91972722.6230
  88140564.9860
  21122896.820    21122895.860                   111001606.2380   86494776.0610

  21684933.140    21684930.780                   113955096.5680   88796168.6690

  23572449.320    23572448.460                   123874750.6670   96525680.6660

  24514297.280    24514297.340                   128823501.8490  100381951.4170

 23  2 16  0 29  0.0000000  0  9G01G03G04G06G09G17G19G21G31
  21672189.260    21672191.680    21672190.880   113888548.8380   88744485.0650
  85046730.0700
  20778021.280    20778022.760    20778023.260   109189579.1220   85082989.4030
  81537820.9730
  20728238.560    20728238.860    20728242.480   108927974.7520   84879117.8150
  81342411.0030
  23349899.320    23349902.140    23349902.780   122704550.1650   95613947.1530
  91630044.1090
  22441977.300    22441979.680    22441979.820   117933698.0600   91896502.2830
  88067520.5040
  21124669.580    21124668.720                   111010922.3510   86502035.3660

  21675301.740    21675299.300                   113904483.3900   88756729.8420

  23586591.100    23586590.280                   123949066.1600   96583588.8010

  24516993.260    24516993.400                   128837669.7340  100392991.3710

 23  2 16  0 29 30.0000000  0  9G01G03G04G06G09G17G19G21G31
  21685742.040    21685744.380    21685743.760   113959769.2040   88799981.4320
  85099914.0740
  20785496.880    20785498.340    20785498.940   109228863.4500   85113600.5620
  81567156.6630
  20719731.880    20719732.260    20719735.860   108883272.1570   84844284.6550
  81309029.2200
  23332499.760    23332502.540    23332503.120   122613114.2300   95542698.3880
  91561764.0440
  22423418.500    22423420.760    22423421.020   117836170.7500   91820507.0240
  87994691.7250
  21126549.220    21126548.420                   111020800.1020   86509732.3030

  21665781.700    21665779.240                   113854455.5500   88717747.1150

  23600769.220    23600768.480                   124023572.9620   96641645.9960

  24519796.600    24519796.760                   128852401.4140  100404470.6470

 23  2 16  0 30  0.0000000  0  9G01G03G04G06G09G17G19G21G31
  21699353.060    21699355.320    21699354.840   114031295.3050   88855716.0330
  85153326.3870
  20793021.420    20793022.800    20793023.440   109268404.8460   85144412.0350
  81596684.3270
  20711326.360    20711326.840    20711330.340   108839101.0980   84809865.6730
  81276044.3680
  23315111.640    23315114.500    23315115.080   122521738.9870   95471496.9230
  91493529.3230
  22404914.440    22404916.560    22404917.000   117738931.1980   91744735.9970
  87922077.8470
  21128535.140    21128534.300                   111031236.1850   86517864.3070

  21656372.800    21656370.340                   113805011.6330   88679219.3980

  23614983.040    23614982.220                   124098266.8960   96699849.0090

  24522706.420    24522706.660                   128867693.5940  100416386.6600

 23  2 16  0 30 30.0000000  0  9G01G03G04G06G09G17G19G21G31
  21713021.960    21713024.180    21713023.720   114103125.4890   88911687.5830
  85206965.7830
  20800594.440    20800595.800    20800596.500   109308201.1220   85175422.1140
  81626402.3130
  20703022.040    20703022.520    20703025.920   108795461.6070   84775860.9010
  81243456.4580
  23297735.160    23297738.100    23297738.660   122430424.9390   95400343.1340
  91425340.2790
  22386465.300    22386467.400    22386467.960   117641980.6180   91669190.1440
  87849679.7510
  21130627.040    21130626.100                   111042229.0780   86526430.1900

  21647075.180    21647072.760                   113756152.5970   88641147.4360

  23629232.300    23629231.300                   124173146.3610   96758196.6190

  24525722.760    24525723.000                   128883545.1430  100428738.5430

 23  2 16  0 31  0.0000000  0  9G01G03G04G06G09G17G19G21G31
  21726749.320    21726751.580    21726750.960   114175262.9840   88967898.5940
  85260834.6680
  20808216.540    20808217.820    20808218.420   109348255.1050   85206633.0060
  81656312.7490
  20694819.800    20694820.240    20694823.560   108752358.6320   84742274.1880
  81211269.1970
  23280371.380    23280374.300    23280374.880   122339177.5260   95329241.2690
  91357201.0000
  22368072.200    22368074.440    22368075.040   117545325.0840   91593874.1990
  87777501.9860
  21132825.600    21132824.600                   111053782.5600   86535432.8930

  21637890.020    21637887.660                   113707884.5780   88603536.0030

  23643517.640    23643516.400                   124248215.0920   96816691.6870

  24528846.340    24528846.460                   128899960.0260  100441529.4040

 23  2 16  0 31 30.0000000  0  9G01G03G04G06G09G17G19G21G31
  21740534.340    21740536.740    21740535.940   114247703.8870   89024346.0180
  85314930.1110
  20815886.840    20815888.120    20815888.600   109388562.4300   85238041.3090
  81686412.3750
  20686719.220    20686719.640    20686722.920   108709789.9700   84709103.8250
  81179480.9380
  23263019.880    23263022.740    23263023.440   122247994.9590   95258189.9390
  91289110.1610
  22349735.100    22349737.460    22349738.080   117448963.6010   91518787.3880
  87705543.8080
  21135130.100    21135129.100                   111065892.7600   86544869.4020

  21628817.020    21628814.740                   113660205.9170   88566383.8100

  23657838.060    23657836.820                   124323468.6500   96875330.7990

  24532076.600    24532076.540                   128916934.7260  100454756.4800

 23  2 16  0 32  0.0000000  0  9G01G03G04G06G09G17G19G21G31
  21754377.200    21754379.780    21754378.840   114320448.6180   89081030.1930
  85369252.4410
  20823605.340    20823606.640    20823606.900   109429123.1190   85269647.0290
  81716701.1840
  20678720.740    20678721.180    20678724.440   108667757.7630   84676351.4720
  81148093.2750
  23245681.180    23245684.040    23245684.840   122156880.0120   95187191.2990
  91221069.7840
  22331454.580    22331457.040    22331457.740   117352899.4270   91443932.2410
  87633807.6390
  21137540.700    21137539.800                   111078560.7720   86554740.5680

  21619856.800    21619854.420                   113613119.3440   88529692.9860

  23672193.920    23672192.720                   124398908.6100   96934115.1520

  24535413.440    24535413.380                   128934470.2700  100468420.5830

 23  2 16  0 32 30.0000000  0  9G01G03G04G06G09G17G19G21G31
  21768277.820    21768280.520    21768279.580   114393496.7350   89137950.7770
  85423801.3380
  20831371.860    20831373.160    20831373.200   109469936.2840   85301449.4900
  81747178.5470
  20670824.580    20670825.100    20670828.300   108626263.2830   84644018.1310
  81117107.1570
  23228355.660    23228358.640    23228359.380   122065834.3120   95116246.6250
  91153081.1440
  22313231.160    22313233.580    22313234.440   117257134.9580   91369310.6260
  87562295.2760
  21140057.440    21140056.520                   111091786.1780   86565046.0660

  21611009.700    21611007.240                   113566627.1650   88493465.3180

  23686584.960    23686584.040                   124474534.0930   96993044.0560

  24538857.120    24538857.200                   128952566.7070  100482521.7460

 23  2 16  0 33  0.0000000  0  9G01G03G04G06G09G17G19G21G31
  21782236.200    21782238.940    21782238.020   114466848.4200   89195107.9070
  85478576.9100
  20839186.340    20839187.660    20839187.580   109511001.6980   85333448.5080
  81777844.2690
  20663031.040    20663031.620    20663034.840   108585308.3140   84612105.1910
  81086523.9280
  23211043.780    23211046.800    23211047.560   121974860.3600   95045357.8500
  91085146.0740
  22295065.320    22295067.740    22295068.640   117161673.2560   91294924.9330
  87491009.0040
  21142680.300    21142679.400                   111105569.4130   86575786.2420

  21602276.260    21602273.720                   113520732.2570   88457703.0670

  23701011.200    23701010.640                   124550345.3920   97052117.7460

  24542407.620    24542407.820                   128971224.7160  100497060.5090

 23  2 16  0 33 30.0000000  0  9G01G03G04G06G09G17G19G21G31
  21796252.020    21796254.740    21796253.840   114540501.5860   89252499.9540
  85533577.6210
  20847048.340    20847049.620    20847049.600   109552316.8820   85365642.1540
  81808696.5160
  20655340.140    20655340.700    20655344.020   108544892.4430   84580612.3270
  81056343.2750
  23193745.680    23193748.660    23193749.420   121883958.3230   94974525.1200
  91017264.7140
  22276957.240    22276959.640    22276960.480   117066515.0940   91220775.7640
  87419949.4110
  21145408.960    21145408.100                   111119908.6840   86586959.6850

  21593656.480    21593653.880                   113475434.8340   88422406.3800

  23715472.480    23715472.220                   124626341.0040   97111335.0560

  24546064.680    24546064.920                   128990442.7720  100512035.6590

 23  2 16  0 34  0.0000000  0  9G01G03G04G06G09G17G19G21G31
  21810324.940    21810327.620    21810326.820   114614454.7120   89310125.7400
  85588802.3310
  20854957.500    20854958.820    20854958.940   109593879.9320   85398028.9380
  81839733.8450
  20647751.820    20647752.400    20647755.800   108505015.8120   84549539.6510
  81026565.2950
  23176461.360    23176464.340    23176465.100   121793128.9820   94903749.0390
  90949437.6320
  22258907.120    22258909.620    22258910.240   116971661.8280   91146864.1870
  87349117.4930
  21148243.240    21148242.340                   111134802.7160   86598565.4120

  21585150.460    21585147.800                   113430735.3740   88387575.6390

  23729968.380    23729968.500                   124702518.6200   97170694.1950

  24549828.020    24549828.140                   129010219.7830  100527446.3680

 23  2 16  0 34 30.0000000  0  9G01G03G04G06G09G17G19G21G31
  21824455.200    21824457.920    21824457.300   114688709.9160   89367986.9070
  85644252.6040
  20862914.140    20862915.520    20862915.660   109635692.5730   85430610.2080
  81870957.5630
  20640266.880    20640267.480    20640270.900   108465682.1370   84518890.0580
  80997192.7690
  23159191.820    23159194.640    23159195.440   121702376.7080   94833033.0080
  90881668.0980
  22240915.980    22240918.600    22240919.000   116877118.4210   91073194.0570
  87278516.9520
  21151183.540    21151182.620                   111150253.8680   86610605.2540

  21576759.300    21576756.540                   113386639.3810   88353215.1380

  23744499.600    23744499.880                   124778881.3010   97230197.5400

  24553698.360    24553698.200                   129030558.3200  100543294.6220

 23  2 16  0 35  0.0000000  0  9G01G03G04G06G09G17G19G21G31
  21838642.380    21838645.140    21838644.560   114763264.3110   89426081.2080
  85699926.3030
  20870917.660    20870919.000    20870919.320   109677751.5700   85463383.4410
  81902365.2410
  20632885.020    20632885.620    20632889.020   108426890.1800   84488662.5750
  80968224.7680
  23141936.820    23141939.520    23141940.380   121611700.9500   94762376.6020
  90813955.7170
  22222983.900    22222986.540    22222986.820   116782884.8730   90999765.3740
  87208147.8050
  21154229.420    21154228.440                   111166259.5710   86623077.2120

  21568482.820    21568480.020                   113343146.2270   88319324.3740

  23759065.600    23759066.040                   124855426.1350   97289842.8200

  24557674.960    24557674.700                   129051456.5220  100559578.9670

 23  2 16  0 35 30.0000000  0  9G01G03G04G06G09G17G19G21G31
  21852886.180    21852888.940    21852888.160   114838115.9930   89484407.1710
  85755822.0160
  20878967.620    20878969.020    20878969.340   109720054.6820   85496346.8900
  81933955.2160
  20625606.220    20625606.800    20625610.120   108388639.6180   84458856.9650
  80939661.0600
  23124696.380    23124699.240    23124699.980   121521102.1340   94691780.1620
  90746300.7960
  22205110.980    22205113.540    22205113.860   116688962.1210   90926578.8690
  87138010.7440
  21157380.520    21157379.520                   111182818.3480   86635980.1410

  21560321.080    21560318.320                   113300256.3880   88285903.7270

  23773665.820    23773666.520                   124932151.4970   97349628.7510

  24561757.920    24561757.520                   129072912.4480  100576297.9240

 23  2 16  0 36  0.0000000  0  9G01G03G04G06G09G17G19G21G31
  21867187.140    21867189.920    21867188.980   114913268.3130   89542967.3900
  85811942.2220
  20887064.620    20887066.040    20887066.440   109762604.8930   85529502.8860
  81965729.7140
  20618431.340    20618431.900    20618435.160   108350935.3660   84429477.0470
  80911505.3160
  23107471.620    23107474.540    23107475.340   121430585.9210   94621248.0940
  90678707.5660
  22187298.380    22187300.800    22187301.280   116595356.3860   90853639.3850
  87068110.4220
  21160637.380    21160636.400                   111199933.3680   86649316.5020

  21552275.240    21552272.540                   113257975.4570   88252957.5580

  23788301.180    23788301.960                   125009060.9670   97409558.1540

  24565947.540    24565947.180                   129094929.5250  100593454.1480

 23  2 16  0 36 30.0000000  0  9G01G03G04G06G09G17G19G21G31
  21881544.460    21881547.180    21881546.300   114988716.5180   89601758.1700
  85868283.3780
  20895207.720    20895209.140    20895209.600   109805397.1410   85562847.4830
  81997684.9500
  20611359.840    20611360.320    20611363.660   108313774.2700   84400520.3650
  80883755.1580
  23090262.280    23090265.120    23090265.980   121340149.9510   94550778.5350
  90611174.2440
  22169545.800    22169547.980    22169548.620   116502065.7830   90780945.4570
  86998445.4180
  21163999.200    21163998.260                   111217600.0850   86663082.7630

  21544344.920    21544342.260                   113216301.4650   88220484.3230

  23802970.980    23802971.580                   125086150.1010   97469627.5500

  24570243.300    24570243.060                   129117503.6860  100611044.4620

 23  2 16  0 37  0.0000000  0  9G01G03G04G06G09G17G19G21G31
  21895958.500    21895961.200    21895960.460   115064462.6910   89660781.1380
  85924847.0500
  20903397.180    20903398.600    20903399.100   109848433.1830   85596382.0490
  82029822.2370
  20604392.380    20604392.820    20604396.300   108277159.9650   84371989.7570
  80856413.3350
  23073069.080    23073071.820    23073072.660   121249798.6620   94480374.9690
  90543704.1690
  22151854.100    22151856.060    22151856.880   116409095.2720   90708500.9420
  86929019.4340
  21167466.500    21167465.640                   111235821.0740   86677280.9200

  21536530.820    21536528.140                   113175238.0140   88188486.8370

  23817675.340    23817675.540                   125163420.4870   97529838.2040

  24574645.640    24574645.480                   129140637.6770  100629071.0060

 23  2 16  0 37 30.0000000  0  9G01G03G04G06G09G17G19G21G31
  21910428.340    21910431.140    21910430.380   115140502.1900   89720032.6650
  85981629.7450
  20911632.140    20911633.560    20911634.020   109891708.0710   85630102.7270
  82062137.8830
  20597528.360    20597528.760    20597532.440   108241089.3550   84343882.8080
  80829477.5090
  23055891.540    23055894.220    23055894.940   121159529.7910   94410035.6150
  90476295.6440
  22134223.020    22134224.820    22134225.660   116316443.0190   90636304.4260
  86859831.1250
  21171038.400    21171037.600                   111254591.5700   86691907.2610

  21528832.620    21528829.920                   113134783.4530   88156963.8060

  23832413.460    23832413.220                   125240867.7650   97590186.7010

  24579153.680    24579153.540                   129164326.9250  100647530.2070

 23  2 16  0 38  0.0000000  0  9G01G03G04G06G09G17G19G21G31
  21924955.040    21924957.920    21924957.080   115216840.4080   89779516.9620
  86038635.5340
  20919913.560    20919914.920    20919915.300   109935226.9040   85664013.4910
  82094635.7010
  20590769.100    20590769.520    20590773.360   108205569.3430   84316204.8950
  80802952.8480
  23038731.160    23038733.760    23038734.460   121069351.1890   94339766.6150
  90408954.5050
  22116654.040    22116655.760    22116656.560   116224117.3140   90564362.3620
  86790886.6620
  21174715.960    21174715.160                   111273917.0940   86706966.0930

  21521251.740    21521249.080                   113094945.6730   88125921.3860

  23847186.220    23847185.760                   125318498.0320   97650677.7710

  24583768.220    24583768.200                   129188577.1340  100666426.5150

 23  2 16  0 38 30.0000000  0  9G01G03G04G06G09G17G19G21G31
  21939537.700    21939540.640    21939539.700   115293472.4460   89839230.2080
  86095860.7180
  20928240.420    20928241.760    20928242.140   109978984.4940   85698110.3020
  82127311.8130
  20584113.980    20584114.380    20584118.380   108170596.5770   84288953.4060
  80776836.8370
  23021587.460    23021590.020    23021590.840   120979260.3160   94269565.9620
  90341678.9090
  22099146.800    22099148.500    22099149.180   116132116.1240   90492673.1690
  86722184.5320
  21178498.240    21178497.440                   111293792.8780   86722453.6990

  21513787.720    21513785.100                   113055721.8670   88095357.3900

  23861992.680    23861992.160                   125396306.3070   97711307.5550

  24588488.760    24588488.760                   129213383.7320  100685756.3780

 23  2 16  0 39  0.0000000  0  9G01G03G04G06G09G17G19G21G31
  21954176.000    21954179.120    21954178.080   115370397.3660   89899171.6690
  86153304.6180
  20936612.500    20936613.800    20936614.200   110022979.6330   85732392.2240
  82160165.3200
  20577563.100    20577563.480    20577567.580   108136171.6150   84262128.7740
  80751129.9010
  23004460.680    23004463.220    23004464.200   120889258.7190   94199434.8780
  90274469.9590
  22081701.700    22081703.320    22081703.920   116040441.3680   90421238.3420
  86653726.1700
  21182385.100    21182384.300                   111314218.3080   86738369.6020

  21506440.820    21506438.140                   113017113.4550   88065272.9220

  23876832.880    23876832.300                   125474291.6430   97772075.3060

  24593314.860    24593314.860                   129238746.0540  100705519.2930

 23  2 16  0 39 30.0000000  0  9G01G03G04G06G09G17G19G21G31
  21968870.200    21968873.380    21968872.200   115447615.6110   89959341.7020
  86210967.5550
  20945029.760    20945031.060    20945031.500   110067212.4980   85766859.3820
  82193196.3400
  20571116.820    20571117.180    20571121.280   108102296.3850   84235732.5050
  80725833.4800
  22987351.460    22987353.960    22987355.020   120799349.2820   94129375.6030
  90207329.8210
  22064319.280    22064320.920    22064321.440   115949096.3360   90350060.4400
  86585514.0200
  21186376.580    21186375.780                   111335193.5640   86754713.9410

  21499211.620    21499208.880                   112979123.6510   88035670.4780

  23891706.780    23891706.300                   125552454.7860   97832981.6040

  24598246.920    24598247.060                   129264664.9430  100725715.8760

 23  2 16  0 40  0.0000000  0  9G01G03G04G06G09G17G19G21G31
  21983620.340    21983623.500    21983622.140   115525127.4550   90019740.5110
  86268849.7500
  20953492.220    20953493.540    20953494.000   110111683.1100   85801511.7950
  82226404.9060
  20564775.480    20564775.880    20564779.860   108068972.6230   84209765.9500
  80700948.8670
  22970260.320    22970262.740    22970263.900   120709534.7430   94059390.2740
  90140260.5570
  22047000.120    22047001.920    22047002.300   115858084.1430   90279141.8910
  86517550.4220
  21190472.760    21190471.960                   111356719.2060   86771487.1540

  21492100.460    21492097.720                   112941754.3080   88006551.5160

  23906614.680    23906614.100                   125630795.7980   97894026.5100

  24603285.180    24603285.240                   129291140.8970  100746346.5430

 23  2 16  0 40 30.0000000  0  9G01G03G04G06G09G17G19G21G31
  21998425.660    21998428.780    21998427.460   115602929.7800   90080365.6670
  86326948.8430
  20961999.300    20962000.500    20962001.020   110156388.1280   85836346.8650
  82259788.5090
  20558538.760    20558539.200    20558543.060   108036198.6700   84184227.8160
  80676474.8260
  22953186.980    22953189.420    22953190.720   120619814.4660   93989478.3910
  90073261.6880
  22029744.260    22029746.240    22029746.460   115767404.5310   90208482.5040
  86449835.1760
  21194673.060    21194672.200                   111378792.0240   86788686.7350

  21485107.300    21485104.620                   112905005.0010   87977915.6990

  23921555.860    23921555.200                   125709312.2890   97955208.1610

  24608428.720    24608428.880                   129318171.1380  100767409.1140

 23  2 16  0 41  0.0000000  0  9G01G03G04G06G09G17G19G21G31
  22013286.140    22013289.220    22013288.060   115681021.9820   90141216.7120
  86385264.4230
  20970550.820    20970552.000    20970552.580   110201326.7340   85871363.9530
  82293346.5520
  20552406.840    20552407.360    20552411.040   108003975.4020   84159118.7930
  80652412.0140
  22936132.000    22936134.540    22936135.820   120530190.3880   93919641.4730
  90006334.6580
  22012552.120    22012554.320    22012554.300   115677059.7930   90138084.0520
  86382370.0070
  21198977.460    21198976.540                   111401411.6140   86806312.3760

  21478232.500    21478229.860                   112868877.5730   87949764.4620

  23936530.280    23936529.600                   125788003.7080   98016526.1270

  24613677.680    24613677.820                   129345755.0060  100788903.0740

 23  2 16  0 41 30.0000000  0  9G01G03G04G06G09G17G19G21G31
  22028202.640    22028205.760    22028204.780   115759408.8000   90202297.3160
  86443799.9970
  20979147.660    20979148.880    20979149.420   110246503.4540   85906566.5860
  82327082.3990
  20546380.880    20546381.460    20546385.000   107972308.9940   84134443.6840
  80628765.0410
  22919096.700    22919099.380    22919100.580   120440669.7290   93849885.1530
  89939484.8610
  21995425.060    21995427.520    21995427.360   115587057.4940   90067952.4380
  86315160.5470
  21203386.760    21203385.860                   111424582.6370   86824367.7000

  21471477.280    21471474.680                   112833378.7920   87922103.0840

  23951538.780    23951538.200                   125866874.6060   98077983.9330

  24619033.120    24619033.200                   129373898.1460  100810832.8530

 23  2 16  0 42  0.0000000  0  9G01G03G04G06G09G17G19G21G31
  22043173.240    22043176.500    22043175.640   115838080.2230   90263599.6850
  86502548.0960
  20987787.860    20987789.140    20987789.600   110291908.0350   85941946.7650
  82360988.4050
  20540459.280    20540459.840    20540463.240   107941190.7870   84110195.7470
  80605527.4400
  22902079.540    22902082.420    22902083.520   120351245.0270   93780203.5930
  89872706.7030
  21978361.860    21978364.440    21978364.260   115497390.4640   89998082.0670
  86248201.4460
  21207899.100    21207898.280                   111448295.0810   86842844.9080

  21464840.120    21464837.540                   112798500.7530   87894925.3960

  23966579.460    23966579.240                   125945915.1090   98139573.8770

  24624493.140    24624493.020                   129402590.2980  100833190.4250

 23  2 16  0 42 30.0000000  0  9G01G03G04G06G09G17G19G21G31
  22058198.400    22058201.720    22058200.880   115917038.0820   90325125.2520
  86561510.0910
  20996471.740    20996473.080    20996473.440   110337542.1090   85977505.7810
  82395065.7940
  20534642.640    20534643.140    20534646.460   107910624.0350   84086377.5150
  80582701.6380
  22885081.580    22885084.540    22885085.680   120261920.6280   93710600.1980
  89806003.4650
  21961363.340    21961365.980    21961365.900   115408063.3770   89928476.5920
  86181496.2070
  21212514.840    21212514.060                   111472550.8740   86861745.5060

  21458321.900    21458319.240                   112764247.3810   87868234.4650

  23981652.800    23981653.000                   126025127.4380   98201297.7030

  24630057.780    24630057.580                   129431833.2960  100855977.2320

 23  2 16  0 43  0.0000000  0  9G01G03G04G06G09G17G19G21G31
  22073278.760    22073282.020    22073281.120   115996285.6800   90386876.5970
  86620688.4510
  21005199.880    21005201.260    21005201.520   110383408.8310   86013246.0700
  82429316.8940
  20528931.840    20528932.220    20528935.600   107880613.4260   84062992.6370
  80560291.1320
  22868103.860    22868106.840    22868108.060   120172702.4190   93641079.5550
  89739379.5180
  21944430.780    21944433.400    21944433.360   115319082.4050   89859140.8110
  86115049.4200
  21217234.580    21217233.760                   111497352.9520   86881071.7800

  21451923.620    21451921.020                   112730624.2640   87842034.6420

  23996759.720    23996760.240                   126104515.2660   98263158.2830

  24635728.120    24635727.760                   129461623.8241  100879185.1251

 23  2 16  0 43 30.0000000  0  9G01G03G04G06G09G17G19G21G31
  22088413.500    22088416.580    22088415.660   116075818.8130   90448850.4380
  86680080.0500
  21013971.460    21013972.900    21013973.040   110429503.8640   86049164.2660
  82463738.4990
  20523326.340    20523326.640    20523330.100   107851156.2110   84040038.9820
  80538293.8800
  22851146.120    22851149.020    22851150.280   120083588.8550   93571640.4550
  89672833.7200
  21927563.900    21927566.420    21927566.420   115230446.1970   89790073.6810
  86048860.0970
  21222057.520    21222056.640                   111522697.3860   86900820.6720

  21445644.860    21445642.400                   112697629.3310   87816324.3170

  24011899.340    24011900.040                   126184073.7630   98325151.8040

  24641503.140    24641502.860                   129491971.8571  100902832.9851

 23  2 16  0 44  0.0000000  0  9G01G03G04G06G09G17G19G21G31
  22103602.660    22103605.700    22103604.840   116155638.5530   90511047.6050
  86739685.6610
  21022786.620    21022788.100    21022788.120   110475828.0520   86085261.0200
  82498331.2200
  20517826.580    20517826.840    20517830.360   107822254.7430   84017518.3720
  80516711.6400
  22834208.940    22834211.940    22834213.040   119994583.5200   93502285.6900
  89606368.7420
  21910763.400    21910765.780    21910765.900   115142158.6530   89721278.2290
  85982931.1320
  21226983.920    21226982.960                   111548585.4280   86920993.1510

  21439486.360    21439484.000                   112665266.3970   87791106.4580

  24027071.940    24027072.640                   126263805.1790   98387280.1390

  24647383.120    24647382.900                   129522871.6440  100926910.7970

 23  2 16  0 44 30.0000000  0  9G01G03G04G06G09G17G19G21G31
  22118845.800    22118848.780    22118848.060   116235741.6030   90573465.5330
  86799502.8260
  21031644.760    21031646.240    21031646.200   110522378.0000   86121533.6950
  82533092.5350
  20512432.200    20512432.420    20512436.020   107793907.0670   83995429.2880
  80495542.9380
  22817292.400    22817295.240    22817296.320   119905685.7880   93433014.7660
  89539984.1050
  21894029.240    21894031.360    21894031.680   115054219.3390   89652754.1250
  85917262.2090
  21232012.980    21232012.060                   111575013.3080   86941586.2840

  21433447.840    21433445.520                   112633534.1040   87766380.0050

  24042276.920    24042277.420                   126343706.2490   98449540.6640

  24653367.520    24653367.240                   129554319.9180  100951415.9880

 23  2 16  0 45  0.0000000  0  9G01G03G04G06G09G17G19G21G31
  22134143.260    22134146.160    22134145.580   116316130.1270   90636105.9090
  86859533.1830
  21040546.180    21040547.740    21040547.820   110569155.7480   86157983.8720
  82568023.9520
  20507143.880    20507144.020    20507147.740   107766116.6940   83973774.4680
  80474790.4110
  22800397.240    22800399.920    22800401.080   119816900.4190   93363831.3970
  89473683.3820
  21877362.260    21877364.140    21877364.700   114966633.2480   89584505.2620
  85851857.0600
  21237145.160    21237144.280                   111601983.2720   86962601.8240

  21427530.180    21427527.800                   112602436.6360   87742148.2170

  24057514.440    24057514.660                   126423778.3200   98511934.4400

  24659456.760    24659456.520                   129586319.1110  100976350.4740

 23  2 16  0 45 30.0000000  0  9G01G03G04G06G09G17G19G21G31
  22149494.420    22149497.240    22149496.580   116396800.6070   90698965.9910
  86919774.0840
  21049490.300    21049491.860    21049492.040   110616157.6580   86194608.7220
  82603122.7610
  20501961.160    20501961.320    20501965.100   107738881.4220   83952552.1910
  80454452.3990
  22783523.280    22783525.780    22783526.980   119728226.5530   93294734.9150
  89407465.9260
  21860762.360    21860764.040    21860764.740   114879399.6960   89516531.0980
  85786715.1580
  21242379.820    21242378.880                   111629491.5330   86984036.8120

  21421732.960    21421730.540                   112571972.0810   87718409.6100

  24072784.020    24072783.940                   126504019.1480   98574459.7160

  24665650.080    24665649.940                   129618865.5970  101001711.4380

 23  2 16  0 46  0.0000000  0  9G01G03G04G06G09G17G19G21G31
  22164899.380    22164902.180    22164901.420   116477753.9580   90762046.4970
  86980226.2310
  21058477.260    21058478.800    21058479.040   110663384.4720   86231408.8270
  82638389.5210
  20496884.480    20496884.720    20496888.520   107712203.4670   83931764.1880
  80434530.5530
  22766671.100    22766673.580    22766674.780   119639667.7550   93225728.0920
  89341334.3950
  21844230.200    21844231.720    21844232.540   114792522.4200   89448834.5500
  85721839.3220
  21247717.100    21247716.080                   111657538.8770   87005891.8630

  21416056.780    21416054.320                   112542143.6540   87695166.6850

  24088085.700    24088085.500                   126584429.3630   98637116.9830

  24671947.740    24671947.460                   129651960.1480  101027499.4500

 23  2 16  0 46 30.0000000  0  9G01G03G04G06G09G17G19G21G31
  22180358.000    22180360.800    22180360.140   116558989.3710   90825346.7900
  87040888.9980
  21067506.880    21067508.320    21067508.720   110710835.3300   86268383.5090
  82673823.5870
  20491913.920    20491914.260    20491918.080   107686083.2900   83911410.8200
  80415025.2440
  22749841.140    22749843.720    22749844.840   119551225.9100   93156812.4080
  89275290.1960
  21827766.240    21827767.640    21827768.520   114706003.4890   89381417.2280
  85657231.0680
  21253156.880    21253155.780                   111686124.6620   87028166.4760

  21410501.960    21410499.460                   112512952.9040   87672420.6480

  24103419.280    24103419.020                   126665008.1240   98699905.6000

  24678349.660    24678349.300                   129685602.5170  101053714.3490

 23  2 16  0 47  0.0000000  0  9G01G03G04G06G09G17G19G21G31
  22195870.140    22195873.040    22195872.580   116640506.3610   90888866.4800
  87101762.0240
  21076579.060    21076580.400    21076580.800   110758509.6340   86305532.3070
  82709424.5190
  20487049.640    20487050.060    20487053.860   107660521.6600   83891492.6800
  80395937.0350
  22733033.840    22733036.360    22733037.480   119462903.1790   93087989.5350
  89209334.9600
  21811370.860    21811372.180    21811373.140   114619845.1650   89314280.9000
  85592892.1080
  21258698.940    21258697.820                   111715248.0320   87050859.9900

  21405068.820    21405066.180                   112484401.2950   87650172.6370

  24118784.920    24118784.580                   126745755.3330   98762825.4560

  24684855.580    24684855.240                   129719792.0060  101080355.5630

 23  2 16  0 47 30.0000000  0  9G01G03G04G06G09G17G19G21G31
  22211434.980    22211437.940    22211437.620   116722300.3360   90952602.0000
  87162841.8840
  21085692.920    21085694.180    21085694.700   110806402.7800   86342851.6350
  82745188.8690
  20482291.060    20482291.500    20482295.240   107635515.3000   83872007.2180
  80377263.4620
  22716248.880    22716251.380    22716252.360   119374697.7390   93019258.0580
  89143467.2990
  21795043.700    21795045.060    21795046.080   114534045.7650   89247424.2550
  85528821.1730
  21264342.380    21264341.300                   111744904.3880   87073968.8210

  21399756.800    21399754.040                   112456486.0580   87628420.5070

  24134181.700    24134181.260                   126826666.8180   98825873.3060

  24691464.720    24691464.380                   129754524.0520  101107419.5580

 23  2 16  0 48  0.0000000  0  9G01G03G04G06G09G17G19G21G31
  22227052.800    22227055.540    22227055.320   116804371.9280   91016553.8590
  87224129.0760
  21094848.520    21094849.700    21094850.340   110854515.2910   86380341.8960
  82781117.0350
  20477638.560    20477638.900    20477642.620   107611066.0400   83852955.8610
  80359005.9160
  22699486.720    22699489.340    22699490.280   119286612.9000   92950620.5580
  89077689.7090
  21778785.420    21778786.960    21778787.920   114448608.7070   89180849.9570
  85465020.8290
  21270087.280    21270086.240                   111775093.9990   87097493.1710

  21394566.320    21394563.580                   112429209.9070   87607166.3670

  24149609.680    24149609.360                   126907742.9710   98889049.4970

  24698177.360    24698177.020                   129789799.6440  101134907.0960

 23  2 16  0 48 30.0000000  0  9G01G03G04G06G09G17G19G21G31
  22242723.840    22242726.340    22242726.240   116886723.3440   91080723.7730
  87285625.2380
  21104046.260    21104047.440    21104048.040   110902849.3730   86418004.8080
  82817210.6560
  20473092.720    20473092.960    20473096.660   107587177.3500   83834341.3090
  80341166.9770
  22682748.480    22682751.220    22682752.100   119198653.6650   92882080.9250
  89012005.8950
  21762597.060    21762598.800    21762599.580   114363539.0420   89114561.9440
  85401494.8340
  21275934.000    21275933.060                   111805818.9360   87121434.6590

  21389498.220    21389495.580                   112402577.0400   87586413.4920

  24165069.480    24165069.340                   126988986.3130   98952355.9320

  24704993.880    24704993.480                   129825620.6820  101162819.6590

 23  2 16  0 49  0.0000000  0  9G01G03G04G06G09G17G19G21G31
  22258447.440    22258449.800    22258449.800   116969350.8130   91145108.7830
  87347327.5250
  21113285.420    21113286.680    21113287.320   110951401.1580   86455837.3540
  82853466.8510
  20468653.020    20468653.220    20468656.880   107563846.6060   83816161.5210
  80323744.6890
  22666033.980    22666036.740    22666037.620   119110818.9290   92813638.3060
  88946415.0800
  21746478.460    21746480.380    21746480.920   114278835.7630   89048559.4300
  85338242.4380
  21281881.840    21281881.000                   111837075.2800   87145790.2250

  21384552.240    21384549.640                   112376585.7220   87566160.5230

  24180560.620    24180560.540                   127070392.9270   99015789.5930

  24711913.500    24711913.000                   129861983.2530  101191154.2010

 23  2 16  0 49 30.0000000  0  9G01G03G04G06G09G17G19G21G31
  22274223.740    22274226.180    22274226.140   117052255.5630   91209709.8510
  87409236.8720
  21122566.220    21122567.540    21122568.140   111000171.8860   86493840.5040
  82889886.5310
  20464319.940    20464320.140    20464323.800   107541076.2930   83798418.4360
  80306740.8960
  22649343.940    22649346.820    22649347.620   119023112.7760   92745295.8840
  88880920.2710
  21730430.400    21730432.480    21730432.780   114194502.9990   88982845.6300
  85275266.7180
  21287931.080    21287930.260                   111868864.0800   87170560.7030

  21379729.020    21379726.300                   112351239.2090   87546409.9930

  24196083.480    24196083.220                   127151964.8980   99079352.1400

  24718936.280    24718935.800                   129898888.7230  101219911.7670

 23  2 16  0 50  0.0000000  0  9G01G03G04G06G09G17G19G21G31
  22290052.300    22290054.840    22290054.700   117135435.2650   91274525.1640
  87471351.5450
  21131888.220    21131889.560    21131890.120   111049159.2060   86532012.4260
  82926467.9520
  20460093.260    20460093.500    20460097.200   107518865.2450   83781111.1420
  80290154.7410
  22632678.560    22632681.360    22632682.140   118935535.6310   92677053.9880
  88815521.7970
  21714452.980    21714455.100    21714455.280   114110541.1790   88917420.8770
  85212568.0040
  21294081.080    21294080.320                   111901182.6690   87195743.9940

  21375028.360    21375025.560                   112326536.9240   87527161.4620

  24211637.320    24211637.000                   127233699.4840   99143041.3800

  24726062.080    24726061.220                   129936334.7840  101249090.5590

 23  2 16  0 50 30.0000000  0  9G01G03G04G06G09G17G19G21G31
  22305932.940    22305935.560    22305935.200   117218888.7840   91339553.8470
  87533670.6950
  21141251.200    21141252.480    21141253.000   111098361.9640   86570352.2230
  82963210.2570
  20455973.040    20455973.300    20455977.060   107497213.4610   83764239.6390
  80273986.2250
  22616038.040    22616040.720    22616041.480   118848089.1400   92608913.8960
  88750220.8890
  21698546.500    21698548.600    21698548.800   114026951.9580   88852286.4590
  85150147.5320
  21300331.640    21300330.880                   111934029.5670   87221338.9580

  21370450.440    21370447.640                   112302479.7790   87508415.6400

  24227221.900    24227221.600                   127315595.6800   99206856.5610

  24733290.500    24733289.220                   129974319.8230  101278689.3660

 23  2 16  0 51  0.0000000  0  9G01G03G04G06G09G17G19G21G31
  22321865.700    22321868.460    22321867.840   117302615.7610   91404795.6180
  87596194.0560
  21150655.080    21150656.320    21150656.720   111147779.8290   86608859.6370
  83000113.1930
  20451959.380    20451959.740    20451963.520   107476121.7660   83747804.5700
  80258235.9510
  22599422.920    22599425.380    22599426.220   118760775.7640   92540877.5230
  88685019.3750
  21682711.340    21682713.460    21682713.700   113943737.7980   88787444.3020
  85088007.1310
  21306682.680    21306681.900                   111967404.3480   87247345.2590

  21365995.560    21365992.820                   112279069.3970   87490173.7890

  24242837.180    24242836.840                   127397653.4190   99270797.6030

  24740621.280    24740619.940                   130012843.7760  101308708.0900

 23  2 16  0 51 30.0000000  0  9G01G03G04G06G09G17G19G21G31
  22337850.080    22337853.060    22337852.240   117386613.8720   91470248.6490
  87658919.8710
  21160099.440    21160100.640    21160101.120   111197410.4910   86647532.8700
  83037175.0310
  20448052.140    20448052.460    20448056.300   107455588.9390   83731804.9760
  80242903.0120
  22582833.320    22582835.600    22582836.380   118673596.0230   92472945.2890
  88619917.6480
  21666947.680    21666949.720    21666950.040   113860899.2060   88722894.7890
  85026147.1790
  21313133.660    21313132.900                   112001304.4340   87273760.8830

  21361663.620    21361660.940                   112256304.8600   87472435.1880

  24258482.780    24258482.520                   127479871.0400   99334863.2350

  24748054.260    24748052.780                   130051904.1840  101339144.8310

 23  2 16  0 52  0.0000000  0  9G01G03G04G06G09G17G19G21G31
  22353886.100    22353889.360    22353888.520   117470884.2410   91535913.8220
  87721849.0050
  21169584.520    21169585.780    21169586.160   111247255.1250   86686372.8290
  83074396.6640
  20444251.680    20444251.900    20444255.800   107435617.2800   83716242.6580
  80227989.1220
  22566269.840    22566271.960    22566272.720   118586553.8860   92405120.2730
  88554918.6930
  21651256.200    21651258.160    21651258.520   113778440.0660   88658640.9510
  84964570.5980
  21319684.780    21319684.000                   112035730.4920   87300586.3600

  21357455.200    21357452.620                   112234189.4920   87455202.4340

  24274158.860    24274158.740                   127562249.0520   99399053.8400

  24755589.420    24755588.140                   130091502.1000  101370000.4180

 23  2 16  0 52 30.0000000  0  9G01G03G04G06G09G17G19G21G31
  22369973.820    22369977.180    22369976.360   117555426.1790   91601790.6120
  87784980.9210
  21179110.200    21179111.540    21179111.760   111297313.0400   86725378.9840
  83111777.5630
  20440558.100    20440558.160    20440562.140   107416207.1440   83701117.8930
  80213494.5610
  22549732.920    22549735.040    22549735.680   118499651.5040   92337404.1600
  88490024.0840
  21635637.380    21635639.240    21635639.620   113696362.4790   88594684.4280
  84903278.9320
  21326335.760    21326335.040                   112070681.5410   87327820.9210

  21353370.440    21353367.980                   112212724.1910   87438476.2250

  24289865.380    24289865.480                   127644787.7840   99463369.6680

  24763226.680    24763225.480                   130131636.4170  101401273.9730

 23  2 16  0 53  0.0000000  0  9G01G03G04G06G09G17G19G21G31
  22386112.540    22386115.820    22386114.960   117640235.7010   91667875.9220
  87848312.6760
  21188675.720    21188677.100    21188677.320   111347580.4000   86764548.3390
  83149314.8530
  20436970.800    20436970.780    20436974.780   107397355.7160   83686428.4810
  80199417.2120
  22533222.320    22533224.520    22533225.060   118412887.7860   92269796.1030
  88425233.0300
  21620090.920    21620092.700    21620093.160   113614665.2940   88531024.3250
  84842271.3390
  21333085.840    21333085.160                   112106153.3070   87355461.2310

  21349409.020    21349406.620                   112191907.0430   87422255.0790

  24305601.640    24305601.980                   127727483.0220   99527807.4620

  24770965.300    24770964.100                   130172303.2180  101432962.4700

 23  2 16  0 53 30.0000000  0  9G01G03G04G06G09G17G19G21G31
  22402302.780    22402306.040    22402305.100   117725315.9110   91734172.1500
  87911846.5630
  21198281.700    21198283.120    21198283.400   111398060.2840   86803883.2970
  83187010.8580
  20433490.600    20433490.540    20433494.540   107379067.1280   83672177.6480
  80185760.1660
  22516739.160    22516741.440    22516741.980   118326268.7420   92202300.7750
  88360550.0130
  21604618.000    21604619.680    21604620.220   113533354.3610   88467665.1950
  84781552.1750
  21339935.580    21339934.940                   112142148.8910   87383509.7160

  21345571.900    21345569.480                   112171742.8360   87406542.7080

  24321368.020    24321368.660                   127810337.0770   99592368.9700

  24778805.640    24778804.540                   130213505.4710  101465068.1930

 23  2 16  0 54  0.0000000  0  9G01G03G04G06G09G17G19G21G31
  22418543.260    22418546.680    22418545.700   117810660.6790   91800674.5200
  87975577.9930
  21207927.000    21207928.380    21207928.960   111448746.6850   86843379.1780
  83224861.0660
  20430116.520    20430116.460    20430120.420   107361336.3000   83658361.4320
  80172519.6270
  22500282.960    22500285.340    22500285.820   118239791.1040   92134915.6410
  88295972.5900
  21589217.920    21589219.480    21589220.080   113452426.3340   88404604.4280
  84721118.9420
  21346883.680    21346883.000                   112178661.2060   87411960.8480

  21341858.180    21341855.720                   112152226.8770   87391335.4660

  24337163.940    24337164.780                   127893345.5440   99657050.8220

  24786746.740    24786745.740                   130255236.8980  101497586.2620

 23  2 16  0 54 30.0000000  0  9G01G03G04G06G09G17G19G21G31
  22434834.840    22434838.140    22434837.260   117896272.8380   91867385.2450
  88039509.0990
  21217612.140    21217613.480    21217614.340   111499642.5420   86883038.2700
  83262867.6920
  20426849.340    20426849.280    20426853.180   107344167.1130   83644982.8610
  80159698.4980
  22483854.760    22483857.240    22483857.720   118153460.6270   92067645.1720
  88231505.0720
  21573891.760    21573893.140    21573893.820   113371886.8170   88341846.3930
  84660975.8330
  21353930.620    21353929.880                   112215692.9150   87440816.7030

  21338268.740    21338266.240                   112133364.2060   87376637.2780

  24352989.560    24352990.820                   127976510.8970   99721854.9260

  24794789.060    24794788.160                   130297500.1920  101530518.7660

 23  2 16  0 55  0.0000000  0  9G01G03G04G06G09G17G19G21G31
  22451177.100    22451180.120    22451179.340   117982150.8140   91934303.1160
  88103638.7120
  21227336.900    21227338.280    21227339.080   111550746.4140   86922859.4530
  83301029.6550
  20423688.940    20423688.880    20423692.700   107327559.0760   83632041.5480
  80147296.4090
  22467454.880    22467457.400    22467457.820   118067278.7540   92000490.5050
  88167148.5020
  21558639.740    21558641.020    21558641.760   113291737.0530   88279392.0580
  84601123.7760
  21361076.100    21361075.240                   112253242.4560   87470076.0630

  21334803.640    21334801.100                   112115154.9120   87362448.2200

  24368845.240    24368846.080                   128059831.8120   99786780.2550

  24802932.340    24802931.480                   130340293.6070  101563864.3540

 23  2 16  0 55 30.0000000  0  9G01G03G04G06G09G17G19G21G31
  22467568.780    22467571.660    22467570.960   118068289.1800   92001423.8920
  88167962.7750
  21237100.240    21237101.680    21237102.420   111602052.9040   86962838.5180
  83339342.9220
  20420634.500    20420634.380    20420638.140   107311507.7330   83619534.0240
  80135310.0300
  22451082.720    22451085.300    22451085.740   117981242.9010   91933449.6120
  88102900.9930
  21543461.380    21543462.580    21543463.420   113211974.3140   88217239.3070
  84541560.7390
  21368318.960    21368317.980                   112291303.7110   87499734.1570

  21331462.120    21331459.440                   112097594.8110   87348765.0220

  24384729.480    24384729.960                   128143302.8170   99851822.5920

  24811175.320    24811174.560                   130383611.1690  101597618.3660

 23  2 16  0 56  0.0000000  0  9G01G03G04G06G09G17G19G21G31
  22484011.100    22484014.020    22484013.300   118154694.1700   92068752.4130
  88232485.9310
  21246903.420    21246904.840    21246905.500   111653568.4220   87002980.4670
  83377812.2860
  20417687.360    20417687.180    20417690.900   107296020.3080   83607465.9170
  80123744.7690
  22434740.160    22434742.800    22434743.180   117895362.2710   91866529.6730
  88038769.3990
  21528358.360    21528359.600    21528360.520   113132607.6080   88155395.1500
  84482293.4400
  21375660.360    21375659.280                   112329882.6870   87529795.6740

  21328245.680    21328242.900                   112080692.0340   87335594.0230

  24400643.420    24400643.860                   128226930.0190   99916986.5800

  24819519.160    24819518.440                   130427459.0450  101631785.6340

 23  2 16  0 56 30.0000000  0  9G01G03G04G06G09G17G19G21G31
  22500503.600    22500506.520    22500505.720   118241362.4560   92136286.1080
  88297205.7080
  21256745.760    21256747.140    21256747.720   111705289.7940   87043282.8170
  83416435.3710
  20414847.100    20414846.860    20414850.600   107281094.5070   83595835.4390
  80112598.8920
  22418427.080    22418429.740    22418430.140   117809636.5890   91799730.4750
  87974753.5000
  21513330.600    21513331.900    21513332.860   113053636.3930   88093859.1710
  84423321.4730
  21383099.480    21383098.360                   112368975.3420   87560257.4550

  21325153.980    21325151.120                   112064444.9760   87322933.9800

  24416586.500    24416586.820                   128310710.4080   99982269.9720

  24827963.380    24827962.640                   130471833.7580  101666363.3940

 23  2 16  0 57  0.0000000  0  9G01G03G04G06G09G17G19G21G31
  22517045.120    22517047.960    22517047.100   118328287.8480   92204020.1420
  88362117.4890
  21266626.060    21266627.460    21266627.980   111757210.9770   87083740.8690
  83455207.6670
  20412112.680    20412112.420    20412116.200   107266725.0960   83584638.5080
  80101868.5020
  22402142.860    22402145.480    22402145.960   117724062.6350   91733049.5040
  87910850.9130
  21498377.460    21498378.800    21498379.740   112975057.2490   88032628.7060
  84364642.2900
  21390635.120    21390634.000                   112408575.2320   87591114.4830

  21322186.140    21322183.300                   112048849.2570   87310781.4700

  24432557.580    24432557.920                   128394637.9520  100047668.0110

  24836506.560    24836505.760                   130516728.6160  101701346.4780

 23  2 16  0 57 30.0000000  0  9G01G03G04G06G09G17G19G21G31
  22533636.660    22533639.540    22533638.680   118415476.9470   92271959.6650
  88427226.1810
  21276545.720    21276547.100    21276547.500   111809338.7240   87124359.8790
  83494134.2160
  20409485.560    20409485.280    20409489.120   107252919.5870   83573880.9850
  80091559.2150
  22385889.260    22385891.960    22385892.360   117638649.9550   91666494.2040
  87847068.7590
  21483500.660    21483502.040    21483502.940   112896879.4760   87971710.9910
  84306262.8240
  21398268.420    21398267.380                   112448688.5180   87622371.5580

  21319343.740    21319340.940                   112033912.6890   87299142.5850

  24448557.900    24448558.440                   128478719.9460  100113186.3900

  24845149.880    24845149.160                   130562150.2500  101736740.0310

 23  2 16  0 58  0.0000000  0  9G01G03G04G06G09G17G19G21G31
  22550277.080    22550279.900    22550279.200   118502923.0030   92340099.4000
  88492526.7540
  21286503.380    21286504.800    21286505.080   111861666.4700   87165134.7280
  83533210.1170
  20406964.620    20406964.380    20406968.260   107239672.2020   83563558.3570
  80081666.7090
  22369665.700    22369668.340    22369668.860   117553394.8500   91600061.6880
  87783404.2760
  21468699.480    21468700.920    21468701.780   112819099.0520   87911102.9000
  84248180.0950
  21405998.020    21405997.080                   112489307.7510   87654022.8820

  21316625.860    21316623.080                   112019630.2640   87288013.4210

  24464586.360    24464586.920                   128562949.6310  100178819.8450

  24853892.060    24853891.460                   130608091.3200  101772538.3390

 23  2 16  0 58 30.0000000  0  9G01G03G04G06G09G17G19G21G31
  22566966.880    22566969.640    22566969.100   118590628.3330   92408441.1770
  88558020.9530
  21296499.560    21296500.960    21296501.260   111914196.7110   87206067.3670
  83572437.2250
  20404550.500    20404550.340    20404554.260   107226986.1990   83553673.1750
  80072193.4070
  22353473.160    22353475.680    22353476.340   117468302.7070   91533756.1480
  87719861.4750
  21453974.840    21453976.360    21453977.200   112741721.0700   87850808.4030
  84190397.8800
  21413824.260    21413823.400                   112530434.9860   87686070.0510

  21314033.240    21314030.500                   112006005.9440   87277397.0610

  24480643.260    24480643.820                   128647329.0180  100244569.9410

  24862733.560    24862732.940                   130654554.0500  101808743.1490

 23  2 16  0 59  0.0000000  0  9G01G03G04G06G09G17G19G21G31
  22583705.780    22583708.540    22583708.140   118678591.6520   92476983.9900
  88623707.8040
  21306534.040    21306535.500    21306535.780   111966928.4360   87247157.0080
  83611814.7860
  20402243.180    20402243.100    20402247.020   107214861.2190   83544225.1530
  80063139.0580
  22337312.020    22337314.420    22337315.180   117383375.2720   91467578.9550
  87656441.6760
  21439327.060    21439328.680    21439329.480   112664746.9870   87790828.6340
  84132917.2830
  21421746.860    21421746.080                   112572068.6530   87718511.8510

  21311565.900    21311563.240                   111993040.1390   87267293.8290

  24496728.400    24496729.100                   128731857.5350  100310436.2490

  24871674.120    24871673.420                   130701536.9890  101845353.2970

 23  2 16  0 59 30.0000000  0  9G01G03G04G06G09G17G19G21G31
  22600493.320    22600496.160    22600495.800   118766810.4860   92545725.8940
  88689585.4640
  21316606.420    21316607.940    21316608.240   112019859.2600   87288401.7870
  83651341.0330
  20400042.300    20400042.280    20400046.220   107203295.6270   83535213.0160
  80054502.4310
  22321182.300    22321184.560    22321185.480   117298613.0920   91401530.5300
  87593145.2810
  21424756.240    21424757.860    21424758.580   112588177.0050   87731163.7460
  84075738.4520
  21429765.120    21429764.460                   112614205.4300   87751345.6810

  21309223.580    21309220.960                   111980731.1670   87257702.4140

  24512841.460    24512842.340                   128816532.4000  100376416.5690

  24880713.020    24880712.240                   130749037.0260  101882366.3890

 23  2 16  1  0  0.0000000  0  9G01G03G04G06G09G17G19G21G31
  22617329.200    22617332.140    22617331.880   118855283.8040   92614666.0940
  88755653.1400
  21326716.540    21326718.160    21326718.520   112072988.4550   87329801.1450
  83691015.4060
  20397947.880    20397947.880    20397951.800   107192289.3180   83526636.6870
  80046283.4450
  22305084.440    22305086.560    22305087.600   117214018.2300   91335612.4780
  87529973.8380
  21410262.660    21410264.280    21410264.880   112512012.8390   87671815.0760
  84018862.6540
  21437878.900    21437878.380                   112656844.1990   87784570.6710

  21307006.500    21307003.860                   111969080.1020   87248623.6520

  24528982.620    24528983.360                   128901353.3200  100442510.7150

  24889850.080    24889849.120                   130797052.9340  101919781.4620

 23  2 16  1  0 30.0000000  0  9G01G03G04G06G09G17G19G21G31
  22634213.680    22634216.580    22634216.460   118944012.6230   92683805.3930
  88821911.6290
  21336864.620    21336866.360    21336866.760   112126317.2640   87371356.0430
  83730838.8480
  20395960.200    20395960.240    20395964.140   107181844.1600   83518497.6110
  80038483.5050
  22289019.200    22289021.340    22289022.320   117129594.8300   91269828.0340
  87466930.4170
  21395847.060    21395848.640    21395849.100   112436258.2100   87612785.5260
  83962292.6830
  21446088.240    21446087.800                   112699984.9130   87818186.7880

  21304915.080    21304912.400                   111958089.3900   87240059.4520

  24545151.600    24545152.180                   128986321.5050  100508719.6330

  24899085.500    24899084.480                   130845585.4460  101957599.0760

 23  2 16  1  1  0.0000000  0  9G01G03G04G06G09G17G19G21G31
  22651146.240    22651148.980    22651148.980   119032993.6430   92753141.2130
  88888358.4470
  21347050.120    21347051.940    21347052.340   112179842.6380   87413064.1120
  83770809.0790
  20394078.880    20394078.940    20394082.800   107171957.7670   83510793.9370
  80031100.8150
  22272986.480    22272988.720    22272989.660   117045342.6640   91204177.0270
  87404014.8720
  21381509.320    21381510.860    21381511.240   112360912.5680   87554074.6710
  83906028.1170
  21454392.460    21454391.980                   112743624.0310   87852191.2690

  21302948.960    21302946.220                   111947757.0650   87232008.2900

  24561347.860    24561348.380                   129071433.1420  100575040.3190

  24908418.380    24908417.520                   130894630.8550  101995816.3590

 23  2 16  1  1 30.0000000  0  9G01G03G04G06G09G17G19G21G31
  22668126.360    22668128.960    22668128.980   119122224.6160   92822671.8020
  88954991.9090
  21357272.600    21357274.520    21357274.940   112233562.5400   87454923.7580
  83810924.5730
  20392303.620    20392303.680    20392307.500   107162628.6240   83503524.4800
  80024134.2550
  22256986.540    22256988.780    22256989.680   116961262.5670   91138660.0970
  87341227.8180
  21367249.440    21367250.920    21367251.320   112285976.2900   87495682.8010
  83850069.2450
  21462791.080    21462790.420                   112787758.7010   87886581.8920

  21301107.980    21301105.200                   111938082.4980   87224469.6600

  24577570.960    24577571.340                   129156685.8320  100641470.9350

  24917848.480    24917847.540                   130944186.3340  102034431.0830

 23  2 16  1  2  0.0000000  0  9G01G03G04G06G09G17G19G21G31
  22685154.280    22685156.760    22685156.820   119211706.9360   92892398.2530
  89021813.0830
  21367532.460    21367534.440    21367534.900   112287478.7210   87496936.3480
  83851186.6340
  20390634.820    20390634.920    20390638.660   107153859.0150   83496691.0250
  80017585.5310
  22241020.220    22241022.560    22241023.340   116877359.1180   91073280.8210
  87278572.6840
  21353068.260    21353069.600    21353070.060   112211453.5000   87437613.1310
  83794419.1510
  21471284.200    21471283.340                   112832389.8490   87921359.3790

  21299392.620    21299389.780                   111929068.1910   87217445.5210

  24593821.340    24593821.780                   129242082.4160  100708013.6680

  24927375.700    24927374.720                   130994252.8120  102073443.9910

 23  2 16  1  2 30.0000000  0  9G01G03G04G06G09G17G19G21G31
  22702229.940    22702232.180    22702232.340   119301439.5470   92962319.7390
  89088821.1580
  21377829.560    21377831.540    21377832.000   112341590.3410   87539101.2280
  83891594.6390
  20389072.420    20389072.600    20389076.180   107145648.6610   83490293.3530
  80011454.4400
  22225087.840    22225090.320    22225091.020   116793634.3710   91008040.7930
  87216050.9990
  21338966.040    21338967.260    21338967.760   112137345.8520   87379866.9440
  83739079.0650
  21479871.480    21479870.460                   112877515.6510   87956522.3120

  21297802.820    21297800.040                   111920714.1800   87210935.8960

  24610098.760    24610099.280                   129327621.2190  100774667.2520

  24936999.960    24936999.060                   131044829.4850  102112854.4700

 23  2 16  1  3  0.0000000  0  9G01G03G04G06G09G17G19G21G31
  22719352.820    22719355.040    22719355.180   119391420.9150   93032435.0520
  89156015.0010
  21388163.720    21388165.620    21388166.100   112395896.2350   87581417.4890
  83932147.7200
  20387616.340    20387616.540    20387619.960   107137996.8980   83484330.9520
  80005740.4650
  22209189.860    22209192.300    22209193.060   116710090.0460   90942941.3520
  87153664.0320
  21324943.060    21324944.160    21324944.680   112063654.5240   87322445.1610
  83684049.8620
  21488552.520    21488551.420                   112923134.2560   87992069.2450

  21296338.840    21296336.020                   111913020.7740   87204941.0090

  24626403.100    24626403.620                   129413301.2430  100841430.8610

  24946720.980    24946720.140                   131095913.8270  102152660.5390

 23  2 16  1  3 30.0000000  0  9G01G03G04G06G09G17G19G21G31
  22736522.480    22736524.880    22736524.960   119481648.5940   93102742.2900
  89223392.7690
  21398534.440    21398536.220    21398536.700   112450394.1920   87623883.4160
  83972844.2290
  20386266.220    20386266.440    20386269.700   107130901.9880   83478802.4590
  80000442.3340
  22193326.320    22193328.800    22193329.600   116626726.7520   90877982.9690
  87091412.2610
  21310999.300    21311000.340    21311000.900   111990379.6620   87265347.8990
  83629331.6650
  21497326.640    21497325.580                   112969242.3240   88027997.5790

  21295000.260    21294997.520                   111905986.7930   87199459.9910

  24642733.740    24642734.280                   129499119.4200  100908302.0970

  24956538.040    24956537.120                   131147502.9120  102192859.9140

 23  2 16  1  4  0.0000000  0  9G01G03G04G06G09G17G19G21G31
  22753739.040    22753741.620    22753741.660   119572122.6450   93173241.4990
  89290954.5020
  21408941.800    21408943.460    21408943.960   112505084.6000   87666499.2970
  84013684.4450
  20385022.200    20385022.420    20385025.560   107124364.7630   83473708.5240
  79995560.6480
  22177497.880    22177500.300    22177501.160   116543547.7410   90813168.1860
  87029298.1090
  21297135.340    21297136.360    21297136.980   111917524.0420   87208577.3190
  83574926.5270
  21506193.820    21506192.900                   113015839.6980   88064307.1900

  21293787.500    21293784.760                   111899613.7100   87194493.9480

  24659090.780    24659091.520                   129585077.2880  100975282.1970

  24966451.080    24966450.180                   131199596.5200  102233452.4130

 23  2 16  1  4 30.0000000  0  9G01G03G04G06G09G17G19G21G31
  22771002.400    22771005.060    22771005.140   119662842.1490   93243931.9760
  89358699.5220
  21419385.620    21419387.200    21419387.780   112559966.8950   87709264.7010
  84054667.9410
  20383884.220    20383884.440    20383887.580   107118385.0350   83469049.0040
  79991095.2720
  22161705.000    22161707.280    22161708.180   116460555.3410   90748498.8070
  86967323.2910
  21283351.460    21283352.520    21283353.160   111845089.3820   87152134.7590
  83520835.7410
  21515153.680    21515152.920                   113062924.1720   88100996.3640

  21292700.640    21292697.860                   111893901.8720   87190043.1640

  24675474.420    24675475.020                   129671173.5510  101042370.1180

  24976459.920    24976458.940                   131252193.3710  102274437.0550

 23  2 16  1  5  0.0000000  0  9G01G03G04G06G09G17G19G21G31
  22788312.100    22788314.840    22788314.980   119753805.2680   93314812.2860
  89426626.4840
  21429865.640    21429867.180    21429867.740   112615039.5830   87752178.4610
  84095793.6340
  20382852.180    20382852.340    20382855.620   107112961.7590   83464823.0790
  79987045.4310
  22145947.880    22145950.100    22145950.900   116377750.9140   90683975.9050
  86905488.8500
  21269647.820    21269648.940    21269649.580   111773076.5200   87096020.8720
  83467059.9400
  21524205.940    21524205.260                   113110493.9930   88138063.7290

  21291739.400    21291736.640                   111888850.3540   87186106.9090

  24691884.160    24691884.840                   129757406.5200  101109564.5720

  24986563.860    24986563.000                   131305290.7830  102315811.7310

 23  2 16  1  5 30.0000000  0  9G01G03G04G06G09G17G19G21G31
  22805667.440    22805670.340    22805670.420   119845008.5050   93385879.6980
  89494732.7350
  21440381.340    21440382.780    21440383.260   112670299.5120   87795238.1260
  84137059.1410
  20381925.500    20381925.640    20381929.080   107108092.1070   83461028.5530
  79983409.0110
  22130226.460    22130228.600    22130229.340   116295134.1530   90619599.2320
  86843794.5420
  21256024.240    21256025.480    21256026.020   111701484.5810   87040234.9820
  83413598.4680
  21533349.680    21533349.100                   113158544.6820   88175505.7970

  21290903.320    21290900.660                   111884456.8050   87182683.3590

  24708319.220    24708319.840                   129843772.8390  101176862.9370

  24996762.480    24996761.640                   131358885.2740  102357573.7540

 23  2 16  1  6  0.0000000  0  9G01G03G04G06G09G17G19G21G31
  22823069.380    22823072.480    22823072.420   119936456.7160   93457137.9960
  89563021.9320
  21450933.660    21450934.980    21450935.480   112725751.9080   87838447.7690
  84178468.3690
  20381105.260    20381105.360    20381108.980   107103781.6670   83457669.7740
  79980190.1830
  22114542.280    22114544.340    22114545.020   116212713.1700   90555375.1130
  86782246.4370
  21242482.220    21242483.540    21242483.940   111630321.1270   86984782.9730
  83360456.9630
  21542585.780    21542585.260                   113207080.4100   88213325.8180

  21290193.740    21290191.080                   111880727.7640   87179777.6060

  24724780.480    24724781.200                   129930277.1780  101244268.8340

  25007056.440    25007055.600                   131412980.9430  102399726.2950

 23  2 16  1  6 30.0000000  0  9G01G03G04G06G09G17G19G21G31
  22840516.740    22840519.860    22840519.620   120028142.5030   93528581.4230
  89631488.5240
  21461521.220    21461522.560    21461522.880   112781389.7300   87881801.8930
  84220016.0720
  20380390.140    20380390.220    20380393.960   107100023.7230   83454741.5140
  79977383.9340
  22098894.540    22098896.540    22098897.180   116130483.8040   90491300.3050
  86720841.4190
  21229020.800    21229022.220    21229022.440   111559581.3060   86929661.0690
  83307631.8110
  21551912.620    21551912.200                   113256093.2430   88251517.6060

  21289609.300    21289606.700                   111877656.8390   87177384.6760

  24741266.560    24741267.360                   130016912.1370  101311776.5450

  25017444.360    25017443.360                   131467569.8650  102442263.2030

 23  2 16  1  7  0.0000000  0  9G01G03G04G06G09G17G19G21G31
  22858010.260    22858013.420    22858013.000   120120070.5330   93600213.6130
  89700136.0340
  21472144.980    21472146.400    21472146.620   112837218.0650   87925304.4720
  84261706.0350
  20379781.220    20379781.300    20379785.040   107096823.6400   83452247.9490
  79974994.2720
  22083284.700    22083286.800    22083287.420   116048453.9960   90427381.0080
  86659585.4330
  21215641.440    21215642.920    21215642.960   111489272.4780   86874875.0000
  83255128.5150
  21561331.020    21561330.640                   113305587.1010   88290084.2190

  21289151.200    21289148.620                   111875249.5910   87175508.8900

  24757778.640    24757779.520                   130103683.4430  101379390.4720

  25027927.000    25027925.820                   131522656.2210  102485187.7040

 23  2 16  1  7 30.0000000  0  9G01G03G04G06G09G17G19G21G31
  22875549.040    22875552.360    22875551.700   120212236.8340   93672031.4650
  89768961.4740
  21482804.360    21482805.760    21482806.020   112893233.3540   87968952.7320
  84303535.6140
  20379277.800    20379277.940    20379281.600   107094178.1400   83450186.5290
  79973018.7410
  22067712.700    22067714.900    22067715.540   115966623.0750   90363616.6830
  86598477.9500
  21202343.860    21202345.360    21202345.300   111419393.2950   86820423.7210
  83202946.0430
  21570839.980    21570839.660                   113355557.1860   88329021.9130

  21288818.900    21288816.300                   111873503.3220   87174148.1570

  24774315.860    24774316.840                   130190587.0840  101447107.5310

  25038503.400    25038502.160                   131578235.6180  102528496.4390

 23  2 16  1  8  0.0000000  0  9G01G03G04G06G09G17G19G21G31
  22893132.500    22893135.940    22893135.100   120304638.3480   93744032.5880
  89837962.5510
  21493498.760    21493500.160    21493500.400   112949432.8500   88012744.5290
  84345502.7470
  20378879.460    20378879.620    20378883.180   107092084.6650   83448555.2580
  79971455.4440
  22052178.640    22052180.900    22052181.560   115884991.1700   90300007.4350
  86537519.0950
  21189127.900    21189129.420    21189129.440   111349943.2210   86766306.8030
  83151084.0150
  21580438.900    21580438.560                   113405999.9300   88368327.9110

  21288612.060    21288609.460                   111872416.3360   87173301.1530

  24790877.660    24790878.720                   130277619.8330  101514925.1800

  25049172.900    25049171.640                   131634304.2710  102572186.3790

 23  2 16  1  8 30.0000000  0  9G01G03G04G06G09G17G19G21G31
  22910760.760    22910764.140    22910763.360   120397275.1940   93816217.0950
  89907139.3670
  21504228.320    21504229.780    21504229.920   113005817.2290   88056680.3880
  84387607.9450
  20378586.320    20378586.520    20378589.980   107090544.1380   83447354.8490
  79970305.0570
  22036683.060    22036685.420    22036686.180   115803561.8100   90236556.0190
  86476711.4840
  21175994.160    21175995.640    21175995.860   111280925.0890   86712526.4690
  83099544.5350
  21590127.640    21590127.240                   113456914.3950   88408001.4890

  21288530.820    21288528.220                   111871989.7560   87172968.7450

  24807464.220    24807465.480                   130364782.6130  101582844.1760

  25059935.400    25059934.120                   131690861.8920  102616257.3370

 23  2 16  1  9  0.0000000  0 10G01G03G04G06G07G09G17G19G21G31
  22928433.760    22928437.060    22928436.320   120490147.0680   93888584.7540
  89976491.6680
  21514993.040    21514994.560    21514994.680   113062386.5080   88100760.3340
  84429851.2210
  20378398.440    20378398.620    20378402.060   107089556.7800   83446585.4860
  79969567.7540
  22021226.660    22021228.980    22021229.920   115722337.9140   90173264.7000
  86416057.3050
  25330530.820

  21162942.980    21162944.500    21162944.960   111212341.0790   86659084.4160
  83048329.2470
  21599906.020    21599905.560                   113508300.0340   88448042.2140

  21288575.400    21288572.700                   111872224.1600   87173151.3890

  24824075.420    24824076.900                   130452074.4300  101650863.6760

  25070790.800    25070789.620                   131747907.6860  102660708.6720

 23  2 16  1  9 30.0000000  0 10G01G03G04G06G07G09G17G19G21G31
  22946148.500    22946151.780    22946150.940   120583238.0080   93961123.1010
  90046007.5730
  21525790.040    21525791.600    21525791.720   113119125.2760   88144972.3420
  84472221.0580
  20378312.900    20378313.060    20378316.520   107089107.2830   83446235.2300
  79969232.0880
  22005806.940    22005809.280    22005810.260   115641306.8990   90110123.6750
  86355547.1630
  25313674.420    25313685.540

  21149971.940    21149973.440    21149974.120   111144177.8990   86605970.2800
  82997428.2110
  21609770.860    21609770.320                   113560139.9290   88488436.9080

  21288743.020    21288740.320                   111873104.9690   87173837.7210

  24840708.140    24840709.400                   130539479.4200  101718971.3980

  25081735.780    25081734.780                   131805425.0030  102705527.4420

 23  2 16  1 10  0.0000000  0 10G01G03G04G06G07G09G17G19G21G31
  22963909.840    22963913.300    22963912.280   120676574.4800   94033852.7660
  90115706.8260
  21536624.380    21536625.920    21536626.140   113176060.3740   88189337.3440
  84514737.5160
  20378334.820    20378335.000    20378338.480   107089222.6910   83446325.1630
  79969318.2830
  21990429.600    21990431.960    21990432.980   115560498.5610   90047156.1720
  86295203.3110
  25296794.060    25296805.920                   132935548.6001  103586188.1301

  21137086.520    21137087.960    21137088.820   111076464.5960   86553206.6950
  82946863.1240
  21619727.080    21619726.400                   113612459.7080   88529205.5450

  21289038.820    21289036.180                   111874659.3070   87175048.8790

  24857367.720    24857368.860                   130627025.1450  101787188.7770

  25092775.620    25092774.440                   131863439.5590  102750733.6780

 23  2 16  1 10 30.0000000  0 10G01G03G04G06G07G09G17G19G21G31
  22981715.680    22981719.300    22981718.220   120770145.1710   94106764.9450
  90185580.9940
  21547494.000    21547495.600    21547496.020   113233181.0260   88233846.9240
  84557392.5140
  20378462.220    20378462.380    20378465.900   107089892.2770   83446846.9220
  79969818.3010
  21975093.140    21975095.440    21975096.480   115479904.9040   89984355.9380
  86235019.7690
  25279889.120    25279900.320                   132846713.2661  103516965.0521

  21124285.080    21124286.440    21124287.400   111009192.4250   86500786.8460
  82896627.4400
  21629772.320    21629771.600                   113665247.4750   88570338.8410

  21289460.840    21289458.240                   111876876.7760   87176776.7670

  24874051.640    24874052.900                   130714700.1120  101855506.8410

  25103907.780    25103906.340                   131921939.3520  102796318.0240

 23  2 16  1 11  0.0000000  0 10G01G03G04G06G07G09G17G19G21G31
  22999564.260    22999567.920    22999566.920   120863940.1630   94179851.8970
  90255622.6600
  21558397.120    21558398.860    21558399.360   113290477.7150   88278493.6800
  84600178.9900
  20378693.280    20378693.440    20378697.040   107091106.6610   83447793.2030
  79970725.1560
  21959796.320    21959798.500    21959799.500   115399519.4090   89921717.9130
  86174991.6660
  25262957.840    25262968.720                   132757738.2611  103447633.0241

  21111566.180    21111567.480    21111568.480   110942353.9920   86448704.9720
  82846715.6640
  21639904.560    21639903.840                   113718492.3660   88611828.3370

  21290007.480    21290004.880                   111879748.9240   87179014.7900

  24890758.460    24890759.600                   130802494.3500  101923917.8450

  25115130.340    25115128.760                   131980914.1530  102842272.5050

 23  2 16  1 11 30.0000000  0 10G01G03G04G06G07G09G17G19G21G31
  23017456.980    23017460.640    23017459.680   120957967.1170   94253119.6000
  90325837.5290
  21569335.360    21569337.160    21569337.680   113347958.6540   88323284.0020
  84643103.0440
  20379029.580    20379029.780    20379033.420   107092874.0790   83449170.4160
  79972044.9850
  21944541.200    21944543.320    21944544.280   115319353.0440   89859250.6340
  86115127.1980
  25246002.320    25246013.300                   132668637.1980  103378203.8330

  21098931.760    21098933.060    21098933.980   110875959.5300   86396969.0540
  82797135.4190
  21650125.080    21650124.360                   113772201.1410   88653679.2990

  21290680.240    21290677.640                   111883284.0420   87181769.4130

  24907489.500    24907490.300                   130890415.5730  101992427.8030

  25126444.440    25126443.000                   132040371.2090  102888602.7540

 23  2 16  1 12  0.0000000  0 10G01G03G04G06G07G09G17G19G21G31
  23035392.700    23035396.440    23035395.440   121052220.3200   94326563.6010
  90396221.3480
  21580307.700    21580309.520    21580310.120   113405618.5850   88368213.7940
  84686160.7590
  20379470.140    20379470.340    20379474.020   107095189.3240   83450974.5120
  79973773.9080
  21929327.280    21929329.400    21929330.420   115239403.4920   89796952.2980
  86055424.6460
  25229022.360    25229033.540                   132579407.4680  103308674.4990

  21086381.180    21086382.560    21086383.320   110810005.8470   86345576.6010
  82747884.3320
  21660432.740    21660432.040                   113826367.9160   88695887.1370

  21291478.180    21291475.560                   111887477.0080   87185036.6470

  24924243.580    24924244.060                   130978458.7110  102061032.7820

  25137849.000    25137847.660                   132100303.6850  102935303.4580

 23  2 16  1 12 30.0000000  0 10G01G03G04G06G07G09G17G19G21G31
  23053371.500    23053375.120    23053374.120   121146699.0490   94400183.3410
  90466773.5920
  21591314.120    21591315.860    21591316.480   113463457.3550   88413282.9470
  84729352.0270
  20380014.940    20380015.120    20380018.880   107098052.2310   83453205.3520
  79975911.7980
  21914155.140    21914157.300    21914158.300   115159673.4600   89734825.0290
  85995886.0250
  25212018.420    25212029.660                   132490051.7070  103239047.0280

  21073914.860    21073916.260    21073916.800   110744494.8200   86294529.0720
  82698963.7910
  21670827.140    21670826.420                   113880990.3490   88738450.0370

  21292401.380    21292398.760                   111892328.3250   87188816.8800

  24941020.860    24941021.140                   131066623.1160  102129732.2450

  25149343.920    25149342.520                   132160710.3810  102982373.6950

 23  2 16  1 13  0.0000000  0 10G01G03G04G06G07G09G17G19G21G31
  23071393.160    23071396.520    23071395.620   121241402.4160   94473978.1270
  90537493.5870
  21602354.460    21602356.120    21602356.780   113521474.5730   88458491.1480
  84772676.5490
  20380663.900    20380664.020    20380667.840   107101462.4330   83455862.6590
  79978458.3780
  21899025.220    21899027.400    21899028.420   115080165.4830   89672870.7860
  85936513.2060
  25194990.960    25195002.420                   132400572.7310  103169323.7140

  21061533.020    21061534.440    21061534.800   110679428.0740   86243827.7360
  82650375.0200
  21681308.020    21681307.240                   113936067.3070   88781367.1120

  21293449.820    21293447.260                   111897837.9670   87193110.0990

  24957821.000    24957821.540                   131154908.0850  102198525.6250

  25160928.960    25160927.460                   132221589.9060  103029812.3700

 23  2 16  1 13 30.0000000  0 11G01G03G04G06G07G09G11G17G19G21G31
  23089457.460    23089460.640    23089459.800   121336329.8290   94547947.4950
  90608380.8680
  21613428.740    21613430.320    21613431.200   113579670.1470   88503838.3300
  84816134.2650
  20381416.980    20381417.020    20381420.880   107105419.7640   83458946.3020
  79981413.5370
  21883938.060    21883940.240    21883941.340   115000882.2950   89611091.7070
  85877308.2660
  25177940.400    25177951.880                   132310973.2220  103099506.5350

  21049236.100    21049237.480    21049237.680   110614807.4870   86193474.0540
  82602119.4200
  25554115.800    25554115.160    25554119.460   134287782.7821  104639834.3341
 100279852.8381
  21691875.060    21691874.260                   113991597.2930   88824637.1960

  21294623.580    21294621.060                   111904006.2150   87197916.5080

  24974643.960    24974644.440                   131243313.0290  102267412.5230

  25172603.600    25172602.080                   132282940.7820  103077618.3440

 23  2 16  1 14  0.0000000  0 11G01G03G04G06G07G09G11G17G19G21G31
  23107565.540    23107568.660    23107567.820   121431487.8950   94622096.5880
  90679440.3970
  21624538.380    21624539.840    21624540.780   113638051.3000   88549330.1150
  84859730.5490
  20382275.500    20382275.480    20382279.340   107109931.3720   83462461.8450
  79984782.5940
  21868895.580    21868897.780    21868898.900   114921833.9810   89549495.6450
  85818278.7160
  25160868.680    25160880.340                   132221263.3080  103029603.4780

  21037025.800    21037027.160    21037027.280   110550642.2190   86143475.1660
  82554203.8310
  25534530.300    25534529.720    25534534.160   134184860.4400  104559634.9670
 100202995.1270
  21702529.340    21702528.520                   114047586.0220   88868264.7450

  21295924.080    21295921.540                   111910840.3470   87203241.7870

  24991491.200    24991491.800                   131331844.6400  102336398.1320

  25184369.040    25184367.560                   132344768.9810  103125796.2510

 23  2 16  1 14 30.0000000  0 11G01G03G04G06G07G09G11G17G19G21G31
  23125713.620    23125716.760    23125715.900   121526856.6340   94696409.8340
  90750657.2730
  21635679.620    21635680.980    21635681.760   113696598.6010   88594951.3700
  84903450.9190
  20383235.780    20383235.740    20383239.480   107114977.7700   83466394.1060
  79988551.0130
  21853894.700    21853896.880    21853897.980   114843004.0300   89488069.7350
  85759412.2230
  25143772.680    25143784.440                   132131426.7670  102959601.8140

  21024898.840    21024900.180    21024900.300   110486914.8320   86093817.4890
  82506615.2340
  25514935.540    25514934.340    25514939.320   134081888.9100  104479397.2890
 100126100.6720
  21713266.840    21713266.020                   114104012.2150   88912233.1780

  21297347.700    21297345.200                   111918321.5200   87209071.2620

  25008358.720    25008359.120                   131420483.4600  102405467.2830

  25196221.560    25196219.920                   132407053.9890  103174330.1100

 23  2 16  1 15  0.0000000  0 11G01G03G04G06G07G09G11G17G19G21G31
  23143904.060    23143907.120    23143906.340   121622447.7680   94770896.3800
  90822040.2040
  21646854.780    21646856.160    21646856.720   113755324.2950   88640711.6310
  84947304.5040
  20384300.100    20384300.100    20384303.620   107120571.0530   83470752.5110
  79992727.8320
  21838938.260    21838940.460    21838941.540   114764407.5360   89426825.7390
  85700720.0730
  25126655.400    25126667.100                   132041478.6580  102889513.3670

  21012857.880    21012859.240    21012859.440   110423639.4570   86044512.0290
  82459364.1790
  25495334.200    25495333.440    25495338.020   133978882.5010  104399132.4240
 100049180.1760
  21724089.660    21724088.940                   114160887.1040   88956551.2370

  21298896.820    21298894.320                   111926462.1090   87215414.5660

  25025248.860    25025249.120                   131509241.2090  102474629.0570

  25208162.920    25208161.340                   132469806.7850  103223228.4780

 23  2 16  1 15 30.0000000  0 11G01G03G04G06G07G09G11G17G19G21G31
  23162136.040    23162138.900    23162138.300   121718256.8230   94845552.7420
  90893585.8760
  21658063.160    21658064.600    21658064.920   113814224.4880   88686607.8600
  84991288.3930
  20385467.760    20385467.760    20385471.060   107126707.2320   83475533.9550
  79997310.0510
  21824026.100    21824028.260    21824029.260   114686043.5250   89365762.8990
  85642201.5270
  25109516.800    25109528.320                   131951418.3460  102819337.5220

  21000902.560    21000903.920    21000904.240   110360814.1470   85995557.2720
  82412449.2080
  25475725.980    25475725.260    25475729.740   133875839.3800  104318838.9900
  99972232.2610
  21734996.940    21734996.340                   114218205.6550   89001215.0140

  21300570.700    21300568.260                   111935258.4360   87222268.8310

  25042160.640    25042161.000                   131598113.2730  102543879.9420

  25220192.360    25220190.720                   132533022.2450  103272487.3820

 23  2 16  1 16  0.0000000  0 11G01G03G04G06G07G09G11G17G19G21G31
  23180409.080    23180411.880    23180411.400   121814282.0630   94920377.5590
  90965292.9780
  21669304.460    21669305.980    21669306.240   113873298.0920   88732639.2190
  85035401.7680
  20386738.500    20386738.540    20386741.660   107133385.0080   83480737.4230
  80002296.7080
  21809158.560    21809160.660    21809161.440   114607913.7300   89304882.5650
  85583857.8770
  25092357.000    25092368.200                   131861247.2550  102749075.4320

  20989033.080    20989034.420    20989034.800   110298439.6560   85946953.7950
  82365870.8820
  25456110.780    25456110.300    25456114.560   133772760.4610  104238517.6530
  99895257.5990
  21745988.120    21745987.640                   114275965.0210   89046222.2690

  21302369.140    21302366.740                   111944709.3180   87229633.1360

  25059094.040    25059094.240                   131687098.7120  102613219.1630

  25232309.240    25232307.600                   132596697.9320  103322104.8910

 23  2 16  1 16 30.0000000  0 11G01G03G04G06G07G09G11G17G19G21G31
  23198723.400    23198726.240    23198725.800   121910524.5240   94995371.6380
  91037162.2940
  21680579.080    21680580.620    21680580.980   113932546.6800   88778806.9300
  85079645.8300
  20388112.580    20388112.660    20388115.680   107140605.8180   83486364.0370
  80007688.8850
  21794336.400    21794338.500    21794339.040   114530022.6620   89244188.2480
  85525692.4940
  25075177.180    25075188.100                   131770970.4360  102678731.0010

  20977250.000    20977251.360    20977251.840   110236519.4410   85898704.3040
  82319631.7960
  25436489.520    25436489.060    25436493.280   133669649.4810  104158171.3280
  99818259.0320
  21757063.160    21757062.800                   114334165.0800   89091572.9260

  21304292.380    21304290.040                   111954816.2230   87237508.6310

  25076049.160    25076049.580

  25244513.780    25244512.180                   132660833.9400  103372081.0610

 23  2 16  1 17  0.0000000  0 11G01G03G04G06G07G09G11G17G19G21G31
  23217078.320    23217081.180    23217080.740   122006980.1350   95070531.8050
  91109190.7780
  21691886.380    21691887.960    21691888.420   113991966.8580   88825108.3500
  85124018.0140
  20389589.320    20389589.420    20389592.360   107148365.9950   83492410.9360
  80013483.8240
  21779559.560    21779561.680    21779562.000   114452369.7730   89183679.5300
  85467704.9690
  25057976.920    25057987.500                   131680587.1920  102608303.6600

  20965553.140    20965554.440    20965555.040   110175051.9220   85850807.5620
  82273730.7580
  25416861.820    25416861.440    25416865.700   133566505.0590  104077798.9400
  99741235.4800
  21768221.280    21768220.920                   114392801.2210   89137263.3920

  21306339.940    21306337.540                   111965576.2260   87245893.0370

  25093025.160    25093025.520                   131864736.9141  102751743.2281

  25256805.140    25256803.420                   132725425.6620  103422412.3510

 23  2 16  1 17 30.0000000  0 11G01G03G04G06G07G09G11G17G19G21G31
  23235474.120    23235477.040    23235476.640   122103650.7300   95145859.4900
  91181379.8050
  21703226.780    21703228.380    21703228.800   114051561.0360   88871545.3630
  85168520.1420
  20391169.080    20391169.220    20391172.160   107156667.7530   83498879.8500
  80019683.2040
  21764829.040    21764831.160    21764831.300   114374960.3100   89123360.4970
  85409899.2300
  25040757.360    25040767.820                   131590102.6880  102537797.4690

  20953943.220    20953944.500    20953945.200   110114041.3780   85803266.9010
  82228170.9660
  25397228.740    25397228.300    25397232.580   133463331.7470  103997404.0370
  99664190.3760
  21779462.500    21779462.160                   114451873.9680   89183294.0690

  21308512.180    21308509.700                   111976991.4580   87254788.0110

  25110022.560    25110022.780                   131954058.1051  102821343.8531

  25269183.420    25269181.620                   132790474.2650  103473099.6780

 23  2 16  1 18  0.0000000  0 11G01G03G04G06G07G09G11G17G19G21G31
  23253910.000    23253913.100    23253912.720   122200532.4750   95221351.7070
  91253726.4940
  21714599.720    21714601.320    21714601.700   114111326.0290   88918115.4710
  85213149.8290
  20392851.220    20392851.360    20392854.400   107165507.6160   83505768.0620
  80026284.4050
  21750144.720    21750146.920    21750146.960   114297793.9920   89063230.9330
  85352275.0670
  25023518.600    25023528.580                   131499517.3300  102467212.6710

  20942419.960    20942421.260    20942422.020   110053486.3960   85756081.2270
  82182951.3690
  25377589.740    25377589.440    25377593.740   133360128.4780  103916985.8550
  99587122.8840
  21790786.040    21790785.680                   114511379.2250   89229661.7650

  21310808.560    21310805.980                   111989058.9480   87264191.2380

  25127040.700    25127041.180

  25281647.780    25281645.920                   132855975.0160  103524139.2940

 23  2 16  1 18 30.0000000  0 10G01G03G04G06G07G09G11G17G19G31
  23272385.960    23272389.300    23272388.980   122297625.4140   95297008.4860
  91326230.9060
  21726005.260    21726006.900    21726007.340   114171262.5100   88964819.2100
  85257907.5850
  20394635.880    20394635.980    20394639.160   107174886.0310   83513075.9250
  80033287.7760
  21735507.360    21735509.620    21735509.640   114220874.3850   89003293.6080
  85294835.1390
  25006261.140    25006271.040                   131408834.5280  102396551.9680

  20930983.840    20930985.160    20930985.920   109993389.4320   85709252.4510
  82138073.8020
  25357945.840    25357945.380    25357949.740   133256897.9990  103836546.4240
  99510035.1160
  21802191.700    21802191.300                   114571315.9920   89276365.7030

  21313229.220    21313226.640                   112001779.6470   87274103.4600

  25294197.720    25294195.980                   132921926.9540  103575530.4780

 23  2 16  1 19  0.0000000  0 11G01G03G04G06G07G09G11G17G19G21G31
  23290902.700    23290906.240    23290905.920   122394932.1410   95372831.8480
  91398894.9380
  21737444.080    21737445.660    21737446.220   114231373.7620   89011659.1320
  85302795.8160
  20396523.580    20396523.640    20396526.960   107184805.9060   83520805.7050
  80040695.4830
  21720918.100    21720920.380    21720920.420   114144207.6030   88943553.2890
  85237584.0040
  24988986.240    24988996.160                   131318060.3360  102325820.0490

  20919635.820    20919637.160    20919637.900   109933755.5360   85662784.5070
  82093542.0260
  25338297.620    25338297.100    25338301.500   133153645.7910  103756090.0960
  99432931.0650
  21813679.680    21813679.160                   114631685.3060   89323406.6900

  21315774.660    21315772.080                   112015156.0820   87284526.6380

  25161140.000    25161140.800                   132222682.5461  103030663.5941

  25306834.220    25306832.440                   132988332.2600  103627274.9840

 23  2 16  1 19 30.0000000  0 11G01G03G04G06G07G09G11G17G19G21G31
  23309457.440    23309460.920    23309460.780   122492437.8680   95448810.2840
  91471707.6180
  21748913.480    21748915.060    21748915.780   114291645.6790   89058624.2460
  85347804.0560
  20398511.580    20398511.620    20398515.040   107195252.8740   83528946.2020
  80048496.7980
  21706374.840    21706377.080    21706377.220   114067782.4660   88884001.2670
  85180513.3240
  24971692.120    24971701.960                   131227184.1220  102255008.6080

  20908373.560    20908374.980    20908375.660   109874572.3680   85616667.7770
  82049346.8380
  25318642.960    25318642.360    25318646.840   133050359.7290  103675607.3080
  99355801.7510
  21825247.040    21825246.440                   114692472.0410   89370772.9360

  21318442.280    21318439.660                   112029174.3890   87295449.9750

  25178218.640    25178219.780                   132312431.7441  103100598.9431

  25319553.980    25319552.120                   133055175.3650  103679360.5920

 23  2 16  1 20  0.0000000  0 11G01G03G04G06G07G09G11G17G19G21G31
  23328052.260    23328055.580    23328055.640   122590153.6550   95524952.4020
  91544677.1440
  21760415.660    21760417.280    21760418.060   114352089.9570   89105723.6650
  85392940.9890
  20400602.040    20400602.060    20400605.560   107206238.2260   83537506.2220
  80056700.1520
  21691880.380    21691882.460    21691882.780   113991613.5070   88824648.8540
  85123633.9320
  24954381.300    24954390.840                   131136220.2540  102184128.8230

  20897199.700    20897201.160    20897201.720   109815853.3190   85570912.7020
  82005498.2250
  25298984.600    25298984.200    25298988.440   132947053.7190  103595109.0630
  99278657.5430
  21836895.700    21836895.040                   114753686.0280   89418472.1140

  21321234.240    21321231.600                   112043845.9700   87306882.3600

  25195317.940    25195319.140                   132402289.1140  103170617.5520

  25332359.000    25332357.080                   133122466.4170  103731795.2870

 23  2 16  1 20 30.0000000  0 11G01G03G04G06G07G09G11G17G19G21G31
  23346686.400    23346689.500    23346689.780   122688076.0470   95601255.5210
  91617800.9410
  21771950.120    21771951.740    21771952.620   114412703.8290   89152955.2420
  85438204.5760
  20402794.380    20402794.380    20402797.920   107217758.8460   83546483.3350
  80065303.2180
  21677434.680    21677436.640    21677437.060   113915700.8150   88765496.1290
  85066945.9120
  24937053.880    24937063.380                   131045169.0500  102113180.9710

  20886114.000    20886115.400    20886115.900   109757597.3140   85525518.4400
  81961995.3940
  25279322.220    25279321.860    25279326.140   132843727.1230  103514594.7500
  99201497.9800
  21848624.820    21848624.160                   114815322.8230   89466500.7500

  21324149.980    21324147.400                   112059168.1450   87318821.7010

  25212437.420    25212438.520                   132492251.6120  103240718.1210

  25345248.460    25345246.640                   133190201.1710  103784575.7230

 23  2 16  1 21  0.0000000  0 11G01G03G04G06G07G09G11G17G19G21G31
  23365359.260    23365362.140    23365362.600   122786201.8210   95677717.1190
  91691076.6170
  21783516.360    21783517.940    21783518.820   114473484.7860   89200317.0060
  85483592.9190
  20405087.960    20405087.980    20405091.560   107229811.8030   83555875.2570
  80074303.8060
  21663037.840    21663039.720    21663040.240   113840044.7630   88706543.3780
  85010449.5370
  24919709.840    24919719.180                   130954030.9490  102042165.3500

  20875116.220    20875117.540    20875118.080   109699803.5200   85480484.3410
  81918837.7200
  25259655.900    25259655.220    25259659.880   132740379.5750  103434064.1030
  99124322.7570
  21860433.620    21860433.040                   114877378.4490   89514855.7380

  21327189.020    21327186.480                   112075138.1030   87331265.8060

  25229576.260    25229577.180                   132582316.3510  103310898.3860

  25358221.580    25358219.860                   133258375.8200  103837698.8800

 23  2 16  1 21 30.0000000  0 11G01G03G04G06G07G09G11G17G19G21G31
  23384070.580    23384073.360    23384073.960   122884529.9140   95754336.3690
  91764503.3910
  21795114.300    21795115.880    21795116.660   114534432.5040   89247808.7050
  85529105.7980
  20407482.720    20407482.760    20407486.320   107242396.3760   83565681.4220
  80083701.3830
  21648690.320    21648692.180    21648692.740   113764647.9100   88647792.6060
  84954146.7200
  24902350.020    24902358.760                   130862808.2550  101971083.7760

  20864206.660    20864207.860    20864208.460   109642473.2920   85435811.4590
  81876026.2240
  25239985.880    25239985.280    25239990.040   132637012.8490  103353518.5060
  99047133.2340
  21872321.760    21872321.240                   114939850.5730   89563535.2770

  21330351.160    21330348.620                   112091754.9880   87344214.0090

  25246734.260    25246735.140                   132672482.2990  103381157.4500

  25371278.180    25371276.380                   133326988.4770  103891163.4070

 23  2 16  1 22  0.0000000  0 11G01G03G04G06G07G09G11G17G19G21G31
  23402820.780    23402823.460    23402824.200   122983062.3710   95831114.8650
  91838082.7610
  21806744.480    21806746.140    21806746.760   114595549.6930   89295432.4690
  85574745.2340
  20409979.020    20409979.140    20409982.640   107255514.7960   83575903.5740
  80093497.6180
  21634393.180    21634395.040    21634395.600   113689515.8170   88589248.1360
  84898041.6160
  24884975.240    24884983.640                   130771507.5600  101899941.4030

  20853386.140    20853387.240    20853387.880   109585610.9680   85391503.1790
  81833564.1380
  25220313.300    25220312.640    25220317.360   132533631.8680  103272961.7930
  98969933.0150
  21884289.340    21884288.880                   115002740.4810   89612540.3550

  21333636.820    21333634.300                   112109021.2790   87357668.2450

  25263911.820    25263913.020                   132762751.2100  103451496.7710

  25384418.220    25384416.400                   133396040.1370  103944969.9870

 23  2 16  1 22 30.0000000  0 11G01G03G04G06G07G09G11G17G19G21G31
  23421608.220    23421610.900    23421611.740   123081790.7560   95908046.0320
  91911808.4450
  21818405.520    21818407.160    21818407.580   114656828.6750   89343182.3000
  85620505.4890
  20412575.380    20412575.520    20412579.000   107269158.9500   83586535.3880
  80103686.4370
  21620145.480    21620147.380    21620147.960   113614643.6820   88530906.2360
  84842130.6360
  24867584.880    24867592.820                   130680123.7650  101828734.2240

  20842653.480    20842654.480    20842655.200   109529210.4800   85347554.7690
  81791446.9290
  25200636.820    25200636.320    25200640.860   132430231.0810  103192389.6510
  98892718.0600
  21896334.740    21896334.220                   115066038.9410   89661863.7850

  21337044.640    21337042.100                   112126929.3050   87371622.5410

  25281107.600    25281108.900                   132853115.4700  103521910.3610

  25397639.920    25397638.160                   133465521.4680  103999111.3490

 23  2 16  1 23  0.0000000  0 11G01G03G04G06G07G09G11G17G19G21G31
  23440434.020    23440436.760    23440437.620   123180720.8370   95985134.3610
  91985684.7220
  21830098.620    21830100.160    21830100.520   114718275.9260   89391063.2560
  85666391.4010
  20415272.940    20415273.060    20415276.540   107283334.8120   83597581.5210
  80114272.3170
  21605949.000    21605950.960    21605951.540   113540040.8290   88472774.1610
  84786420.7350
  24850180.420    24850188.140                   130588666.5490  101757469.7820

  20832010.220    20832011.200    20832011.960   109473279.9240   85303972.5400
  81749680.6320
  25180958.320    25180957.820    25180962.180   132326819.1980  103111808.8550
  98815494.7470
  21908458.660    21908458.140                   115129750.3160   89711508.9650

  21340575.720    21340573.140                   112145485.0110   87386081.5150

  25298322.780    25298324.040                   132943580.8110  103592402.7160

  25410944.540    25410942.580                   133535437.7810  104053591.6480

 23  2 16  1 23 30.0000000  0 11G01G03G04G06G07G09G11G17G19G21G31
  23459296.920    23459299.840    23459300.640   123279846.4680   96062375.0640
  92059707.0480
  21841822.640    21841824.160    21841824.540   114779886.0800   89439071.1440
  85712398.9590
  20418070.560    20418070.660    20418074.140   107298036.5020   83609037.3870
  80125250.8590
  21591803.280    21591805.380    21591805.940   113465704.7500   88414849.9680
  84730910.0540
  24832761.560    24832768.900                   130497133.3060  101686146.0530

  20821455.660    20821456.640    20821457.440   109417815.4710   85260753.5140
  81708262.4030
  25161277.060    25161276.600    25161280.900   132223392.9190  103031216.8450
  98738260.7340
  21920659.860    21920659.300                   115193867.7050   89761470.5260

  21344228.920    21344226.320                   112164682.5700   87401040.6330

  25315555.960    25315557.360                   133034141.0470  103662969.0180

  25424330.680    25424328.640                   133605781.9740  104108405.4270

 23  2 16  1 24  0.0000000  0 11G01G03G04G06G07G09G11G17G19G21G31
  23478197.060    23478200.100    23478200.740   123379167.3220   96139767.8800
  92133875.1630
  21853577.760    21853579.240    21853579.660   114841659.5710   89487206.3130
  85758528.4880
  20420968.240    20420968.320    20420971.820   107313263.9340   83620902.9250
  80136621.9950
  21577708.940    21577711.140    21577711.720   113391638.7350   88357136.2140
  84675601.0540
  24815329.020    24815336.080                   130405527.7140  101614765.9120

  20810990.180    20810991.160    20810992.000   109362819.1390   85217899.2540
  81667193.7490
  25141593.600    25141593.200    25141597.440   132119954.9580  102950615.7150
  98661017.9690
  21932938.100    21932937.560                   115258389.9350   89811747.5450

  21348004.300    21348001.720                   112184522.2550   87416500.1090

  25332807.280    25332808.440                   133124796.3160  103733609.3680

  25437798.060    25437795.840                   133676552.9430  104163551.6640

 23  2 16  1 24 30.0000000  0 11G01G03G04G06G07G09G11G17G19G21G31
  23497134.720    23497137.920    23497138.320   123478685.4280   96217314.3950
  92208190.5550
  21865364.480    21865366.020    21865366.400   114903599.1840   89535470.9280
  85804782.0680
  20423966.400    20423966.460    20423969.980   107329019.3080   83633179.8480
  80148387.3800
  21563667.020    21563669.300    21563669.920   113317848.4570   88299637.3210
  84620497.9400
  24797883.680    24797890.640                   130313855.5860  101543333.9000

  20800614.620    20800615.580    20800616.420   109308295.2190   85175413.1070
  81626477.8700
  25121908.800    25121908.440    25121912.640   132016510.1920  102870009.3200
  98583770.1340
  21945293.440    21945292.960                   115323317.4980   89862340.4150

  21351902.220    21351899.680                   112205006.0230   87432461.4710

  25350077.020    25350078.000                   133215548.7160  103804325.4150

  25451346.500    25451344.540                   133747751.7760  104219031.4300

 23  2 16  1 25  0.0000000  0 10G01G03G04G06G07G09G11G17G19G21
  23516108.780    23516112.300    23516112.420   123578395.3700   96295010.3960
  92282649.2170
  21877181.940    21877183.520    21877184.020   114965700.2580   89583861.3530
  85851156.2190
  20427064.000    20427064.120    20427067.640   107345297.4110   83645864.0900
  80160543.1120
  21549677.260    21549679.580    21549680.220   113244332.0870   88242351.8690
  84565599.3880
  24780425.460    24780432.200                   130222115.2680  101471848.6770

  20790328.360    20790329.300    20790330.100   109254240.5810   85133292.6350
  81586112.4270
  25102222.180    25102222.080    25102226.180   131913056.1350  102789395.6710
  98506515.4130
  21957724.820    21957724.320                   115388644.4550   89913244.4960

  21355921.740    21355919.220                   112226128.8060   87448920.7600

  25367364.340    25367365.320                   133306393.3420  103875113.3120

 23  2 16  1 25 30.0000000  0 11G01G03G04G06G07G09G11G17G19G21G31
  23535119.340    23535122.960    23535122.820   123678295.9930   96372854.9780
  92357250.2670
  21889030.060    21889031.680    21889032.200   115027962.4780   89632377.3460
  85897650.7110
  20430260.900    20430261.080    20430264.560   107362097.3100   83658954.9250
  80173088.4990
  21535740.120    21535742.460    21535743.160   113171092.1770   88185281.8360
  84510907.2820
  24762954.600    24762961.460                   130130309.3490  101400312.3320

  20780131.620    20780132.560    20780133.280   109200656.4090   85091538.7530
  81546098.3020
  25082534.260    25082534.240    25082538.300   131809594.7710  102708776.3680
  98429255.1720
  21970231.700    21970231.080                   115454368.1980   89964457.7590

  21360062.780    21360060.220                   112247890.1210   87465877.6080

  25384668.680    25384669.940                   133397328.6270  103945971.8290

  25478682.960    25478681.540

 23  2 16  1 26  0.0000000  0 11G01G03G04G06G07G09G11G17G19G21G31
  23554166.480    23554170.300    23554169.880   123778389.2660   96450849.6750
  92431995.1910
  21900909.340    21900911.080    21900911.380   115090388.6080   89681021.0610
  85944267.5960
  20433557.540    20433557.720    20433561.160   107379421.1520   83672454.0300
  80186025.1420
  21521856.680    21521859.020    21521859.740   113098134.3230   88128431.5910
  84456425.7970
  24745472.460    24745479.260                   130038443.7600  101328729.4400

  20770025.220    20770026.160    20770026.800   109147546.9080   85050154.7550
  81506438.6410
  25062845.960    25062845.800    25062850.000   131706131.0080  102628155.1290
  98351993.1060
  21982814.240    21982813.580                   115520489.8470   90015981.0810

  21364325.700    21364323.120                   112270291.9690   87483333.5770

  25401990.880    25401992.360                   133488357.0870  104016902.9210

  25492473.360    25492470.580                   133963847.9101  104387402.7831

 23  2 16  1 26 30.0000000  0 11G01G03G04G06G07G09G11G17G19G21G31
  23573249.180    23573253.180    23573252.460   123878669.5390   96528990.0800
  92506879.7440
  21912818.940    21912820.780    21912820.980   115152973.8150   89729788.7270
  85991003.2800
  20436952.800    20436953.000    20436956.440   107397263.4530   83686357.1240
  80199348.9440
  21508026.580    21508028.800    21508029.540   113025456.5340   88071799.5730
  84402153.4440
  24727978.820    24727985.380                   129946516.6460  101257098.5640

  20760008.460    20760009.420    20760010.040   109094908.6940   85009137.9900
  81467130.9190
  25043156.580    25043156.480    25043160.760   131602662.1020  102547529.9260
  98274727.2700
  21995471.240    21995470.520                   115587002.7520   90067809.2780

  21368709.400    21368706.860                   112293328.8730   87501284.3950

  25419329.740    25419331.100                   133579473.2990  104087902.4330

  25506341.300    25506337.940                   134036722.7210  104444188.4320

 23  2 16  1 27  0.0000000  0 11G01G03G04G06G07G09G11G17G19G21G31
  23592367.900    23592371.880    23592370.920   123979138.2900   96607277.3560
  92581905.0500
  21924759.200    21924761.100    21924761.420   115215720.3290   89778682.0950
  86037859.4250
  20440447.040    20440447.200    20440450.700   107415625.8000   83700665.4490
  80213061.0990
  21494250.780    21494252.880    21494253.560   112953063.9110   88015389.7620
  84348094.0550
  24710474.400    24710480.820                   129854533.1070  101185423.7010

  20750082.100    20750083.080    20750083.720   109042745.4570   84968491.3380
  81428177.8900
  25023466.920    25023466.860    25023471.420   131499192.6140  102466904.2400
  98197460.9900
  22008202.680    22008201.940                   115653907.1180   90119942.5030

  21373214.340    21373211.740                   112317002.3450   87519731.2340

  25436685.720    25436687.360                   133670678.9690  104158971.6570

  25520287.520    25520284.780                   134110017.3421  104501298.2941

 23  2 16  1 27 30.0000000  0 11G01G03G04G06G07G09G11G17G19G21G31
  23611522.020    23611525.880    23611524.820   124079792.7740   96685709.3620
  92657069.0500
  21936729.760    21936731.720    21936732.080   115278626.3510   89827699.7500
  86084834.6600
  20444039.800    20444039.880    20444043.440   107434505.6640   83715377.0360
  80227159.7040
  21480529.460    21480531.380    21480532.000   112880957.4680   87959202.9460
  84294248.3540
  24692959.600    24692965.800                   129762494.7240  101113706.0540

  20740246.040    20740247.060    20740247.740   108991056.7520   84928214.4450
  81389579.2070
  25003777.340    25003777.300    25003781.900   131395722.8760  102386278.3880
  98120194.5030
  22021007.980    22021007.220                   115721199.5870   90172378.1480

  21377839.920    21377837.380                   112341310.0370   87538672.2780

  25454058.460    25454059.960                   133761971.6310  104230108.6140

  25534312.300    25534309.480

 23  2 16  1 28  0.0000000  0 10G01G03G04G06G07G09G11G17G19G21
  23630711.340    23630715.000    23630713.900   124180631.9700   96764285.3160
  92732370.9930
  21948730.680    21948732.620    21948733.020   115341691.6140   89876841.4930
  86131928.8360
  20447730.860    20447730.860    20447734.460   107453902.1280   83730491.1670
  80241644.0780
  21466863.040    21466864.800    21466865.460   112809139.8090   87903241.1540
  84240618.3180
  24675435.080    24675440.880                   129670404.0480  101041947.6440

  20730500.560    20730501.540    20730502.320   108939843.7540   84888308.2380
  81351335.7700
  24984088.140    24984087.940    24984092.660   131292254.9060  102305653.9270
  98042929.3900
  22033886.560    22033885.820                   115788877.2970   90225113.9830

  21382586.080    21382583.580                   112366251.0450   87558106.8160

  25471447.260    25471448.440                   133853350.0560  104301312.4530

 23  2 16  1 28 30.0000000  0 10G01G03G04G06G07G09G11G17G19G21
  23649935.900    23649939.340    23649938.340   124281656.6350   96843005.7910
  92807811.4280
  21960762.240    21960764.060    21960764.500   115404917.7550   89926108.5910
  86179143.1320
  20451520.380    20451520.340    20451523.920   107473816.0640   83746008.5240
  80256514.8770
  21453252.400    21453254.060    21453254.780   112737615.3920   87847507.8650
  84187207.2600
  24657901.400    24657906.960                   129578265.8270  100970152.1680

  20720846.140    20720847.100    20720847.920   108889109.4240   84848775.0120
  81313449.7720
  24964399.940    24964399.500    24964404.420   131188792.5540  102225033.8450
  97965668.4590
  22046838.600    22046837.980                   115856940.9050   90278150.5160

  21387452.920    21387450.440                   112391826.1650   87578035.4620

  25488852.680    25488853.700                   133944815.0890  104372583.7690

 23  2 16  1 29  0.0000000  0 10G01G03G04G06G07G09G11G17G19G21
  23669194.340    23669197.600    23669196.780   124382859.9290   96921865.4620
  92883385.2810
  21972823.300    21972824.940    21972825.260   115468298.7850   89975496.3860
  86226473.1020
  20455407.080    20455407.020    20455410.560   107494240.7680   83761923.8820
  80271767.0970
  21439696.960    21439698.580    21439699.320   112666381.0740   87792000.6230
  84134012.8300
  24640358.280    24640363.440                   129486077.2700  100898317.4040

  20711281.920    20711282.860    20711283.680   108838849.1450   84809611.1790
  81275917.7750
  24944712.140    24944711.600    24944716.620   131085332.0330  102144415.1590
  97888408.9080
  22059862.520    22059862.060                   115925382.0190   90331481.2090

  21392439.200    21392436.700                   112418028.8260   87598453.0970

  25506273.380    25506274.480                   134036360.5890  104443917.6920

 23  2 16  1 29 30.0000000  0 10G01G03G04G06G07G09G11G17G19G21
  23688487.340    23688490.400    23688489.820   124484244.7790   97000866.6170
  92959094.6880
  21984914.540    21984916.080    21984916.220   115531838.4720   90025007.8090
  86273921.5450
  20459391.500    20459391.500    20459394.960   107515179.2370   83778239.5730
  80287402.9680
  21426197.980    21426199.580    21426200.280   112595443.4870   87736724.6030
  84081039.9800
  24622806.900    24622811.600                   129393844.9760  100826448.5530

  20701808.840    20701809.800    20701810.540   108789068.0080   84770820.7050
  81238743.5820
  24925025.860    24925025.200    24925030.220   130981879.4000  102063802.6520
  97811155.2150
  22072958.560    22072958.300                   115994202.2690   90385107.3360

  21397545.420    21397542.800                   112444861.9010   87619361.9690

  25523710.080    25523711.060                   134127989.6260  104515316.7780

 23  2 16  1 30  0.0000000  0 10G01G03G04G06G07G09G11G17G19G21
  23707814.680    23707817.740    23707817.460   124585811.1140   97080009.1940
  93034939.6180
  21997036.120    21997037.600    21997037.680   115595537.6600   90074643.5150
  86321489.0910
  20463473.660    20463473.740    20463477.180   107536631.4840   83794955.6120
  80303422.5050
  21412756.080    21412757.740    21412758.400   112524806.2250   87681682.6030
  84028291.4100
  24605247.860    24605252.320                   129301572.9220  100754548.6900

  20692427.300    20692428.300    20692428.920   108739768.1180   84732405.2250
  81201928.7510
  24905341.540    24905341.200    24905345.940   130878437.6050  101983198.6030
  97733909.6420
  22086126.640    22086126.480                   116063400.6810   90439028.1320

  21402771.520    21402768.820                   112472325.2110   87640761.9320

  25541162.460    25541163.520                   134219702.1870  104586780.9000

 23  2 16  1 30 30.0000000  0 10G01G03G04G06G07G09G11G17G19G21
  23727175.600    23727178.920    23727178.860   124687554.4050   97159289.6310
  93110916.6900
  22009187.320    22009188.780    22009189.060   115659392.7290   90124400.6910
  86369173.0530
  20467652.800    20467652.860    20467656.340   107558593.1000   83812068.5620
  80319822.4150
  21399371.200    21399372.960    21399373.560   112454468.5340   87626874.0340
  83975766.5410
  24587681.020    24587685.280                   129209260.1840  100682617.1080

  20683136.920    20683137.960    20683138.420   108690947.1340   84694362.9220
  81165471.5560
  24885659.200    24885658.840    24885663.500   130775005.3620  101902601.9550
  97656671.1710
  22099365.540    22099365.540                   116132971.4410   90493239.0710

  21408116.720    21408113.940                   112500414.4790   87662649.6500

  25558629.980    25558631.200                   134311493.7960  104658306.6040

 23  2 16  1 31  0.0000000  0 10G01G03G04G06G07G09G11G17G19G21
  23746569.640    23746573.540    23746573.580   124789473.2220   97238706.8170
  93187024.7900
  22021368.080    22021369.620    22021370.060   115723403.0630   90174278.8490
  86416972.9460
  20471928.620    20471928.640    20471932.100   107581062.6440   83829577.3010
  80336601.6220
  21386043.720    21386045.580    21386046.100   112384432.6140   87572300.6120
  83923467.0130
  24570107.020    24570110.960                   129116909.7230  100610656.1120

  20673937.840    20673938.900    20673939.240   108642605.7390   84656694.3250
  81129372.4880
  24865978.820    24865978.480    24865983.220   130671584.2900  101822014.0440
  97579441.0670
  22112674.800    22112675.000                   116202912.0900   90547738.2350

  21413580.740    21413577.980                   112529128.4370   87685024.1490

  25576112.440    25576113.720                   134403363.3040  104729893.0550

 23  2 16  1 31 30.0000000  0 10G01G03G04G06G07G09G11G17G19G21
  23765996.820    23766001.360    23766001.360   124891566.2510   97318259.7370
  93263262.9870
  22033578.320    22033579.940    22033580.560   115787568.3250   90224277.7300
  86464888.5390
  20476300.880    20476300.880    20476304.280   107604038.9200   83847480.8950
  80353759.2310
  21372774.160    21372776.100    21372776.560   112314700.9450   87517964.2730
  83871394.7000
  24552526.300    24552530.020                   129024524.0630  100538667.6920

  20664830.200    20664831.280    20664831.480   108594744.7650   84619400.0820
  81093632.1760
  24846300.920    24846300.720    24846305.300   130568176.2440  101741436.2720
  97502220.6960
  22126054.040    22126054.380                   116273220.4870   90602523.9600

  21419163.360    21419160.680                   112558465.6520   87707884.2920

  25593609.340    25593610.720                   134495309.7610  104801539.4410

 23  2 16  1 32  0.0000000  0 10G01G03G04G06G07G09G11G17G19G21
  23785458.000    23785462.560    23785462.420   124993834.9350   97397949.5450
  93339632.3800
  22045818.500    22045820.100    22045820.940   115851890.8900   90274399.1900
  86512921.6010
  20480769.840    20480769.880    20480773.200   107627523.4190   83865780.5090
  80371296.3640
  21359563.520    21359565.500    21359565.960   112245278.7440   87463869.0720
  83819553.4700
  24534940.000    24534943.300                   128932108.5780  100466656.0010

  20655814.680    20655815.760    20655815.860   108547367.8380   84582483.0170
  81058253.3290
  24826626.460    24826626.260    24826630.660   130464785.9090  101660872.3030
  97425013.5360
  22139503.340    22139503.760                   116343896.8120   90657596.3760

  21424864.880    21424862.260                   112588427.2210   87731230.9530

  25611121.340    25611122.640                   134587334.5310  104873246.8550

 23  2 16  1 32 30.0000000  0 10G01G03G04G06G07G09G11G17G19G21
  23804951.260    23804955.640    23804955.240   125096271.0160   97477769.8040
  93416126.7580
  22058087.240    22058088.860    22058089.800   115916363.3330   90324637.4410
  86561066.5760
  20485333.900    20485334.020    20485337.360   107651507.8940   83884469.7100
  80389206.8440
  21346410.880    21346412.860    21346413.360   112176161.3730   87410011.3980
  83767939.8720
  24517347.040    24517350.100                   128839658.2950  100394617.1850

  20646890.100    20646891.200    20646891.200   108500468.7460   84545938.2920
  81023231.3090
  24806954.400    24806954.320    24806958.500   130361408.1340  101580318.1390
  97347815.7680
  22153020.800    22153021.300                   116414931.5670   90712948.0880

  21430683.700    21430681.160                   112619005.0300   87755057.7980

  25628646.740    25628648.020                   134679430.1780  104945009.4130

 23  2 16  1 33  0.0000000  0 10G01G03G04G06G07G09G11G17G19G21
  23824477.540    23824481.680    23824481.120   125198880.5910   97557725.2600
  93492750.7640
  22070385.900    22070387.500    22070388.420   115980992.8570   90374998.0850
  86609328.8570
  20489994.240    20489994.460    20489997.880   107675998.5800   83903553.3640
  80407495.3520
  21333318.180    21333320.160    21333320.740   112107358.8460   87356399.0600
  83716561.3870
  24499749.800    24499752.580                   128747184.7870  100322560.2690

  20638058.020    20638059.180    20638059.100   108454055.8600   84509772.4300
  80988572.3660
  24787286.440    24787286.400    24787290.560   130258052.3360  101499781.0820
  97270634.4180
  22166607.500    22166608.000                   116486329.7850   90768583.0180

  21436620.940    21436618.520                   112650205.2660   87779369.6540

  25646186.880    25646188.020                   134771602.6990  105016831.9470

 23  2 16  1 33 30.0000000  0 10G01G03G04G06G07G09G11G17G19G21
  23844035.620    23844039.540    23844038.820   125301657.1300   97637810.8170
  93569499.4450
  22082713.360    22082714.920    22082715.700   116045773.7130   90425476.6550
  86657704.1420
  20494749.700    20494749.960    20494753.420   107700988.8220   83923026.2800
  80426156.8950
  21320284.820    21320286.820    21320287.480   112038868.2400   87303029.7810
  83665415.8300
  24482147.360    24482149.940                   128654684.5330  100250482.5050

  20629317.600    20629318.760    20629318.660   108408124.5690   84473981.8360
  80954273.0570
  24767622.060    24767622.100    24767626.220   130154715.0950  101419258.4850
  97193466.9310
  22180261.900    22180262.260                   116558083.4790   90824494.9400

  21442675.340    21442673.000                   112682021.1790   87804161.2540

  25663740.420    25663741.400                   134863845.7870  105088709.3790

 23  2 16  1 34  0.0000000  0 10G01G03G04G06G07G09G11G17G19G21
  23863626.020    23863629.680    23863629.000   125404604.0260   97718029.1170
  93646375.3340
  22095070.400    22095072.000    22095072.640   116110710.3170   90476076.5860
  86706195.7290
  20499600.860    20499601.140    20499604.660   107726482.0820   83942891.1590
  80445194.0730
  21307312.240    21307314.220    21307314.900   111970696.7770   87249909.1820
  83614508.5930
  24464541.320    24464543.860                   128562164.9960  100178389.7050

  20620669.860    20620670.980    20620670.920   108362680.4050   84438570.8150
  80920337.5070
  24747962.460    24747962.680    24747966.700   130051403.0420  101338755.5440
  97116318.2540
  22193984.360    22193984.580                   116630195.1300   90880685.7900

  21448847.500    21448845.240                   112714456.0990   87829435.2010

  25681307.960    25681308.720                   134956182.9531  105160664.5451

 23  2 16  1 34 30.0000000  0 10G01G03G04G06G07G09G11G17G19G21
  23883247.580    23883250.980    23883250.380   125507715.0850   97798375.3530
  93723373.8050
  22107456.080    22107457.700    22107458.220   116175797.3870   90526793.7670
  86754799.6860
  20504546.600    20504546.840    20504550.440   107752472.1180   83963143.1380
  80464602.2190
  21294399.900    21294401.840    21294402.580   111902841.9620   87197035.3220
  83563837.8090
  24446931.060    24446933.680                   128469624.1100  100106280.2580

  20612114.020    20612115.100    20612115.100   108317719.2700   84403536.1850
  80886762.6550
  24728307.040    24728307.320    24728311.460   129948113.2730  101258269.9640
  97039186.2160
  22207773.600    22207773.620                   116702657.6340   90937150.0380

  21455136.240    21455133.980                   112747503.6560   87855186.5280

  25698888.360    25698889.280                   135048568.1500  105232652.8200

 23  2 16  1 35  0.0000000  0 10G01G03G04G06G07G09G11G17G19G21
  23902900.360    23902903.520    23902903.180   125610991.3190   97878850.2940
  93800495.6390
  22119870.760    22119872.580    22119872.920   116241036.9420   90577629.7590
  86803517.5100
  20509587.100    20509587.300    20509590.980   107778959.9960   83983783.0470
  80484382.1300
  21281548.760    21281550.680    21281551.400   111835308.6160   87144411.9540
  83513407.0830
  24429317.720    24429320.400                   128377066.4740  100034157.7510

  20603650.640    20603651.660    20603651.780   108273244.1710   84368880.2880
  80853550.7650
  24708656.720    24708656.940    24708661.240   129844850.0060  101177805.0350
  96962073.9930
  22221629.640    22221629.440                   116775470.9190   90993887.6140

  21461541.760    21461539.460                   112781164.7120   87881415.9040

  25716482.160    25716482.840                   135141025.0551  105304697.1901

 23  2 16  1 35 30.0000000  0 10G01G03G04G06G07G09G11G17G19G21
  23922584.300    23922587.140    23922587.260   125714431.7160   97959453.1550
  93877740.0090
  22132314.440    22132316.540    22132316.700   116306428.9060   90628584.5060
  86852349.1460
  20514722.100    20514722.260    20514726.020   107805944.5980   84004810.0130
  80504532.9790
  21268759.280    21268761.200    21268761.860   111768099.4050   87092041.1610
  83463218.4140
  24411701.740    24411704.500                   128284495.4090   99962024.7660

  20595279.920    20595280.960    20595281.160   108229256.1180   84334603.9080
  80820702.5780
  24689011.820    24689012.100    24689016.540   129741615.4980  101097362.5130
  96884983.2210
  22235551.900    22235551.560                   116848632.3980   91050896.5090

  21468063.760    21468061.440                   112815437.7560   87908122.1500

  25734089.100    25734089.460                   135233548.9780  105376793.5120

 23  2 16  1 36  0.0000000  0 10G01G03G04G06G07G09G11G17G19G21
  23942298.700    23942301.400    23942301.900   125818032.1780   98040180.7310
  93955103.8960
  22144786.560    22144788.680    22144788.900   116371970.2180   90679655.6350
  86901292.3080
  20519950.900    20519950.960    20519954.800   107833421.8570   84026220.8660
  80525051.7110
  21256031.400    21256033.380    21256033.980   111701214.0860   87039922.7510
  83413271.6010
  24394083.260    24394085.920                   128191910.8810   99889881.2680

  20587001.540    20587002.580    20587002.880   108185753.1190   84300705.4900
  80788216.5970
  24669372.240    24669372.620    24669377.060   129638408.8670  101016941.7220
  96807913.3060
  22249539.420    22249538.900                   116922136.7390   91108172.5720

  21474701.460    21474699.080                   112850318.7720   87935302.1410

  25751708.540    25751708.560                   135326137.3790  105448940.0030

 23  2 16  1 36 30.0000000  0 10G01G03G04G06G07G09G11G17G19G21
  23962043.820    23962046.700    23962047.440   125921794.5910   98121034.5160
  94032588.7460
  22157287.620    22157289.700    22157290.140   116437663.7790   90730845.4070
  86950349.1630
  20525273.800    20525273.780    20525277.640   107861393.6250   84048017.0550
  80545939.7260
  21243366.260    21243368.240    21243368.840   111634658.3290   86988061.1450
  83363570.9020
  24376463.400    24376465.940                   128099318.9450   99817732.0130

  20578816.220    20578817.260    20578817.720   108142739.0750   84267188.0790
  80756095.7510
  24649739.160    24649739.460    24649743.900   129535235.4710  100936546.8210
  96730868.1690
  22263592.400    22263591.780                   116995985.2300   91165716.8070

  21481455.140    21481452.680                   112885809.4940   87962957.2280

  25769339.960                                   135418792.6350

 23  2 16  1 37  0.0000000  0 10G01G03G04G06G07G09G11G17G19G21
  23981818.820    23981822.000    23981822.820   126025713.5710   98202010.2940
  94110190.4950
  22169816.820    22169818.840    22169819.520   116503505.1660   90782150.3640
  86999516.4030
  20530689.720    20530689.740    20530693.560   107889854.4710   84070194.3380
  80567192.9590
  21230763.520    21230765.560    21230766.180   111568430.5380   86936455.0970
  83314115.1100
  24358841.900    24358844.120                   128006718.2360   99745575.8890

  20570723.320    20570724.380    20570724.920   108100210.5960   84234049.0250
  80724337.5010
  24630111.900    24630112.100    24630116.640   129432093.1420  100856176.1320
  96653846.2350
  22277709.520    22277708.780                   117070170.9250   91223523.7900

  21488323.780    21488321.260                   112921904.3360   87991083.0540

  25786983.400                                   135511512.4001

 23  2 16  1 37 30.0000000  0 10G01G03G04G06G07G09G11G17G19G21
  24001624.080    24001627.460    24001628.160   126129790.2920   98283108.9720
  94187910.0380
  22182374.600    22182376.600    22182377.340   116569496.5670   90833572.2120
  87048795.6780
  20536198.920    20536198.960    20536202.700   107918805.4650   84092753.5570
  80588812.2120
  21218224.120    21218226.160    21218226.900   111502535.6360   86885108.4400
  83264907.9070
  24341219.520    24341221.600                   127914113.6410   99673416.7430

  20562723.440    20562724.500    20562725.120   108058170.8240   84201290.7840
  80692944.1980
  24610491.280    24610491.660    24610496.140   129328986.4190  100775833.1780
  96576850.9180
  22291890.780    22291890.020                   117144693.8100   91281593.5230

  21495307.460    21495304.940                   112958603.8350   88019680.0390

  25804639.080    25804638.120

 23  2 16  1 38  0.0000000  0  9G01G03G04G06G07G09G11G17G19
  24021459.140    24021462.600    24021463.100   126234023.0120   98364329.2050
  94265746.0660
  22194960.840    22194962.800    22194963.520   116635637.2550   90885110.3860
  87098186.4150
  20541801.060    20541801.120    20541804.760   107948244.8260   84115693.3200
  80610796.1500
  21205748.440    21205750.480    21205751.260   111436975.6630   86834022.7710
  83215950.8100
  24323596.960    24323598.780                   127821507.5460   99601256.3970

  20554816.560    20554817.660    20554818.300   108016620.0260   84168913.5590
  80661916.0290
  24590877.840    24590878.240    24590882.720   129225916.9540  100695519.2830
  96499883.4210
  22306135.660    22306134.880                   117219550.8870   91339923.6590

  21502405.860    21502403.320                   112995906.3030   88048746.8730

 23  2 16  1 38 30.0000000  0  9G01G03G04G06G07G09G11G17G19
  24041323.200    24041326.740    24041327.100   126338408.3980   98445668.4070
  94343696.1270
  22207575.020    22207576.880    22207577.680   116701924.9900   90936763.1400
  87147686.9630
  20547495.500    20547495.580    20547499.120   107978169.1600   84139010.9810
  80633142.2450
  21193336.600    21193338.580    21193339.400   111371751.1350   86783198.4820
  83167244.2100
  24305974.260    24305975.920                   127728900.9280   99529095.6600

  20547002.500    20547003.560    20547004.160   107975556.8290   84136916.2860
  80631251.9880
  24571271.360    24571271.920    24571276.320   129122884.5610  100615234.2770
  96422943.5900
  22320443.280    22320442.600                   117294737.9870   91398510.9590

  21509618.260    21509615.760                   113033807.8040   88078280.4880

 23  2 16  1 39  0.0000000  0 10G01G03G04G06G07G09G11G17G19G21
  24061216.660    24061220.140    24061220.360   126442947.7800   98527127.6010
  94421761.1800
  22220217.620    22220219.380    22220220.120   116768362.0760   90988532.2810
  87197299.0500
  20553282.440    20553282.520    20553286.040   108008579.6770   84162707.4900
  80655851.4040
  21180989.600    21180991.460    21180992.320   111306867.1520   86732639.5480
  83118791.9020
  24288352.400    24288354.200                   127636299.2670   99456938.7840

  20539281.840    20539282.860    20539283.360   107934984.5210   84105301.5230
  80600954.5090
  24551672.840    24551673.620    24551677.940   129019894.0250  100534981.8530
  96346035.0690
  22334813.660    22334813.200                   117370255.1220   91457355.4270

  21516944.900    21516942.360                   113072309.3370   88108281.6650

  25857676.680    25857681.460

 23  2 16  1 39 30.0000000  0 10G01G03G04G06G07G09G11G17G19G21
  24081138.980    24081142.420    24081142.600   126547639.4720   98608705.4770
  94499939.9850
  22232888.480    22232890.260    22232890.820   116834947.9280   91040417.3340
  87247022.2230
  20559161.580    20559161.640    20559165.160   108039474.6350   84186781.4870
  80678922.3080
  21168707.780    21168709.580    21168710.440   111242325.8280   86682347.6240
  83070595.4870
  24270731.980    24270733.820                   127543704.6830   99384787.4100

  20531654.600    20531655.600    20531656.000   107894903.3650   84074069.4730
  80571023.8050
  24532082.700    24532083.360    24532087.820   128916947.1550  100454763.4900
  96269159.0960
  22349246.280    22349246.060                   117446099.1130   91516454.5930

  21524385.460    21524382.880                   113111409.3070   88138749.1570

  25875378.720

 23  2 16  1 40  0.0000000  0  9G01G03G04G06G07G09G11G17G19
  24101088.920    24101092.340    24101092.440   126652476.5880   98690396.6710
  94578227.3680
  22245586.460    22245588.420    22245588.680   116901676.6630   91092413.7200
  87296852.0870
  20565131.540    20565131.640    20565135.140   108070846.9730   84211227.4650
  80702349.7060
  21156490.580    21156492.380    21156493.240   111178124.0380   86632320.2720
  83022652.6170
  24253112.420    24253114.360                   127451114.5290   99312639.4830

  20524119.860    20524120.860    20524121.160   107855308.3720   84043216.2570
  80541456.1430
  24512500.300    24512500.920    24512505.440   128814040.3330  100374576.3260
  96192313.0370
  22363739.540    22363739.620                   117522261.9580   91575802.2170

  21531938.400    21531935.820                   113151100.1170   88169677.0360

 23  2 16  1 40 30.0000000  0  9G01G03G04G06G07G09G11G17G19
  24121067.340    24121070.800    24121070.880   126757463.9620   98772204.9370
  94656626.9720
  22258312.820    22258314.840    22258314.900   116968554.1760   91144526.0410
  87346793.0650
  20571193.200    20571193.360    20571196.860   108102701.4930   84236049.1640
  80726137.1690
  21144339.600    21144341.440    21144342.280   111114270.4640   86582564.2590
  82974969.7770
  24235495.460    24235497.360                   127358537.7390   99240501.9500

  20516678.940    20516679.900    20516680.180   107816206.3340   84012747.1570
  80512256.6030
  24492927.220    24492927.440    24492932.240   128711181.8450  100294426.8200
  96115503.0720
  22378294.200    22378294.480                   117598747.5300   91635401.3150

  21539604.560    21539602.040                   113191386.1570   88201068.7350

 23  2 16  1 41  0.0000000  0  9G01G03G04G06G07G09G11G17G19
  24141073.660    24141077.120    24141077.140   126862597.7630   98854127.3150
  94735135.9040
  22271067.100    22271069.020    22271069.120   117035577.7650   91196752.1900
  87396843.1140
  20577345.840    20577346.000    20577349.560   108135034.1920   84261243.4730
  80750281.7110
  21132254.900    21132256.760    21132257.620   111050765.0660   86533079.5530
  82927546.9480
  24217881.020    24217882.960                   127265974.4820   99168374.9830

  20509331.460    20509332.400    20509332.660   107777595.2820   83982660.6470
  80483423.7030
  24473363.060    24473363.240    24473368.060   128608371.2590  100214314.6180
  96038728.9070
  22392909.340    22392909.760                   117675550.8900   91695248.0410

  21547383.140    21547380.660                   113232262.9710   88232920.7690

 23  2 16  1 41 30.0000000  0  9G01G03G04G06G07G09G11G17G19
  24161107.360    24161110.840    24161111.000   126967875.9080   98936162.1660
  94813752.6220
  22283848.860    22283850.740    22283851.120   117102746.3620   91249091.3340
  87447001.4550
  20583589.120    20583589.220    20583592.780   108167842.8840   84286808.6860
  80774781.7050
  21120236.760    21120238.660    21120239.480   110987609.5930   86483867.5150
  82880385.4090
  24200269.780    24200271.500                   127173426.8860   99096260.1880

  20502077.400    20502078.300    20502078.600   107739475.0520   83952956.5940
  80454957.3250
  24453808.120    24453808.420    24453813.200   128505609.9600  100134240.8520
  95961991.5230
  22407584.240    22407584.700                   117752668.2180   91755339.4150

  21555273.700    21555271.240                   113273728.4090   88265231.4770

 23  2 16  1 42  0.0000000  0  9G01G03G04G06G07G09G11G17G19
  24181168.800    24181172.480    24181172.660   127073299.7210   99018310.5300
  94892478.1180
  22296658.640    22296660.540    22296661.100   117170062.4390   91301545.3970
  87497269.9220
  20589923.200    20589923.260    20589926.780   108201128.7670   84312745.7400
  80799638.0460
  21108286.240    21108288.120    21108288.860   110924809.1630   86434932.1310
  82833489.0110
  24182662.500    24182663.960                   127080900.2260   99024161.7100

  20494917.380    20494918.220    20494918.640   107701848.8400   83923637.4910
  80426859.8590
  24434263.580    24434264.060    24434268.580   128402902.6540  100054209.1310
  95885294.4870
  22422319.040    22422319.460                   117830099.9020   91815675.7490

  21563276.460    21563273.980                   113315783.2520   88298001.4620

 23  2 16  1 42 30.0000000  0  9G01G03G04G06G07G09G11G17G19
  24201256.740    24201260.580    24201260.940   127178862.8050   99100567.4150
  94971307.6210
  22309495.460    22309497.380    22309498.000   117237520.6750   91354110.2280
  87547644.5420
  20596346.900    20596346.900    20596350.380   108234885.2760   84339049.5150
  80824845.8300
  21096402.800    21096404.700    21096405.300   110862361.2090   86386271.4000
  82786855.8130
  24165058.640    24165060.120                   126988392.3290   98952077.8640

  20487850.520    20487851.340    20487851.820   107664712.1380   83894699.8250
  80399127.9370
  24414728.840    24414729.280    24414733.740   128300246.4980   99974217.2970
  95808635.6160
  22437112.300    22437112.660                   117907838.5480   91876251.2710

  21571390.140    21571387.600                   113358420.7360   88331225.4550

 23  2 16  1 43  0.0000000  0  9G01G03G04G06G07G09G11G17G19
  24221371.620    24221375.620    24221376.100   127284567.4520   99182934.6190
  95050242.8370
  22322360.020    22322361.920    22322362.360   117305124.4700   91406788.4790
  87598127.8560
  20602860.560    20602860.540    20602863.980   108269114.5980   84365721.7180
  80850406.6840
  21084587.620    21084589.460    21084589.960   110800271.8510   86337890.1000
  82740490.3910
  24147459.700    24147461.060                   126895909.6090   98880013.6280

  20480877.600    20480878.400    20480878.980   107628069.0570   83866146.7990
  80371764.6250
  24395204.940    24395205.160    24395209.720   128197647.2170   99894269.7640
  95732019.2360
  22451964.140    22451964.440                   117985885.1180   91937066.7290

  21579615.000    21579612.460                   113401642.4570   88364904.7000

 23  2 16  1 43 30.0000000  0  9G01G03G04G06G07G09G11G17G19
  24241512.900    24241516.820    24241517.500   127390409.9460   99265409.2390
  95129280.9910
  22335251.940    22335253.720    22335253.820   117372871.1950   91459578.1080
  87648717.9150
  20609463.440    20609463.440    20609466.880   108303812.8060   84392759.2830
  80876317.6840
  21072840.660    21072842.480    21072842.860   110738541.1540   86289788.2730
  82694392.8140
  24129865.660    24129867.040                   126803452.9170   98807969.6690

  20473998.240    20473999.060    20473999.720   107591917.7420   83837976.9640
  80344768.5410
  24375691.620    24375691.960    24375696.480   128095104.5540   99814366.3510
  95655445.1480
  22466873.540    22466873.800                   118064234.1370   91998117.8570

  21587950.260    21587947.780                   113445444.2940   88399035.9850

 23  2 16  1 44  0.0000000  0  9G01G03G04G06G07G09G11G17G19
  24261679.980    24261683.980    24261684.820   127496388.7990   99347990.0990
  95208420.9620
  22348170.940    22348172.720    22348172.640   117440760.4720   91512478.8150
  87699414.4200
  20616155.240    20616155.260    20616158.720   108338978.2370   84420160.9180
  80902577.5880
  21061162.380    21061164.200    21061164.520   110677171.4750   86241967.7610
  82648564.8230
  24112276.840    24112278.340                   126711024.5200   98735947.7550

  20467212.520    20467213.340    20467214.060   107556258.4980   83810190.5590
  80318139.9060
  24356189.660    24356189.800    24356194.380   127992620.5440   99734508.6680
  95578914.8540
  22481840.040    22481840.280                   118142883.4230   92059402.9620

  21596395.440    21596393.120                   113489823.9750   88433617.5410

 23  2 16  1 44 30.0000000  0  9G01G03G04G06G07G09G11G17G19
  24281873.480    24281877.480    24281878.440   127602506.1940   99430678.9160
  95287664.3920
  22361117.620    22361119.460    22361119.420   117508795.6220   91565493.1870
  87750219.8690
  20622936.300    20622936.360    20622939.840   108374612.9400   84447928.2160
  80929187.9140
  21049553.940    21049555.760    21049556.080   110616168.7880   86194433.2110
  82603010.8840
  24094694.620    24094696.160                   126618630.8100   98663952.8590

  20460521.200    20460521.980    20460522.760   107521095.3080   83782790.6870
  80291881.7080
  24336699.880    24336700.080    24336704.640   127890200.9100   99654701.1270
  95502432.6060
  22496863.920    22496864.080                   118221833.9850   92120922.8290

  21604950.940    21604948.720                   113534783.1000   88468650.6040

 23  2 16  1 45  0.0000000  0  9G01G03G04G06G07G09G11G17G19
  24302092.300    24302096.300    24302097.360   127708756.6450   99513471.4050
  95367007.1690
  22374091.300    22374093.120    22374093.200   117576972.3190   91618617.8610
  87801131.0060
  20629805.580    20629805.680    20629809.140   108410711.2270   84476056.7490
  80956144.4300
  21038015.000    21038016.860    21038017.200   110555531.4690   86147183.3710
  82557729.7850
  24077118.760    24077120.240                   126526270.1430   98591983.7130

  20453923.560    20453924.300    20453925.160   107486424.5100   83755774.4990
  80265991.2000
  24317221.940    24317222.180    24317226.800   127787843.6100   99574942.1680
  95425996.9370
  22511943.820    22511943.900                   118301078.8160   92182671.9890

  21613615.560    21613613.360                   113580315.7700   88504130.5800

 23  2 16  1 45 30.0000000  0  9G01G03G04G06G07G09G11G17G19
  24322336.240    24322340.400    24322341.380   127815139.3330   99596366.9390
  95446448.6940
  22387091.900    22387093.720    22387094.080   117645290.8800   91671853.0810
  87852148.0760
  20636762.860    20636762.980    20636766.420   108447272.1010   84504545.7480
  80983446.3880
  21026546.160    21026548.040    21026548.440   110495262.5190   86100220.5690
  82512723.7700
  24059549.880    24059551.420                   126433946.3190   98520043.2740

  20447419.780    20447420.500    20447421.400   107452247.0570   83729142.7380
  80240469.1100
  24297756.360    24297756.780    24297761.360   127685551.4040   99495233.9430
  95349609.8780
  22527079.320    22527079.320                   118380615.9750   92244648.9420

  21622389.080    21622386.760                   113626420.7840   88540056.5450

 23  2 16  1 46  0.0000000  0  9G01G03G04G06G07G09G11G17G19
  24342604.980    24342609.200    24342610.080   127921651.8080   99679363.5930
  95525987.1360
  22400119.160    22400121.060    22400121.620   117713750.0110   91725197.8360
  87903270.1230
  20643807.680    20643807.800    20643811.260   108484292.9580   84533393.1660
  81011091.8250
  21015147.660    21015149.540    21015150.080   110435363.3070   86053545.8750
  82467993.8570
  24041988.340    24041989.920                   126341660.9100   98448132.7660

  20441009.780    20441010.460    20441011.360   107418562.3140   83702894.9050
  80215314.9360
  24278303.340    24278303.940    24278308.440   127583325.3960   99415577.2950
  95273272.2590
  22542269.780    22542269.700                   118460441.8550   92306850.8740

  21631270.920    21631268.440                   113673095.0560   88576426.0830

 23  2 16  1 46 30.0000000  0  9G01G03G04G06G07G09G11G17G19
  24362898.620    24362902.920    24362903.620   128028295.0750   99762462.1670
  95605623.2860
  22413173.600    22413175.640    22413176.220   117782351.8690   91778653.8010
  87954498.7420
  20650940.200    20650940.280    20650943.780   108521774.5300   84562599.5850
  81039081.3210
  21003820.480    21003822.320    21003822.960   110375838.6930   86007163.0750
  82423543.6800
  24024435.140    24024436.720                   126249419.1120   98376256.2290

  20434694.020    20434694.740    20434695.520   107385373.0080   83677033.1280
  80190530.7450
  24258863.900    24258864.520    24258868.980   127481170.2050   99335975.8350
  95196987.5110
  22557515.080    22557515.000                   118540556.0930   92369277.4970

  21640261.140    21640258.560                   113720338.8680   88613239.4220

 23  2 16  1 47  0.0000000  0  9G01G03G04G06G07G09G11G17G19
  24383216.460    24383220.920    24383221.320   128135065.8560   99845660.0960
  95685354.6150
  22426254.820    22426256.940    22426257.580   117851094.2760   91832219.2770
  88005832.3220
  20658159.680    20658159.720    20658163.280   108559713.3270   84592162.2860
  81067412.2330
  20992564.700    20992566.500    20992567.260   110316689.1270   85961072.5170
  82379373.5710
  24006890.440    24006892.020                   126157221.6930   98304414.2420

  20428472.260    20428473.000    20428473.660   107352677.5540   83651556.1720
  80166115.3340
  24239437.900    24239438.480    24239443.000   127379085.9890   99256429.6840
  95120755.7910
  22572814.300    22572814.240                   118620954.1100   92431925.2460

  21649358.880    21649356.280                   113768147.8270   88650493.1380

 23  2 16  1 47 30.0000000  0  9G01G03G04G06G07G09G11G17G19
  24403557.980    24403562.560    24403562.780   128241961.4880   99928955.3300
  95765179.1930
  22439362.480    22439364.660    22439365.300   117919975.8380   91885893.1980
  88057269.8210
  20665465.660    20665465.620    20665469.240   108598106.5480   84622079.0820
  81096082.4970
  20981380.540    20981382.340    20981383.120   110257915.8860   85915275.2000
  82335484.4860
  23989354.620    23989356.200                   126065070.5230   98232608.3280

  20422344.300    20422345.100    20422345.580   107320475.1410   83626463.4010
  80142068.1010
  24220025.640    24220026.240    24220030.600   127277073.8290   99176939.6820
  95044577.8560
  22588166.840    22588166.920                   118701632.3390   92494791.3510

  21658563.580    21658561.080                   113816519.0440   88688184.9710

 23  2 16  1 48  0.0000000  0  9G01G03G04G06G07G09G11G17G19
  24423923.720    24423928.320    24423928.300   128348984.2190  100012349.5900
  95845098.7070
  22452497.300    22452499.560    22452500.020   117988999.9480   91939678.1920
  88108813.7680
  20672858.500    20672858.400    20672862.020   108636956.1950   84652351.5360
  81125093.5970
  20970269.160    20970270.940    20970271.740   110199525.0430   85869775.8480
  82291880.9520
  23971828.760    23971830.180                   125972971.3740   98160842.9180

  20416310.920    20416311.780    20416312.120   107288769.6860   83601757.8700
  80118391.9770
  24200628.240    24200628.960    24200633.060   127175139.5020   99097510.3440
  94968458.0760
  22603572.900    22603573.040                   118782591.5810   92557876.4170

  21667875.600    21667873.160                   113865453.9680   88726316.0540

 23  2 16  1 48 30.0000000  0  9G01G03G04G06G07G09G11G17G19
  24444312.780    24444317.340    24444316.960   128456128.7750  100095838.7910
  95925109.1780
  22465658.520    22465660.860    22465661.140   118058162.4920   91993571.0550
  88160461.0850
  20680337.120    20680337.040    20680340.620   108676256.6790   84682975.2920
  81154441.3670
  20959230.260    20959232.040    20959232.840   110141515.0790   85824573.2950
  82248561.8410
  23954312.540    23954314.020                   125880923.7360   98089117.6580

  20410371.440    20410372.300    20410372.640   107257557.5420   83577436.7350
  80095084.2270
  24181245.380    24181246.080    24181250.100   127073281.3180   99018140.3040
  94892395.1230
  22619031.140    22619031.360                   118863825.0780   92621175.1910

  21677293.760    21677291.420                   113914946.7700   88764881.8530

 23  2 16  1 49  0.0000000  0  9G01G03G04G06G07G09G11G17G19
  24464724.680    24464729.200    24464728.480   128563393.3950  100179421.5580
  96005209.2950
  22478846.080    22478848.360    22478848.640   118127462.8940   92047571.3390
  88212211.3650
  20687901.220    20687901.120    20687904.640   108716006.0750   84713948.8490
  81184124.3650
  20948264.200    20948266.000    20948266.820   110083888.0610   85779669.1350
  82205528.7010
  23936806.620    23936808.000                   125788930.1050   98017434.4530

  20404525.840    20404526.640    20404527.080   107226838.7040   83553499.9960
  80072144.8660
  24161877.260    24161877.940    24161881.960   126971501.1520   98938831.0960
  94816390.4580
  22634541.060    22634541.280                   118945329.9740   92684685.4420

  21686817.520    21686815.300                   113964994.5980   88803880.1320

 23  2 16  1 49 30.0000000  0  9G01G03G04G06G07G09G11G17G19
  24485159.300    24485163.840    24485162.720   128670777.4880  100263097.4200
  96085398.6270
  22492059.880    22492062.220    22492062.660   118196901.7610   92101679.5150
  88264065.0270
  20695550.600    20695550.460    20695553.900   108756203.5150   84745271.5320
  81214141.9300
  20937371.620    20937373.500    20937374.240   110026647.2370   85735065.9110
  82162783.9410
  23919311.660    23919313.020                   125696993.8820   97945796.0010

  20398774.280    20398775.040    20398775.600   107196614.2410   83529948.4900
  80049574.6740
  24142524.560    24142525.260    24142529.200   126869802.0480   98859585.0290
  94740446.3200
  22650102.340    22650102.520                   119027104.5220   92748405.8130

  21696446.800    21696444.620                   114015596.4780   88843310.1480

 23  2 16  1 50  0.0000000  0  9G01G03G04G06G07G09G11G17G19
  24505616.900    24505621.400    24505620.100   128778282.1790  100346867.2310
  96165678.0660
  22505300.520    22505302.840    22505303.520   118266481.5810   92155897.5250
  88316023.9390
  20703285.380    20703285.280    20703288.600   108796850.0110   84776944.1240
  81244494.8330
  20926553.500    20926555.360    20926556.120   109969797.6440   85690767.5440
  82120331.3490
  23901828.720    23901830.020                   125605120.7720   97874206.7190

  20393117.380    20393118.060    20393118.680   107166887.0420   83506784.4540
  80027375.8130
  24123188.240    24123188.940    24123192.740   126768188.8880   98780405.9370
  94664566.3570
  22665714.880    22665715.080                   119109148.5660   92812336.1780

  21706181.560    21706179.400                   114066752.4560   88883171.9220

 23  2 16  1 50 30.0000000  0  9G01G03G04G06G07G09G11G17G19
  24526096.220    24526100.760    24526099.380   128885901.5690  100430726.4310
  96246043.0740
  22518567.000    22518569.220    22518570.100   118336197.3650   92210221.4860
  88368084.3930
  20711104.380    20711104.340    20711107.560   108837939.1750   84808961.6570
  81275178.3100
  20915809.380    20915811.220    20915811.920   109913337.0250   85646772.2750
  82078169.2130
  23884357.340    23884358.700                   125513308.7280   97802665.0010

  20387554.260    20387554.900    20387555.480   107137652.6490   83484004.4280
  80005544.9670
  24103867.740    24103868.640    24103872.220   126666659.2350   98701291.9280
  94588748.7490
  22681377.320    22681377.580                   119191454.7970   92876470.8400

  21716020.460    21716018.320                   114118455.8640   88923460.2640

 23  2 16  1 51  0.0000000  0  9G01G03G04G06G07G09G11G17G19
  24546597.580    24546602.180    24546600.780   128993636.9530  100514676.0070
  96326494.7770
  22531859.980    22531861.980    22531862.900   118406051.9310   92264653.5870
  88420248.4800
  20719007.840    20719007.840    20719011.120   108879472.2880   84841325.1210
  81306193.2920
  20905140.280    20905142.100    20905142.720   109857270.7280   85603084.2660
  82036301.5330
  23866898.760    23866900.180                   125421563.6790   97731175.4910

  20382085.540    20382086.160    20382086.660   107108914.2230   83461610.8710
  79984084.4760
  24084564.200    24084564.960    24084568.680   126565218.2610   98622247.0190
  94512997.3670
  22697089.680    22697090.020                   119274023.6140   92940810.1130

  21725963.720    21725961.540                   114170707.5860   88964175.8690

 23  2 16  1 51 30.0000000  0  9G01G03G04G06G07G09G11G17G19
  24567120.480    24567124.880    24567123.600   129101484.4590  100598712.9510
  96407030.0930
  22545178.780    22545180.700    22545181.400   118476042.3300   92319191.5310
  88472514.0000
  20726994.920    20726994.960    20726998.360   108921444.9240   84874031.0690
  81337536.4920
  20894546.180    20894547.940    20894548.520   109801598.4070   85559703.2510
  81994728.0640
  23849452.880    23849454.400                   125329885.2650   97659737.9280

  20376710.660    20376711.340    20376711.800   107080669.2430   83439601.8140
  79962992.4730
  24065277.380    24065278.120    24065282.000   126463865.5270   98543270.8530
  94437311.8760
  22712850.940    22712851.320                   119356849.3060   93005349.5530

  21736010.320    21736008.120                   114223502.6250   89005314.8280

 23  2 16  1 52  0.0000000  0  9G01G03G04G06G07G09G11G17G19
  24587664.780    24587669.220    24587668.080   129209445.3870  100682838.2720
  96487650.1820
  22558523.840    22558525.820    22558526.300   118546171.3560   92373837.4930
  88524883.0450
  20735065.880    20735066.000    20735069.400   108963858.3750   84907080.5030
  81369208.8750
  20884028.040    20884029.740    20884030.320   109746325.4340   85516633.4120
  81953452.8060
  23832020.760    23832022.440                   125238279.4870   97588356.9360

  20371430.260    20371431.000    20371431.440   107052920.8640   83417979.7180
  79942271.3060
  24046008.440    24046009.120    24046013.100   126362606.2040   98464367.5070
  94361696.1790
  22728661.140    22728661.580                   119439932.4120   93070089.5670

  21746160.360    21746158.160                   114276841.5480   89046877.5980

 23  2 16  1 52 30.0000000  0 10G01G03G04G06G07G09G11G17G19G20
  24608230.100    24608234.520    24608233.480   129317516.5920  100767049.5220
  96568352.6210
  22571894.980    22571897.040    22571897.360   118616437.0260   92428589.9270
  88577354.1150
  20743220.080    20743220.220    20743223.680   109006709.1560   84940470.7240
  81401207.8330
  20873585.980    20873587.700    20873588.240   109691452.3880   85473875.2110
  81912476.1990
  23814602.700    23814604.440                   125146747.3920   97517033.3480

  20366244.060    20366244.820    20366245.320   107025667.4510   83396743.3160
  79921919.7570
  24026757.340    24026758.000    24026762.080   126261440.8890   98385537.4010
  94286150.6600
  22744519.520    22744519.900                   119523268.4090   93135026.6400

  21756413.120    21756410.920                   114330720.2340   89088860.9570

  25598160.220    25598159.820

 23  2 16  1 53  0.0000000  0 10G01G03G04G06G07G09G11G17G19G20
  24628815.700    24628820.200    24628819.180   129425694.5980  100851343.9800
  96649134.8020
  22585291.680    22585293.840    22585294.080   118686837.0520   92483447.0590
  88629925.5380
  20751456.780    20751456.960    20751460.440   109049993.4430   84974198.7360
  81433530.5150
  20863220.100    20863221.820    20863222.380   109636979.6100   85431428.9010
  81871798.4920
  23797198.800    23797200.560                   125055289.9320   97445767.9240

  20361151.700    20361152.460    20361153.080   106998907.0920   83375891.1040
  79901936.3960
  24007524.120    24007524.720    24007529.000   126160369.7140   98306780.6580
  94210675.4430
  22760425.140    22760425.420                   119606852.4230   93200156.9750

  21766767.740    21766765.540                   114385134.3340   89131261.5200

  25581587.700    25581589.080                   134432150.8921  104752328.5501

 23  2 16  1 53 30.0000000  0 10G01G03G04G06G07G09G11G17G19G20
  24649422.280    24649426.780    24649425.680   129533982.5100  100935724.0950
  96729999.0570
  22598714.820    22598716.960    22598717.180   118757375.8450   92538412.3210
  88682600.5810
  20759776.540    20759776.780    20759780.240   109093714.1120   85008266.7850
  81466179.0580
  20852931.740    20852933.440    20852934.100   109582914.0390   85389299.8950
  81831424.8660
  23779810.540    23779812.140                   124963914.4060   97374566.3380

  20356154.040    20356154.840    20356155.580   106972644.4720   83355426.7430
  79882324.7180
  23988310.060    23988310.840    23988315.140   126059399.5440   98228102.6150
  94135275.6790
  22776378.300    22776378.440                   119690686.4140   93265482.0950

  21777224.720    21777222.520                   114440086.2220   89174081.1370

  25565009.340    25565009.900                   134345029.6751  104684440.2001

 23  2 16  1 54  0.0000000  0 10G01G03G04G06G07G09G11G17G19G20
  24670048.660    24670053.160    24670052.000   129642374.7690  101020185.5120
  96810941.2280
  22612163.580    22612165.640    22612166.000   118828049.0830   92593482.3500
  88735376.0100
  20768178.260    20768178.500    20768182.040   109137865.2960   85042670.2970
  81499149.0880
  20842720.560    20842722.260    20842722.980   109529253.8900   85347486.8030
  81791353.9900
  23762437.540    23762438.960                   124872619.4050   97303427.4720

  20351250.380    20351251.180    20351252.000   106946875.5800   83335347.1040
  79863081.7340
  23969114.820    23969115.640    23969120.100   125958528.6020   98149501.9080
  94059950.0080
  22792377.660    22792377.720                   119774763.2660   93330996.4570

  21787782.860    21787780.680                   114495569.4590   89217314.7980

  25548422.940    25548423.480                   134257869.3151  104616521.5051

 23  2 16  1 54 30.0000000  0 10G01G03G04G06G07G09G11G17G19G20
  24690695.120    24690699.560    24690698.240   129750872.1700  101104728.8510
  96891961.9310
  22625638.280    22625640.300    22625640.880   118898858.8390   92648658.7550
  88788253.3930
  20776661.960    20776662.220    20776665.860   109182447.4950   85077409.6700
  81532440.9870
  20832587.440    20832589.120    20832589.920   109476003.8060   85305993.2420
  81751589.3310
  23745080.880    23745082.020                   124781409.8640   97232355.2120

  20346441.120    20346441.880    20346442.840   106921602.7830   83315654.0350
  79844209.2100
  23949939.400    23949940.200    23949944.720   125857761.4420   98070982.0550
  93984701.8130
  22808423.140    22808423.240                   119859082.8170   93396699.9300

  21798442.020    21798439.880                   114551583.6650   89260962.1940

  25531828.940    25531829.960                   134170669.1590  104548573.3810

 23  2 16  1 55  0.0000000  0 10G01G03G04G06G07G09G11G17G19G20
  24711360.700    24711364.980    24711363.640   129859469.8400  101189350.3350
  96973057.4910
  22639138.140    22639140.180    22639140.980   118969801.4760   92703938.7110
  88841230.0050
  20785226.760    20785226.920    20785230.640   109227455.5030   85112480.8380
  81566050.8520
  20822532.160    20822533.820    20822534.680   109423162.6770   85264818.3510
  81712130.0640
  23727740.280    23727741.260                   124690284.9850   97161348.9270

  20341725.660    20341726.380    20341727.360   106896822.6760   83296344.8790
  79825704.6050
  23930783.420    23930784.220    23930788.840   125757096.8730   97992542.1670
  93909530.2470
  22824513.560    22824513.720                   119943638.7730   93462587.6200

  21809201.140    21809199.040                   114608123.0960   89305018.8610

  25515227.620    25515228.320                   134083428.2650  104480593.5150

 23  2 16  1 55 30.0000000  0 10G01G03G04G06G07G09G11G17G19G20
  24732045.220    24732049.320    24732047.900   129968167.0720  101274049.3970
  97054227.4160
  22652663.460    22652665.600    22652666.380   119040877.5990   92759322.6690
  88894306.2970
  20793872.420    20793872.500    20793876.220   109272888.3770   85147883.0690
  81599977.9950
  20812555.320    20812556.960    20812557.800   109370733.6190   85223964.5510
  81672978.5110
  23710416.660    23710417.340                   124599248.8890   97090411.8100

  20337104.120    20337104.800    20337105.720   106872536.0930   83277420.2880
  79807568.5440
  23911647.640    23911648.460    23911653.080   125656537.9890   97914184.6120
  93834437.6270
  22840648.620    22840648.880                   120028429.0730   93528657.9060

  21820059.900    21820057.800                   114665186.2940   89349483.6620

  25498618.860    25498619.400                   133996147.9700  104412582.9730

 23  2 16  1 56  0.0000000  0 10G01G03G04G06G07G09G11G17G19G20
  24752748.840    24752752.980    24752751.620   130076964.9850  101358826.9050
  97135472.4790
  22666214.660    22666217.020    22666217.520   119112089.5680   92814812.4830
  88947484.0300
  20802599.060    20802599.020    20802602.760   109318746.8250   85183616.9290
  81634222.9400
  20802657.780    20802659.380    20802660.220   109318721.5190   85183435.6550
  81634138.3180
  23693110.960    23693111.520                   124508307.0290   97019548.1330

  20332576.960    20332577.660    20332578.440   106848745.6360   83258882.2860
  79789802.9620
  23892532.980    23892533.840    23892538.300   125556089.7330   97835913.2670
  93759427.5950
  22856828.300    22856828.740                   120113453.9940   93594911.0170

  21831018.300    21831016.140                   114722773.0770   89394356.4540

  25482002.920    25482003.200                   133908831.0330  104344543.8590

 23  2 16  1 56 30.0000000  0 10G01G03G04G06G07G09G11G17G19G20
  24773470.400    24773474.640    24773473.320   130185857.5860  101443678.1890
  97216788.3200
  22679790.880    22679793.340    22679793.540   119183432.7960   92870404.5690
  89000759.7750
  20811405.500    20811405.340    20811409.040   109365024.6750   85219677.5870
  81668781.0640
  20792839.160    20792840.760    20792841.560   109267124.2910   85143230.0290
  81595607.9320
  23675822.880    23675823.180                   124417457.4010   96948756.3420

  20328143.340    20328144.060    20328144.700   106825446.8920   83240727.4370
  79772404.5730
  23873439.020    23873439.740    23873444.120   125455749.9620   97757726.4740
  93684498.5770
  22873051.320    22873051.780                   120198706.1400   93661341.1960

  21842075.040    21842072.900                   114780876.8980   89439632.1280

  25465379.280    25465379.640                   133821473.5470  104276473.1170

 23  2 16  1 57  0.0000000  0 10G01G03G04G06G07G09G11G17G19G20
  24794210.580    24794214.860    24794213.860   130294847.7790  101528605.5310
  97298176.9820
  22693392.860    22693395.200    22693395.440   119254911.2630   92926102.0400
  89054136.5170
  20820292.160    20820291.940    20820295.600   109411724.3410   85256066.9370
  81703654.1900
  20783100.660    20783102.320    20783103.120   109215948.4360   85103352.7490
  81557392.2120
  23658553.680    23658553.880                   124326707.1110   96878041.9350

  20323804.060    20323804.820    20323805.340   106802644.0640   83222959.0180
  79755376.5150
  23854366.940    23854367.580    23854371.940   125355525.2240   97679629.3100
  93609655.4480
  22889317.840    22889318.240                   120284186.6620   93727949.3250

  21853230.520    21853228.400                   114839499.3340   89485311.9190

  25448748.960    25448749.480                   133734080.0420  104208374.3740

 23  2 16  1 57 30.0000000  0 10G01G03G04G06G07G09G11G17G19G20
  24814968.180    24814972.780    24814971.940   130403930.3760  101613604.8690
  97379634.6640
  22707019.940    22707022.020    22707022.500   119326521.2790   92981902.0200
  89107611.4800
  20829258.060    20829257.820    20829261.440   109458840.4450   85292780.7870
  81738838.2940
  20773442.120    20773443.820    20773444.620   109165192.7020   85063802.8350
  81519490.2180
  23641303.240    23641303.340                   124236055.4180   96807404.3590

  20319558.500    20319559.260    20319559.640   106780333.5720   83205574.2350
  79738716.1020
  23835316.600    23835317.060    23835321.400   125255414.2950   97601620.8200
  93534897.3180
  22905626.600    22905626.780                   120369889.2280   93794730.4820

  21864483.640    21864481.520                   114898634.5370   89531391.2590

  25432110.940    25432111.560                   133646647.5190  104140245.1820

 23  2 16  1 58  0.0000000  0 10G01G03G04G06G07G09G11G17G19G20
  24835743.840    24835748.520    24835748.080   130513107.2610  101698677.6970
  97461162.7530
  22720672.620    22720674.420    22720675.140   119398265.9610   93037806.9430
  89161187.0110
  20838303.420    20838303.280    20838306.840   109506374.4980   85329820.3040
  81774334.5000
  20763864.560    20763866.340    20763867.140   109114862.7230   85024584.6800
  81481906.1530
  23624072.720    23624072.920                   124145508.7000   96736848.5870

  20315407.260    20315408.040    20315408.280   106758518.6660   83188575.6230
  79722425.7700
  23816288.940    23816289.140    23816293.600   125155422.8430   97523705.4320
  93460228.4180
  22921977.720    22921977.660                   120455814.8200   93861685.4370

  21875834.520    21875832.320                   114958283.3330   89577870.8120

  25415466.300    25415466.980                   133559179.8050  104072088.5900

 23  2 16  1 58 30.0000000  0 10G01G03G04G06G07G09G11G17G19G20
  24856536.900    24856541.580    24856541.460   130622374.8380  101783821.1820
  97542758.5710
  22734350.400    22734351.940    22734352.780   119470143.0300   93093815.0240
  89214861.4120
  20847427.560    20847427.540    20847431.040   109554322.5840   85367182.4460
  81810139.8810
  20754368.040    20754369.960    20754370.720   109064958.6970   84985698.4400
  81444640.1790
  23606862.180    23606862.460                   124055067.3800   96666374.9420

  20311349.900    20311350.720    20311350.900   106737197.2480   83171961.5480
  79706503.9530
  23797284.040    23797284.140    23797288.560   125055551.0970   97445883.3200
  93385648.9060
  22938370.440    22938370.180                   120541958.8450   93928810.5820

  21887282.200    21887279.840                   115018440.5980   89624746.5680

  25398814.560    25398815.300                   133471674.9720  104003903.0530

 23  2 16  1 59  0.0000000  0 10G01G03G04G06G07G09G11G17G19G20
  24877346.140    24877350.800    24877351.000   130731727.4360  101869030.9020
  97624417.8310
  22748052.500    22748054.080    22748054.700   119542148.0410   93149922.8000
  89268631.3430
  20856629.300    20856629.460    20856632.920   109602678.6270   85404862.4690
  81846249.9100
  20744952.240    20744954.220    20744954.880   109015478.6200   84947142.5520
  81407690.7850
  23589671.400    23589671.820                   123964730.0020   96595982.2900

  20307385.620    20307386.440    20307386.660   106716364.9340   83155728.5940
  79690947.3710
  23778301.440    23778301.540    23778305.900   124955797.1780   97368153.0350
  93311157.3810
  22954803.260    22954803.020                   120628313.7340   93996100.0320

  21898825.340    21898822.880                   115079099.6780   89672013.3540

  25382155.100    25382155.460                   133384129.2320  103935685.6850

 23  2 16  1 59 30.0000000  0 10G01G03G04G06G07G09G11G17G19G20
  24898172.720    24898177.320    24898177.680   130841170.6440  101954311.2440
  97706144.8060
  22761780.300    22761782.160    22761782.200   119614288.0410   93206135.7560
  89322502.1020
  20865909.760    20865910.020    20865913.460   109651448.0230   85442864.5870
  81882668.6090
  20735618.980    20735620.960    20735621.540   108966432.0160   84908924.4290
  81371065.0880
  23572502.280    23572502.760                   123874506.6080   96525678.4510

  20303515.760    20303516.540    20303516.860   106696028.8800   83139882.3370
  79675761.3840
  23759343.120    23759343.260    23759347.500   124856170.6840   97290522.0290
  93236761.0300
  22971277.020    22971276.960                   120714883.5620   94063556.9630

  21910464.860    21910462.320                   115140265.4550   89719674.9730

  25365489.400    25365489.660                   133296550.3870  103867442.5090

 23  2 16  2  0  0.0000000  0 10G01G03G04G06G07G09G11G17G19G20
  24919015.420    24919020.160    24919020.560   130950699.8870  102039658.5980
  97787935.9850
  22775533.060    22775535.220    22775534.860   119686559.6430   93262451.2550
  89376471.1220
  20875267.900    20875268.260    20875271.640   109700625.6700   85481184.8230
  81919392.1680
  20726368.080    20726369.960    20726370.480   108917817.9060   84871043.3170
  81334762.3530
  23555354.800    23555355.340                   123784396.7100   96455463.0570

  20299739.700    20299740.420    20299740.880   106676185.7500   83124420.1760
  79660943.4800
  23740408.800    23740408.940    23740413.260   124756670.7340   97212989.6390
  93162459.1680
  22987790.640    22987790.760                   120801662.9140   94131177.1700

  21922199.560    21922197.100                   115201931.8460   89767726.6730

  25348816.740    25348817.100                   133208935.5030  103799171.2120

 23  2 16  2  0 30.0000000  0 10G01G03G04G06G07G09G11G17G19G20
  24939873.900    24939878.520    24939879.020   131060311.1670  102125069.8930
  97869788.4740
  22789310.360    22789312.760    22789312.480   119758960.3420   93318867.3500
  89430536.5380
  20884703.040    20884703.360    20884706.740   109750207.4100   85519819.9380
  81956417.4900
  20717199.460    20717201.260    20717201.740   108869636.2200   84833499.1580
  81298782.5400
  23538229.080    23538229.640                   123694401.0930   96385336.7080

  20296056.980    20296057.640    20296058.220   106656833.0570   83109340.1760
  79646491.8230
  23721498.580    23721498.840    23721503.080   124657297.3880   97135555.9080
  93088251.8540
  23004343.140    23004343.400                   120888646.6780   94198956.6360

  21934028.560    21934026.180                   115264094.1290   89816164.7890

  25332137.060    25332137.360                   133121283.0280  103730870.6210

 23  2 16  2  1  0.0000000  0 10G01G03G04G06G07G09G11G17G19G20
  24960747.760    24960752.500    24960752.960   131170004.5930  102210545.1710
  97951702.2530
  22803112.580    22803114.960    22803114.860   119831491.4370   93375385.0510
  89484699.3320
  20894215.000    20894215.260    20894218.680   109800192.8350   85558769.6110
  81993744.2540
  20708113.840    20708115.480    20708115.980   108821890.6750   84796294.8460
  81263128.4120
  23521125.860    23521126.420                   123604523.6850   96315302.4670

  20292467.880    20292468.520    20292469.080   106637972.1590   83094643.3870
  79632407.4000
  23702613.220    23702613.500    23702617.720   124558054.4850   97058223.8170
  93014141.9530
  23020934.280    23020934.660                   120975833.6420   94266894.4420

  21945951.820    21945949.380                   115326751.0170   89864988.3080

  25315450.320    25315450.800                   133033594.7230  103662542.1560

 23  2 16  2  1 30.0000000  0 10G01G03G04G06G07G09G11G17G19G20
  24981637.060    24981641.900    24981642.120   131279778.1820  102296082.9120
  98033675.9110
  22816939.500    22816941.780    22816941.840   119904152.3630   93432003.9220
  89538959.0730
  20903803.380    20903803.580    20903807.020   109850579.6860   85598032.0900
  82031370.7970
  20699111.560    20699113.120    20699113.560   108774583.0830   84759431.7950
  81227801.3290
  23504045.680    23504046.200                   123514767.0280   96245362.3130

  20288972.240    20288972.920    20288973.340   106619602.4630   83080329.3500
  79618689.7870
  23683753.000    23683753.440    23683757.520   124458944.0270   96980994.9440
  92940130.9560
  23037563.340    23037563.760                   121063219.9260   94334987.5640

  21957968.580    21957966.120                   115389899.4730   89914194.8740

  25298756.860    25298757.440                   132945870.6380  103594185.7850

 23  2 16  2  2  0.0000000  0 10G01G03G04G06G07G09G11G17G19G20
  25002541.640    25002546.420    25002546.480   131389632.1560  102381683.3080
  98115709.5620
  22830791.400    22830793.720    22830793.900   119976944.6130   93488725.1230
  89593316.8900
  20913468.160    20913468.240    20913471.740   109901367.8010   85637607.2410
  82069296.9790
  20690193.360    20690194.880    20690195.260   108727717.4160   84722913.1040
  81192804.2480
  23486989.420    23486989.740                   123425135.6790   96175519.7890

  20285570.380    20285571.060    20285571.380   106601725.5230   83066399.2780
  79605340.1380
  23664918.820    23664919.280    23664923.380   124359970.1110   96903872.4780
  92866221.9130
  23054230.240    23054230.700                   121150804.6820   94403235.3340

  21970078.760    21970076.340                   115453538.8400   89963783.9670

  25282057.020    25282057.580                   132858112.7360  103525803.0590

 23  2 16  2  2 30.0000000  0 10G01G03G04G06G07G09G11G17G19G20
  25023460.480    25023465.220    25023465.160   131499560.9630  102467341.9860
  98197799.1340
  22844667.500    22844669.880    22844670.160   120049864.1440   93545545.5060
  89647769.7320
  20923208.160    20923208.100    20923211.700   109952551.3210   85677490.5010
  82107518.4310
  20681358.880    20681360.400    20681360.720   108681291.9050   84686737.3910
  81158135.8540
  23469956.780    23469956.880                   123335628.5390   96105774.0520

  20282261.520    20282262.180    20282262.400   106584337.1440   83052849.9040
  79592355.3260
  23646110.340    23646110.840    23646114.940   124261131.1490   96826855.1460
  92792413.6570
  23070933.780    23070934.200                   121238582.0600   94471633.2030

  21982281.080    21982278.740                   115517662.2520   90013750.2310

  25265350.140    25265350.640                   132770317.6720  103457391.3340

 23  2 16  2  3  0.0000000  0 10G01G03G04G06G07G09G11G17G19G20
  25044394.120    25044398.840    25044398.580   131609567.5000  102553061.2470
  98279946.7080
  22858568.600    22858570.980    22858571.220   120122914.9920   93602468.2160
  89702320.6740
  20933023.820    20933023.640    20933027.280   110004132.6870   85717683.7730
  82146036.9870
  20672609.400    20672610.840    20672611.220   108635313.0610   84650909.7290
  81123801.0160
  23452949.020    23452948.980                   123246252.6160   96036130.5560

  20279046.400    20279047.020    20279047.200   106567441.4430   83039684.4370
  79579738.4240
  23627328.760    23627329.260    23627333.500   124162433.9030   96749948.2480
  92718711.2380
  23087674.100    23087674.520                   121326552.7350   94540181.6990

  21994575.760    21994573.460                   115582271.1680   90064094.8080

  25248637.320    25248637.420                   132682490.0990  103388954.3370

 23  2 16  2  3 30.0000000  0 10G01G03G04G06G07G09G11G17G19G20
  25065341.980    25065346.500    25065346.020   131719647.6340  102638837.8480
  98362149.2840
  22872494.200    22872496.620    22872496.980   120196094.5190   93659491.1930
  89756967.6940
  20942914.280    20942914.120    20942917.760   110056107.4940   85758183.6230
  82184849.3370
  20663944.820    20663946.200    20663946.760   108589780.5670   84615429.8680
  81089799.4900
  23435966.260    23435966.120                   123157008.1300   95966589.4740

  20275924.540    20275925.100    20275925.220   106551035.6690   83026900.7310
  79567487.3740
  23608574.300    23608574.820    23608578.980   124063878.2380   96673151.6690
  92645114.5280
  23104450.320    23104450.620                   121414711.6620   94608876.8730

  22006961.900    22006959.640                   115647360.3870   90114813.6390

  25231917.580    25231917.920                   132594628.1660  103320490.5770

 23  2 16  2  4  0.0000000  0 10G01G03G04G06G07G09G11G17G19G20
  25086303.360    25086307.600    25086307.200   131829798.9210  102724669.8850
  98444404.9930
  22886444.200    22886446.500    22886447.200   120269401.6570   93716613.6070
  89811709.9940
  20952879.020    20952878.940    20952882.700   110108472.9010   85798987.8240
  82223953.3690
  20655365.420    20655366.780    20655367.500   108544695.6890   84580298.8000
  81056132.2210
  23419008.860    23419008.760                   123067896.9390   95897152.2650

  20272895.640    20272896.160    20272896.220   106535118.6290   83014497.8530
  79555601.2910
  23589846.920    23589847.340    23589851.660   123965465.6650   96596466.5980
  92571624.6790
  23121261.540    23121261.900                   121503054.7810   94677715.5890

  22019438.720    22019436.500                   115712926.3530   90165903.9650

  25215191.580    25215191.620                   132506731.5620  103251999.7440

 23  2 16  2  4 30.0000000  0 10G01G03G04G06G07G09G11G17G19G20
  25107278.180    25107282.240    25107282.000   131940020.9310  102810557.0400
  98526713.4820
  22900418.560    22900420.700    22900421.680   120342837.2540   93773836.1200
  89866548.2150
  20962917.920    20962917.940    20962921.840   110161228.0650   85840095.7340
  82263348.4450
  20646871.820    20646873.240    20646874.000   108500061.6410   84545519.0320
  81022801.6120
  23402077.580    23402077.560                   122978923.0210   95827822.0220

  20269959.880    20269960.380    20269960.360   106519691.1280   83002476.4390
  79544080.7690
  23571147.580    23571147.880    23571152.080   123867199.6810   96519895.7360
  92498244.2680
  23138107.560    23138107.980                   121591580.7640   94746696.7800

  22032005.920    22032003.760                   115778967.2800   90217364.3930

  25198459.020    25198458.880                   132418801.5260  103183482.9130

 23  2 16  2  5  0.0000000  0 10G01G03G04G06G07G09G11G17G19G20
  25128266.020    25128269.940    25128269.880   132050311.9990  102896498.0070
  98609073.5460
  22914417.400    22914419.360    22914420.460   120416401.0870   93831158.5650
  89921482.2070
  20973030.640    20973030.780    20973034.660   110214371.0120   85881505.8080
  82303033.0970
  20638464.400    20638465.900    20638466.700   108455880.5240   84511092.2000
  80989809.2370
  23385172.860    23385172.940                   122890088.9430   95758600.7420

  20267117.160    20267117.740    20267117.620   106504752.8090   82990836.2030
  79532925.5410
  23552476.440    23552476.800    23552481.000   123769082.5640   96443440.8910
  92424975.0530
  23154987.680    23154988.280                   121680286.2150   94815817.8310

  22044663.020    22044660.940                   115845480.6320   90269192.9480

  25181720.180    25181720.100                   132330838.7150  103114940.5090

 23  2 16  2  5 30.0000000  0 10G01G03G04G06G07G09G11G17G19G20
  25149266.620    25149270.720    25149270.900   132160671.0860  102982491.9580
  98691484.4450
  22928440.700    22928442.560    22928443.720   120490093.5030   93888581.1960
  89976512.2070
  20983216.940    20983217.080    20983220.940   110267900.2980   85923216.9320
  82343006.2540
  20630143.700    20630145.260    20630146.080   108412154.9950   84477020.3700
  80957157.0700
  23368295.380    23368295.580                   122801398.0880   95689491.0650

  20264367.600    20264368.240    20264368.080   106490303.8450   82979577.2860
  79522135.7520
  23533834.200    23533834.640    23533838.740   123671117.2890   96367104.3650
  92351819.2230
  23171901.720    23171902.260                   121769169.3360   94885077.3130

  22057409.520    22057407.520                   115912463.9070   90321387.6810

  25164975.100    25164975.420                   132242844.0340  103046373.2810

 23  2 16  2  6  0.0000000  0 10G01G03G04G06G07G09G11G17G19G20
  25170279.600    25170283.760    25170284.360   132271095.4070  103068536.7560
  98773943.9640
  22942488.080    22942490.020    22942490.980   120563912.9750   93946102.8280
  90031637.0930
  20993476.180    20993476.260    20993480.040   110321812.6710   85965226.5610
  82383265.4860
  20621909.780    20621911.440    20621912.280   108368885.8400   84443304.1530
  80924845.7050
  23351445.340    23351445.680                   122712851.8710   95620494.0940

  20261710.820    20261711.520    20261711.420   106476342.6240   82968698.4230
  79511710.1800
  23515221.140    23515221.680    23515225.620   123573304.9850   96290887.0320
  92278777.6090
  23188848.620    23188849.280                   121858225.7180   94954471.8020

  22070244.680    22070242.760                   115979913.2020   90373945.5450

  25148224.100    25148224.360                   132154816.6690  102977780.5500

 23  2 16  2  6 30.0000000  0 11G01G03G04G06G07G09G11G17G19G20G30
  25191304.520    25191308.880    25191309.500   132381582.0780  103154630.1390
  98856450.1000
  22956559.460    22956561.480    22956561.880   120637858.1530   94003722.4060
  90086855.8470
  21003807.740    21003807.740    21003811.400   110376104.9730   86007532.2420
  82423808.4290
  20613762.920    20613764.640    20613765.460   108326073.9770   84409944.2750
  80892875.8260
  23334623.120    23334623.620                   122624451.9450   95551611.1250

  20259146.560    20259147.340    20259147.340   106462867.5590   82958198.3830
  79501647.6500
  23496637.480    23496637.920    23496641.900   123475646.8800   96214789.8570
  92205851.1470
  23205827.820    23205828.620                   121947451.6660   95023998.4150

  22083167.680    22083165.840                   116047824.0360   90426863.0510

  25131466.720    25131466.960                   132066755.7930  102909161.7240

  25933086.300    25933099.520    25933103.340   136279280.0451  106191675.3111
 101767074.4501
 23  2 16  2  7  0.0000000  0 11G01G03G04G06G07G09G11G17G19G20G30
  25212339.940    25212344.420    25212345.060   132492123.6570  103240766.3030
  98938997.2410
  22970653.600    22970655.680    22970655.740   120711922.9200   94061435.1750
  90142163.9330
  21014210.100    21014210.060    21014213.620   110430769.3370   86050127.8460
  82464629.2220
  20605702.400    20605704.140    20605704.820   108283715.6250   84376937.7790
  80861244.6020
  23317828.320    23317828.820                   122536195.1010   95482839.6470

  20256673.620    20256674.420    20256674.540   106449872.3690   82948072.2690
  79491943.4550
  23478082.440    23478082.840    23478086.880   123378139.4870   96138810.1070
  92133037.2230
  23222837.620    23222838.320                   122036838.0830   95093650.0830

  22096176.880    22096175.080                   116116187.7930   90480133.4790

  25114701.940    25114702.040                   131978656.0300  102840512.5640

  25913965.640    25913980.180    25913983.760   136178802.3240  106113380.9050
 101692042.2800
 23  2 16  2  7 30.0000000  0 11G01G03G04G06G07G09G11G17G19G20G30
  25233388.240    25233392.820    25233393.480   132602733.1150  103326955.3520
  99021595.0480
  22984773.240    22984775.200    22984775.600   120786121.6590   94119252.3430
  90197572.0490
  21024685.620    21024685.560    21024689.120   110485818.3820   86093023.2000
  82505737.2650
  20597731.340    20597733.140    20597733.640   108241827.3530   84344297.5810
  80829964.4150
  23301064.220    23301064.640                   122448098.7960   95414193.2530

  20254294.700    20254295.500    20254295.740   106437371.1990   82938331.1120
  79482608.1860
  23459559.320    23459559.600    23459563.760   123280799.7610   96062961.0180
  92060348.5260
  23239880.180    23239880.740                   122126396.6570   95163435.8880

  22109274.480    22109272.680                   116185016.1960   90533765.9610

  25097932.640    25097932.920                   131890532.5380  102771837.9511

  25894817.860    25894825.400    25894835.780
 101616902.9670
 23  2 16  2  8  0.0000000  0 11G01G03G04G06G07G09G11G17G19G20G30
  25254448.060    25254452.640    25254453.140   132713402.4250  103413191.0220
  99104237.5250
  22998917.000    22998918.840    22998919.840   120860447.6770   94177168.6920
  90253075.1970
  21035232.680    21035232.640    21035236.260   110541243.6300   86136211.7030
  82547126.2390
  20589848.900    20589850.680    20589851.040   108200404.7990   84312020.2770
  80799031.9980
  23284329.940    23284330.340                   122360159.1140   95345668.8990

  20252008.520    20252009.260    20252009.600   106425357.1900   82928969.5570
  79473636.6930
  23441067.160    23441067.540    23441071.740   123183623.6530   95987239.4270
  91987782.0100
  23256953.760    23256954.340                   122216118.4450   95233348.8690

  22122458.780    22122457.000                   116254300.1360   90587753.4100

  25081157.500    25081157.740                   131802379.2660  102703147.1160

  25875642.480    25875656.600    25875660.320
 101541653.1660
 23  2 16  2  8 30.0000000  0 11G01G03G04G06G07G09G11G17G19G20G30
  25275518.420    25275523.060    25275523.500   132824127.7700  103499470.3700
  99186921.8350
  23013084.440    23013086.420    23013087.740   120934898.5890   94235182.3550
  90308671.6220
  21045850.480    21045850.540    21045854.180   110597040.8950   86179690.0870
  82588793.0200
  20582055.040    20582056.780    20582057.140   108159447.7940   84280105.7390
  80768447.2350
  23267625.600    23267625.920                   122272376.6420   95277267.0570

  20249814.520    20249815.200    20249815.660   106413827.6870   82919985.5400
  79465027.0110
  23422606.200    23422606.660    23422610.920   123086611.4310   95911645.5330
  91915337.8740
  23274057.400    23274058.040                   122305998.1540   95303384.9120

  22135728.800    22135726.980                   116324034.1650   90642091.5860

  25064376.460    25064376.640                   131714194.3760  102634431.6560

  25856437.580    25856452.780    25856456.420
 101466292.9120
 23  2 16  2  9  0.0000000  0 11G01G03G04G06G07G09G11G17G19G20G30
  25296599.520    25296604.280    25296604.640   132934527.1441  103585364.3461
  99269648.0440
  23027275.940    23027278.100    23027279.480   121009475.8950   94293294.5050
  90364362.4100
  21056539.000    21056539.160    21056542.760   110653209.8410   86223458.0910
  82630737.3550
  20574350.520    20574352.200    20574352.540   108118960.0260   84248556.8420
  80738212.8770
  23250951.980    23250952.200                   122184755.6470   95208991.0260

  20247712.980    20247713.580    20247714.120   106402783.8770   82911379.9870
  79456780.0280
  23404177.300    23404177.780    23404182.040   122989767.1760   95836182.5300
  91843019.1630
  23291190.900    23291191.580                   122396034.5500   95373543.0390

  22149084.180    22149082.340                   116394217.0270   90696779.5000

  25047589.940    25047589.900                   131625980.1350  102565693.3310

  25837207.360                    25837224.540
 101390824.9320
 23  2 16  2  9 30.0000000  0 11G01G03G04G06G07G09G11G17G19G20G30
  25317690.660    25317695.200    25317695.820
  99352412.8840
  23041490.980    23041493.340    23041494.400   121084176.6400   94351502.8400
  90420145.3990
  21067297.380    21067297.600    21067301.140   110709745.7770   86267512.0590
  82672955.7430
  20566735.140    20566736.760    20566737.120   108078940.8180   84217373.0500
  80708328.4190
  23234309.060    23234309.180                   122097296.2070   95140840.8790

  20245703.240    20245703.820    20245704.440   106392222.6200   82903150.4460
  79448893.3870
  23385780.300    23385780.720    23385785.060   122893090.6460   95760850.2180
  91770825.7130
  23308352.860    23308353.620                   122486221.0220   95443818.1070

  22162523.960    22162522.040                   116464843.2500   90751812.8860

  25030797.180    25030797.380                   131537734.1900  102496930.2680

  25817947.060    25817962.580    25817965.480
 101315248.9900
 23  2 16  2 10  0.0000000  0 11G01G03G04G06G07G09G11G17G19G20G30
  25338791.700    25338796.460    25338797.280
  99435217.7640
  23055730.220    23055732.700    23055733.140   121159004.0830   94409809.9000
  90476023.0030
  21078125.840    21078126.120    21078129.680   110766650.1360   86311853.1060
  82715449.2440
  20559209.960    20559211.520    20559211.960   108039395.6260   84186558.6240
  80678797.9320
  23217698.000    23217698.040                   122010004.3190   95072821.2980

  20243785.880    20243786.460    20243787.120   106382146.8460   82895299.2040
  79441369.2840
  23367416.340    23367416.760    23367421.160   122796587.6870   95685653.1560
  91698761.8810
  23325543.920    23325544.660                   122576560.0530   95514212.0490

  22176048.240    22176046.220                   116535913.5670   90807192.3180

  25013999.180    25013999.420                   131449460.4900  102428145.5970

  25798661.240    25798676.780    25798679.700   135572881.0141  105641268.6191
 101239569.0100
 23  2 16  2 10 30.0000000  0 11G01G03G04G06G07G09G11G17G19G20G30
  25359902.120    25359907.460    25359908.160
  99518059.9450
  23069993.040    23069995.600    23069995.740   121233955.9970   94468213.9440
  90531993.5430
  21089023.640    21089023.980    21089027.580   110823918.8350   86356478.0590
  82758214.8190
  20551774.940    20551776.520    20551776.960   108000324.3710   84156113.5010
  80649621.3500
  23201118.880    23201119.000                   121922881.2360   95004933.2550

  20241960.420    20241960.980    20241961.600   106372553.9710   82887824.2480
  79434205.7840
  23349085.520    23349085.940    23349090.260   122700258.7040   95610591.6600
  91626827.9650
  23342762.880    23342763.600                   122667045.9260   95584720.4200

  22189655.960    22189653.940                   116607422.7520   90862913.7240

  24997195.540    24997195.980                   131361157.6560  102359338.2210

  25779348.640    25779364.380    25779367.480   135471392.7161  105562187.6211
 101163785.0100
 23  2 16  2 11  0.0000000  0 11G01G03G04G06G07G09G11G17G19G20G30
  25381023.360    25381027.760    25381028.280
  99600937.9550
  23084279.400    23084281.900    23084282.260   121309031.8010   94526714.5330
  90588056.5950
  21099990.400    21099990.720    21099994.440   110881549.5630   86401385.1100
  82801250.7450
  20544430.420    20544431.920    20544432.520   107961728.6820   84126038.9460
  80620799.9070
  23184572.180    23184572.380                   121835928.7990   94937178.1830

  20240226.660    20240227.240    20240227.780   106363443.1580   82880724.9240
  79427402.2690
  23330788.240    23330788.660    23330792.860   122604105.8270   95535667.3760
  91555025.5340
  23360009.260    23360009.860                   122757675.3160   95655340.6180

  22203346.560    22203344.500                   116679367.2640   90918974.3440

  24980386.600    24980386.820                   131272825.7100  102290508.1660

  25760010.260    25760025.900    25760029.160   135369769.8470  105483001.4300
 101087898.4080
 23  2 16  2 11 30.0000000  0 11G01G03G04G06G07G09G11G17G19G20G30
  25402151.020    25402155.680    25402157.180   133489208.1091  104017584.1701
  99683850.8200
  23098589.480    23098591.820    23098592.560   121384231.5660   94585311.7240
  90644212.2220
  21111025.720    21111026.060    21111029.860   110939540.5430   86446572.8790
  82844555.6820
  20537176.780    20537178.320    20537179.040   107923610.8330   84096336.7320
  80592335.2890
  23168058.560    23168058.820                   121749150.1810   94869558.5660

  20238584.580    20238585.160    20238585.600   106354814.1370   82874001.0240
  79420958.5340
  23312525.040    23312525.480    23312529.520   122508131.7740   95460882.4360
  91483356.6470
  23377282.380    23377282.980                   122848445.6460   95726070.6310

  22217119.540    22217117.540                   116751744.6580   90975372.2780

  24963572.260    24963572.440                   131184465.3580  102221655.9880

  25740646.120    25740661.660    25740664.740   135268011.7710  105403709.9520
 101011910.8160
 23  2 16  2 12  0.0000000  0 11G01G03G04G06G07G09G11G17G19G20G30
  25423288.500    25423293.160    25423294.820
  99766797.9700
  23112923.300    23112925.660    23112926.500   121459556.0330   94644006.0830
  90700460.9680
  21122129.460    21122129.700    21122133.500   110997890.6410   86492040.4790
  82888128.8030
  20530014.600    20530016.140    20530016.980   107885973.6300   84067009.0520
  80564229.6060
  23151578.900    23151579.000                   121662549.2300   94802077.3740

  20237034.220    20237034.840    20237035.200   106346667.2270   82867652.7930
  79414874.8200
  23294296.480    23294296.840    23294300.820   122412339.8790   95386239.4530
  91411823.8080
  23394581.720    23394582.420                   122939354.2810   95796908.4230

  22230974.440    22230972.580                   116824552.5300   91032105.6410

  24946752.740    24946752.920                   131096078.4090  102152783.0740

  25721256.740    25721272.160    25721275.200   135166121.7960  105324315.7020
 100935824.7840
 23  2 16  2 12 30.0000000  0 11G01G03G04G06G07G09G11G17G19G20G30
  25444434.260    25444439.480    25444440.720   133711403.7131  104190724.5251
  99849777.8600
  23127280.760    23127283.260    23127283.800   121535004.5270   94702797.0830
  90756802.3220
  21133301.080    21133301.200    21133304.960   111056597.3720   86537785.9780
  82931968.2350
  20522944.160    20522945.780    20522946.620   107848818.5770   84038057.0730
  80536483.9490
  23135133.440    23135133.320                   121576127.6280   94734735.9330

  20235575.440    20235576.040    20235576.380   106339001.4130   82861679.4470
  79409150.3640
  23276102.920    23276103.260    23276107.220   122316732.2050   95311739.9970
  91340428.5040
  23411906.920    23411907.600                   123030398.5190   95867851.8690

  22244910.620    22244908.920                   116897787.3750   91089171.7160

  24929928.000    24929927.940                   131007664.3220  102083889.0150

  25701842.400    25701857.940    25701860.360   135064101.6700  105244820.0690
 100859641.5650
 23  2 16  2 13  0.0000000  0 11G01G03G04G06G07G09G11G17G19G20G30
  25465588.360    25465593.600    25465594.420   133822568.3071  104277345.5371
  99932788.6200
  23141661.480    23141664.280    23141664.280   121610575.9390   94761683.8540
  90813235.4940
  21144540.000    21144540.020    21144543.680   111115657.8280   86583807.1060
  82976071.8140
  20515965.640    20515967.340    20515968.180   107812146.7090   84009481.5990
  80509099.1300
  23118722.540    23118722.280                   121489887.6170   94667535.9880

  20234207.940    20234208.520    20234208.900   106331815.2150   82856079.8270
  79403784.0670
  23257944.740    23257945.040    23257948.980   122221310.2960   95237385.3180
  91269171.9360
  23429257.240    23429257.940                   123121575.2450   95938898.5620

  22258927.420    22258925.740                   116971445.6250   91146567.7130

  24913098.280    24913098.160                   130919222.9260  102014973.6780

  25682403.380    25682419.160    25682421.140   134961952.5980  105165224.0210
 100783362.1540
 23  2 16  2 13 30.0000000  0 11G01G03G04G06G07G09G11G17G19G20G30
  25486749.840    25486755.100    25486755.800   133933771.3950  104363997.0400
 100015829.6200
  23156065.600    23156068.700    23156068.280   121686270.8650   94820666.8560
  90869760.8730
  21155845.920    21155845.900    21155849.460   111175070.7410   86630102.8730
  83020438.5850
  20509079.600    20509081.360    20509082.160   107775960.7130   83981284.7260
  80482077.1290
  23102346.860    23102346.640                   121403832.9140   94600480.4450

  20232931.740    20232932.320    20232932.720   106325108.7780   82850854.0420
  79398776.0270
  23239822.500    23239822.660    23239826.740   122126077.3820   95163177.8890
  91198056.5030
  23446632.440    23446633.040                   123212881.8540   96010046.4500

  22273024.300    22273022.560                   117045524.7830   91204291.6820

  24896263.360    24896263.360                   130830755.6700  101946038.1690

  25662940.700    25662956.280    25662958.240   134859677.7080  105085529.9910
 100706988.8660
 23  2 16  2 14  0.0000000  0 11G01G03G04G06G07G09G11G17G19G20G30
  25507918.340    25507923.760    25507924.520   134045012.6110  104450678.3210
 100098899.0790
  23170493.340    23170496.140    23170495.960   121762088.3590   94879745.3950
  90926377.7880
  21167218.360    21167218.300    21167221.820   111234833.3200   86676671.1090
  83065066.4900
  20502286.300    20502288.060    20502288.840   107740261.7440   83953467.3510
  80455418.8150
  23086006.800    23086006.560                   121317964.9170   94533570.3830

  20231746.580    20231747.160    20231747.540   106318880.7570   82846001.0570
  79394125.2510
  23221736.560    23221736.800    23221740.820   122031035.2230   95089119.1150
  91127083.5250
  23464031.540    23464032.100                   123304314.5180   96081292.5590

  22287200.480    22287198.640                   117120020.9670   91262340.6180

  24879423.440    24879423.540                   130742262.2420  101877082.2610

  25643454.220    25643469.640    25643471.420   134757278.3680  105005738.9980
 100630522.6740
 23  2 16  2 14 30.0000000  0 11G01G03G04G06G07G09G11G17G19G20G30
  25529094.060    25529099.460    25529100.060   134156290.2020  104537387.8800
 100181995.6940
  23184944.400    23184946.760    23184947.140   121838028.0650   94938919.1730
  90983085.9590
  21178656.920    21178656.860    21178660.300   111294943.4130   86723510.1330
  83109953.8840
  20495586.020    20495587.780    20495588.520   107705051.5220   83926030.8180
  80429125.4730
  23069702.740    23069702.560                   121232286.3560   94466807.9360

  20230652.340    20230652.900    20230653.240   106313130.4000   82841520.2760
  79389831.1720
  23203687.400    23203687.520    23203691.580   121936186.1680   95015210.7980
  91056254.7350
  23481454.100    23481454.660                   123395870.3260   96152634.6250

  22301455.420    22301453.420                   117194931.1300   91320712.1330

  24862578.580    24862578.700                   130653742.9900  101808106.2600

  25623944.340    25623959.740    25623961.520   134654756.8070  104925852.8350
 100553965.2850
 23  2 16  2 15  0.0000000  0 11G01G03G04G06G07G09G11G17G19G20G30
  25550276.720    25550281.980    25550282.480   134267604.4940  104624126.0270
 100265119.7170
  23199418.980    23199421.240    23199421.880   121914091.8500   94998189.6320
  91039886.7860
  21190161.580    21190161.520    21190165.000   111355401.0010   86770619.9320
  83155100.7720
  20488979.460    20488981.320    20488982.040   107670333.9800   83898978.1950
  80403200.0460
  23053435.580    23053435.420                   121146801.7620   94400196.6250

  20229649.220    20229649.780    20229650.140   106307859.0550   82837412.7510
  79385894.7940
  23185675.780    23185675.960    23185679.980   121841534.7480   94941456.4810
  90985573.5280
  23498899.820    23498900.360                   123487547.8830   96224071.5570

  22315788.900    22315786.800                   117270254.1620   91379405.3680

  24845729.480    24845729.520                   130565200.6720  101739112.1940

  25604412.020    25604427.340    25604429.020   134552095.2961  104845850.8371
 100477319.8780
 23  2 16  2 15 30.0000000  0 11G01G03G04G06G07G09G11G17G19G20G30
  25571464.920    25571470.140    25571470.560   134378948.0490  104710886.9870
 100348265.5880
  23213915.800    23213918.360    23213918.880   121990273.5840   95057551.9810
  91096775.7100
  21201730.840    21201730.800    21201734.420   111416198.1100   86817994.2910
  83200501.1960
  20482465.940    20482467.820    20482468.500   107636105.0520   83872306.3080
  80377639.4930
  23037204.640    23037204.600                   121061508.1270   94333734.1220

  20228736.040    20228736.560    20228737.000   106303060.1570   82833673.3680
  79382311.2160
  23167701.180    23167701.240    23167705.260   121747077.5060   94867853.4920
  90915037.3250
  23516367.240    23516367.680                   123579339.2740   96295597.2080

  22330199.260    22330197.160                   117345981.1070   91438413.3400

  24828874.960    24828875.080                   130476629.7000  101670095.8850

  25584856.540    25584871.760    25584873.500   134449334.1200  104765778.0390
 100400583.6860
 23  2 16  2 16  0.0000000  0 11G01G03G04G06G07G09G11G17G19G20G30
  25592659.300    25592664.780    25592665.060   134490325.4070  104797674.2600
 100431436.6700
  23228436.200    23228439.060    23228439.260   122066579.2820   95117010.9180
  91153757.1730
  21213365.540    21213365.480    21213369.260   111477338.8650   86865636.4330
  83246158.2450
  20476046.920    20476048.800    20476049.460   107602372.7450   83846021.4000
  80352449.7930
  23021011.680    23021011.800                   120976414.5620   94267427.5130

  20227913.800    20227914.320    20227914.780   106298739.1810   82830306.3880
  79379084.5270
  23149765.080    23149765.120    23149769.120   121652823.1110   94794408.5420
  90844652.6050
  23533856.880    23533857.380                   123671247.4010   96367213.8050

  22344687.080    22344685.040                   117422115.0700   91497738.4670

  24812016.380    24812016.480                   130388024.8311  101601057.4911

  25565279.560    25565294.600    25565296.280   134346459.7770  104685617.1250
 100323762.9790
 23  2 16  2 16 30.0000000  0 11G01G03G04G06G07G09G11G17G19G20G30
  25613859.420    25613864.940    25613865.420   134601732.7050  104884484.8640
 100514630.0530
  23242979.880    23242982.640    23242982.680   122143006.4210   95176564.4940
  91210829.3580
  21225064.860    21225064.800    21225068.660   111538818.9970   86913543.0220
  83292068.7150
  20469722.340    20469724.220    20469724.820   107569136.6640   83820123.1650
  80327630.6490
  23004856.860    23004857.040                   120891520.9330   94201276.6950

  20227181.960    20227182.480    20227182.940   106294893.2170   82827309.5410
  79376212.5510
  23131867.780    23131867.720    23131871.660   121558771.8570   94721121.8940
  90774419.5730
  23551367.800    23551368.320                   123763266.9240   96438917.2050

  22359251.300    22359249.320                   117498650.5320   91557376.4540

  24795153.400    24795153.300                   130299408.3560  101532005.7800

  25545681.300    25545695.740    25545697.520   134243472.4360  104605368.1610
 100246857.8970
 23  2 16  2 17  0.0000000  0 11G01G03G04G06G07G09G11G17G19G20G30
  25635064.960    25635070.480    25635070.640   134713166.6620  104971316.2140
 100597843.4200
  23257546.420    23257548.900    23257549.080   122219553.3700   95236211.4400
  91267991.0150
  21236828.080    21236828.060    21236831.880   111600634.8960   86961711.2490
  83338229.9300
  20463492.220    20463494.040    20463494.640   107536397.0890   83794611.8160
  80303182.2710
  22988740.420    22988740.620                   120806829.0600   94135283.0930

  20226540.060    20226540.620    20226541.020   106291520.0180   82824681.0850
  79373693.6150
  23114009.240    23114009.180    23114013.060   121464924.7190   94647994.2990
  90704338.9670
  23568899.140    23568899.740                   123855394.0440   96510704.4460

  22373891.080    22373889.180                   117575582.9580   91617323.7650

  24778285.760    24778285.480                   130210767.4950  101462934.9860

  25526061.380    25526075.500    25526077.300   134140372.6280  104525031.5990
 100169868.9050
 23  2 16  2 17 30.0000000  0 11G01G03G04G06G07G09G11G17G19G20G30
  25656275.600    25656281.280    25656281.480   134824628.6660  105058169.4070
 100681077.6880
  23272136.200    23272138.460    23272139.100   122296222.7550   95295953.7920
  91325244.0800
  21248655.380    21248655.400    21248659.060   111662787.3780   87010141.7460
  83384642.4980
  20457357.480    20457359.180    20457359.860   107504158.6520   83769490.9670
  80279108.1240
  22972663.440    22972663.560                   120722344.1470   94069450.7530

  20225988.500    20225989.160    20225989.500   106288621.7050   82822422.6700
  79371529.3050
  23096190.500    23096190.520    23096194.340   121371287.0500   94575029.9180
  90634414.7880
  23586450.880    23586451.520                   123947628.5370   96582575.3410

  22388606.300    22388604.520                   117652911.9720   91677580.1000

  24761413.880    24761413.820                   130122105.4480  101393847.7790

  25506421.060    25506434.720    25506436.540   134037165.5680  104444611.4880
 100092799.8130
 23  2 16  2 18  0.0000000  0 11G01G03G04G06G07G09G11G17G19G20G30
  25677490.820    25677496.520    25677496.620   134936113.9460  105145040.7390
 100764329.3000
  23286748.700    23286750.880    23286751.820   122373011.1760   95355788.8980
  91382586.0430
  21260545.700    21260545.740    21260549.240   111725271.2000   87058830.4290
  83431302.4830
  20451317.840    20451319.420    20451320.140   107472419.9670   83744759.5300
  80255407.1690
  22956625.760    22956625.720                   120638065.6850   94003779.2850

  20225526.520    20225527.240    20225527.620   106286194.3390   82820531.2270
  79369716.6770
  23078411.500    23078411.560    23078415.320   121277858.2030   94502228.2700
  90564646.5400
  23604021.880    23604022.740                   124039964.2140   96654525.0830

  22403395.820    22403394.080                   117730631.3450   91738140.6120

  24744537.560    24744537.340                   130033419.8090  101324742.1000

  25486760.240    25486773.420    25486775.320   133933850.3390  104364107.0700
 100015649.9850
 23  2 16  2 18 30.0000000  0 11G01G03G04G06G07G09G11G17G19G20G30
  25698710.300    25698716.100    25698716.600   135047622.4620  105231930.1480
 100847598.2030
  23301384.080    23301386.420    23301387.280   122449920.2570   95415718.0110
  91440018.1040
  21272498.980    21272498.980    21272502.380   111788086.0970   87107777.0920
  83478209.7020
  20445374.000    20445375.460    20445376.260   107441184.6030   83720420.2920
  80232082.0720
  22940628.160    22940628.020                   120553998.0110   93938272.0620

  20225154.380    20225155.160    20225155.480   106284238.9980   82819007.5950
  79368256.5350
  23060673.060    23060673.180    23060676.920   121184642.4760   94429592.6840
  90495037.4230
  23621611.920    23621613.080                   124132399.9170   96726552.7710

  22418259.300    22418257.660                   117808739.5780   91799004.1330

  24727657.180    24727656.960                   129944712.7920  101255619.7660

  25467079.580    25467092.440    25467094.300   133830431.1230  104283521.6300
  99938422.4370
 23  2 16  2 19  0.0000000  0 11G01G03G04G06G07G09G11G17G19G20G30
  25719934.360    25719940.300    25719940.900   135159153.8160  105318837.3730
 100930884.2230
  23316042.500    23316045.080    23316045.520   122526950.8840   95475741.8250
  91497540.9300
  21284515.080    21284515.080    21284518.380   111851231.1000   87156980.9800
  83525363.4280
  20439526.420    20439527.800    20439528.720   107410455.4030   83696475.4640
  80209134.9430
  22924671.440    22924671.140                   120470144.8840   93872932.0140

  20224872.120    20224872.940    20224873.200   106282755.9900   82817852.0150
  79367149.1080
  23042975.800    23042976.080    23042979.800   121091643.4380   94357125.9440
  90425590.1540
  23639220.620    23639222.080                   124224933.8450   96798656.9950

  22433196.400    22433194.860                   117887234.6070   91860169.0610

  24710772.940    24710772.920                   129855985.9640  101186481.9780

  25447379.680    25447392.380    25447394.180   133726911.2120  104202857.7460
  99861119.7730
 23  2 16  2 19 30.0000000  0 11G01G03G04G06G07G09G11G17G19G20G30
  25741161.720    25741167.740    25741168.460   135270702.6980  105405758.1560
 101014183.2750
  23330723.440    23330725.960    23330726.000   122604099.1270   95535857.3000
  91555151.6110
  21296592.880    21296592.900    21296596.180   111914700.4460   87206437.6010
  83572759.3640
  20433774.800    20433776.100    20433777.120   107380230.3830   83672923.5050
  80186564.3230
  22908755.320    22908754.900                   120386505.0540   93807758.1720

  20224678.960    20224679.740    20224679.920   106281740.8280   82817060.9880
  79366391.0460
  23025319.640    23025319.900    23025323.700   120998859.9300   94284827.1540
  90356303.8200
  23656846.780    23656848.420                   124317559.6680   96870832.8130

  22448205.840    22448204.440                   117966109.7180   91921630.1550

  24693884.580    24693884.400                   129767236.3710  101117326.5000

  25427660.300    25427672.800    25427674.440   133623289.3300  104122114.3620
  99783740.8810
 23  2 16  2 20  0.0000000  0 11G01G03G04G06G07G09G11G17G19G20G30
  25762391.860    25762398.220    25762399.220   135382267.8560  105492691.6720
 101097494.4870
  23345426.800    23345429.020    23345429.100   122681365.1900   95596064.5920
  91612850.2540
  21308732.080    21308732.140    21308735.360   111978492.4250   87256145.6280
  83620396.2160
  20428119.480    20428120.800    20428121.840   107350511.6020   83649766.0190
  80164371.7390
  22892880.460    22892880.040                   120303082.0930   93742753.3170

  20224574.760    20224575.420    20224575.600   106281193.0400   82816634.1530
  79365981.9990
  23007704.960    23007705.240    23007709.200   120906294.8630   94212698.5760
  90287180.6050
  23674490.000    23674491.520                   124410274.2740   96943077.8200

  22463287.120    22463285.700                   118045361.8830   91983385.0600

  24676992.060    24676991.840                   129678464.8180  101048153.8790

  25407922.080    25407934.360    25407936.080   133519568.0960  104041293.5280
  99706287.8200
 23  2 16  2 20 30.0000000  0 11G01G03G04G06G07G09G11G17G19G20G30
  25783625.980    25783632.280    25783633.640   135493852.3280  105579640.2410
 101180820.0440
  23360153.280    23360155.300    23360155.800   122758753.5310   95656367.1680
  91670640.2050
  21320933.120    21320933.260    21320936.460   112042609.6040   87306107.0560
  83668275.9220
  20422561.680    20422563.020    20422564.100   107321305.4680   83627008.0010
  80142561.9710
  22877048.180    22877047.800                   120219883.1130   93677923.0020

  20224560.160    20224560.740    20224561.080   106281116.5140   82816574.5320
  79365924.8650
  22990133.240    22990133.560    22990137.660   120813955.4270   94140745.8150
  90218225.8950
  23692150.520    23692151.860                   124503080.1580   97015393.9540

  22478440.420    22478438.880                   118124992.7150   92045435.0300

  24660096.240    24660096.080                   129589676.5060  100978968.2200

  25388166.300    25388178.480    25388180.060   133415754.5370  103960400.7670
  99628765.7840
 23  2 16  2 21  0.0000000  0 11G01G03G04G06G07G09G11G17G19G20G30
  25804862.800    25804869.040    25804870.920   135605452.0180  105666600.6310
 101264156.9960
  23374902.540    23374904.500    23374905.380   122836261.4700   95716762.9260
  91728519.4570
  21333195.240    21333195.360    21333198.560   112107047.4900   87356318.3860
  83716395.1120
  20417101.320    20417102.700    20417103.780   107292611.1900   83604648.8280
  80121134.4360
  22861258.460    22861258.160                   120136907.9660   93613267.1010

  20224634.640    20224635.160    20224635.660   106281507.9400   82816879.5520
  79366217.1740
  22972604.500    22972604.880    22972609.040   120721841.6860   94068968.9260
  90149439.7080
  23709827.400    23709828.680                   124595971.8330   97087776.9260

  22493664.700    22493663.020                   118204996.4260   92107775.5490

  24643196.880    24643196.620                   129500869.8770  100909768.2620

  25368392.820    25368404.940    25368406.420   133311848.4970  103879435.8810
  99551174.6810
 23  2 16  2 21 30.0000000  0 11G01G03G04G06G07G09G11G17G19G20G30
  25826102.360    25826108.340    25826110.580   135717082.8051  105753594.1821
 101347503.6710
  23389674.380    23389676.420    23389677.420   122913888.2390   95777251.2750
  91786487.4620
  21345517.880    21345518.020    21345521.280   112171803.4190   87406777.5370
  83764751.8010
  20411738.560    20411740.000    20411741.000   107264429.8510   83582689.3510
  80100089.9400
  22845511.780    22845511.540                   120054159.1480   93548787.5490

  20224797.900    20224798.420    20224799.060   106282365.9140   82817548.1150
  79366857.8760
  22955119.180    22955119.540    22955123.680   120629955.5990   93997369.4220
  90080823.5210
  23727519.860    23727521.060                   124688946.0360   97160224.1930

  22508959.240    22508957.460                   118285369.3400   92170403.7550

  24626294.200    24626293.720                   129412044.9320  100840554.0300

  25348602.140    25348614.200    25348615.420   133207851.8020  103798400.3950
  99473515.8080
 23  2 16  2 22  0.0000000  0 11G01G03G04G06G07G09G11G17G19G20G30
  25847343.520    25847349.720    25847351.400   135828706.0591  105840573.0601
 101430857.4960
  23404468.480    23404470.540    23404471.480   122991631.5070   95837830.4020
  91844542.4410
  21357900.260    21357900.380    21357903.780   112236873.1760   87457481.2350
  83813342.8450
  20406473.340    20406474.820    20406475.720   107236760.9830   83561129.2000
  80079428.1340
  22829808.180    22829807.980                   119971636.6960   93484484.3910

  20225049.340    20225049.920    20225050.720   106283687.4080   82818577.8590
  79367844.7140
  22937677.220    22937677.520    22937681.660   120538297.5310   93925947.5960
  90012377.6160
  23745227.000    23745228.180                   124781997.0220   97232731.2970

  22524322.940    22524321.180                   118366105.8970   92233315.3210

  24609387.420    24609387.080                   129323199.8470  100771324.1260

  25328794.420    25328806.220    25328807.320   133103764.5970  103717294.4010
  99395789.3760
 23  2 16  2 22 30.0000000  0 11G01G03G04G06G07G09G11G17G19G20G30
  25868586.980    25868592.940    25868594.860   135940339.0960  105927559.4690
 101514219.2750
  23419285.180    23419287.280    23419288.140   123069493.9150   95898502.3710
  91902686.4190
  21370342.520    21370342.540    21370346.120   112302257.5650   87508430.1030
  83862168.8340
  20401306.460    20401308.020    20401308.860   107209609.0720   83539971.8750
  80059152.3680
  22814148.720    22814148.580                   119889346.3380   93420362.0830

  20225389.360    20225390.020    20225390.920   106285474.4620   82819970.3770
  79369179.2080
  22920279.780    22920279.940    22920284.100   120446872.9490   93854707.7010
  89944106.0610
  23762948.920    23762950.040                   124875125.3740   97305298.6860

  22539755.780    22539754.060                   118447205.9190   92296510.1030

  24592477.660    24592477.320                   129234338.3510  100702081.3980

  25308970.440    25308981.800    25308983.080   132999592.1770  103636121.9340
  99317999.3130
 23  2 16  2 23  0.0000000  0 11G01G03G04G06G07G09G11G17G19G20G30
  25889831.600    25889837.800    25889839.180   136051978.1730  106014550.4480
 101597585.5590
  23434123.880    23434125.980    23434126.920   123147472.1280   95959264.5860
  91960916.8570
  21382843.660    21382843.560    21382847.360   112367951.3330   87559620.0470
  83911225.8570
  20396237.660    20396239.260    20396240.040   107182972.5610   83519216.1580
  80039261.4770
  22798533.380    22798533.320                   119807287.4850   93356420.1710

  20225817.220    20225817.960    20225818.780   106287722.9680   82821722.4680
  79370858.2990
  22902926.620    22902926.660    22902930.820   120355681.1880   93783649.2310
  89876008.3610
  23780684.300    23780685.520                   124968324.9730   97377921.5930

  22555256.560    22555254.940                   118528662.9570   92359983.0760

  24575563.940    24575563.700                   129145457.4350  100632823.5860

  25289130.000    25289140.960    25289142.620   132895333.7340  103554882.3920
  99240145.0050
 23  2 16  2 23 30.0000000  0 11G01G03G04G06G07G09G11G17G19G20G30
  25911077.900    25911083.880    25911085.560   136163624.9380  106101547.3720
 101680957.4540
  23448985.100    23448987.420    23448988.540   123225569.5690   96020119.7000
  92019236.3210
  21395403.920    21395403.800    21395407.760   112433956.0340   87611052.2750
  83960515.0700
  20391267.940    20391269.580    20391270.260   107156856.7050   83498866.1470
  80019759.3870
  22782963.360    22782963.320                   119725466.5120   93292663.6160

  20226333.440    20226334.220    20226334.880   106290435.7200   82823836.3080
  79372884.0670
  22885618.980    22885618.880    22885623.040   120264728.4820   93712777.0230
  89808089.1700
  23798433.280    23798434.560                   125061596.1500   97450600.2610

  22570825.320    22570823.760                   118610477.3330   92423734.4950

  24558647.420    24558647.480                   129056561.9780  100563554.4460

  25269274.420    25269285.180    25269286.620   132790995.2570  103473580.5890
  99162230.9270
 23  2 16  2 24  0.0000000  0 11G01G03G04G06G07G09G11G17G19G20G30
  25932325.340    25932331.000    25932332.980   136275286.5461  106188557.8981
 101764333.8470
  23463868.960    23463871.480    23463872.740   123303784.9760   96081066.7370
  92077643.8860
  21408022.780    21408022.680    21408026.720   112500268.5670   87662724.3710
  84010034.1520
  20386397.420    20386399.060    20386399.720   107131262.0630   83478922.2800
  80000646.5130
  22767438.920    22767438.820                   119643884.9420   93229093.6130

  20226937.640    20226938.440    20226938.880   106293610.7520   82826310.3690
  79375255.0410
  22868357.020    22868356.900    22868361.080   120174016.2780   93642092.2300
  89740349.5800
  23816195.280    23816196.580                   125154935.7440   97523332.2510

  22586461.280    22586459.640                   118692644.8150   92487761.0590

  24541728.040    24541728.140                   128967650.9370  100494273.1240

  25249403.940    25249414.320    25249415.600   132686578.1460  103392217.4750
  99084258.0930
 23  2 16  2 24 30.0000000  0 11G01G03G04G06G07G09G11G17G19G20G30
  25953573.260    25953579.120    25953581.240
 101847712.7870
  23478775.260    23478777.980    23478779.180   123382117.9110   96142105.3620
  92136139.2270
  21420699.780    21420699.700    21420703.720   112566886.6490   87714634.5590
  84059781.4070
  20381626.340    20381627.960    20381628.640   107106189.9260   83459385.5560
  79981923.8270
  22751960.400    22751960.240                   119562544.9890   93165711.8820

  20227629.620    20227630.360    20227630.620   106297246.8950   82829143.7380
  79377970.3560
  22851141.300    22851141.200    22851145.360   120083546.9280   93571596.6630
  89672791.3460
  23833969.680    23833971.060                   125248340.1100   97596114.7230

  22602163.740    22602162.100                   118775161.9570   92552060.0880

  24524805.920    24524806.100                   128878725.0350  100424980.2660

  25229518.740    25229528.900    25229530.040   132582084.4640  103310794.6640
  99006228.1250
 23  2 16  2 25  0.0000000  0 11G01G03G04G06G07G09G11G17G19G20G30
  25974821.900    25974827.620    25974830.020   136498605.2221  106362572.2721
 101931093.5140
  23493703.760    23493706.900    23493707.780   123460568.4280   96203235.5960
  92194722.3620
  21433434.600    21433434.480    21433438.380   112633808.3830   87766781.3540
  84109755.4130
  20376955.080    20376956.640    20376957.340   107081642.1210   83440257.4010
  79963592.6790
  22736528.380    22736528.140                   119481449.3710   93102520.5530

  20228409.160    20228409.840    20228410.040   106301343.4550   82832335.8710
  79381029.4870
  22833972.220    22833972.240    22833976.400   119993323.2290   93501292.5230
  89605416.5570
  23851756.020    23851757.400                   125341807.1120   97668945.9810

  22617932.160    22617930.520                   118858025.5450   92616629.0640

  24507881.160    24507881.500                   128789785.1260  100355676.4880

  25209619.520    25209629.740    25209630.520   132477516.8920  103229314.3030
  98928142.9850
 23  2 16  2 25 30.0000000  0 11G01G03G04G06G07G09G11G17G19G20G30
  25996070.060    25996076.240    25996078.700
 102014474.0470
  23508654.440    23508657.960    23508658.500   123539135.6830   96264456.7860
  92253392.6640
  21446226.640    21446226.560    21446230.240   112701031.0440   87819162.6340
  84159954.1500
  20372383.780    20372385.260    20372386.060   107057619.4990   83421538.4780
  79945653.7120
  22721143.260    22721142.960                   119400600.3480   93039521.3650

  20229276.060    20229276.580    20229276.880   106305898.8010   82835885.4990
  79384431.2220
  22816850.220    22816850.340    22816854.500   119903347.0690   93431181.2640
  89538226.6100
  23869553.540    23869554.960                   125435332.8490   97741823.0110

  22633765.820    22633764.200                   118941231.4980   92681464.8310

  24490953.700    24490954.140                   128700831.3460  100286361.8440

  25189706.660    25189716.620    25189717.040   132372877.1460  103147777.7130
  98850003.8820
 23  2 16  2 26  0.0000000  0 11G01G03G04G06G07G09G11G17G19G20G30
  26017319.160    26017326.320    26017326.960
 102097854.6660
  23523627.720    23523631.260    23523631.600   123617820.7140   96325769.7630
  92312150.9280
  21459075.840    21459075.780    21459079.180   112768553.8800   87871777.8180
  84210377.0290
  20367912.940    20367914.380    20367915.300   107034124.8740   83403230.9820
  79928109.0360
  22705805.780    22705805.420                   119320001.4720   92976717.1060

  20230230.280    20230230.700    20230231.180   106310913.2820   82839792.8970
  79388175.8120
  22799776.080    22799776.200    22799780.400   119813622.2830   93361265.8900
  89471224.3920
  23887361.820    23887363.280                   125528915.6000   97814744.4630

  22649664.200    22649662.700                   119024777.9890   92746565.9520

  24474023.980    24474024.640                   128611865.3430  100217037.7230

  25169780.620    25169790.400    25169790.620   132268168.8040  103066187.6400
  98771813.6400
 23  2 16  2 26 30.0000000  0 11G01G03G04G06G07G09G11G17G19G20G30
                                  26038573.480
 102181226.9620
  23538621.640    23538624.900    23538625.260   123696613.1450   96387166.4410
  92370989.3950
  21471979.800    21471979.760    21471983.020   112836364.6000   87924617.3240
  84261014.8930
  20363540.880    20363542.340    20363543.320   107011149.5590   83385328.1400
  79910952.1400
  22690514.440    22690514.100                   119239645.3820   92914102.0040

  20231269.740    20231270.140    20231270.740   106316375.7050   82844049.3410
  79392254.9040
  22782748.420    22782748.400    22782752.600   119724141.2520   93291540.4440
  89404404.1850
  23905178.600    23905180.060                   125622542.5700   97887700.3800

  22665624.840    22665623.440                   119108651.6390   92811921.9980

  24457090.300    24457090.540                   128522877.6760  100147696.6810

  25149840.100    25149849.800    25149849.900   132163384.2450  102984538.1870
  98693566.3940
 23  2 16  2 27  0.0000000  0 10G03G04G06G07G09G11G17G19G20G30
  23553639.140    23553642.200    23553642.680   123775529.4130   96448659.6150
  92429920.3410
  21484941.280    21484941.320    21484944.480   112904477.7900   87977692.5220
  84311878.6230
  20359271.120    20359272.560    20359273.540   106988711.6690   83367844.0740
  79894196.5780
  22675273.100    22675272.660                   119159551.3820   92851691.1440

  20232397.440    20232397.800    20232398.540   106322301.7430   82848667.0450
  79396680.2100
  22765770.760    22765770.660    22765774.800   119634923.1890   93222019.9100
  89337780.3550
  23923006.480    23923007.820                   125716227.6270   97960701.5310

  22681650.360    22681648.940                   119192865.7900   92877543.3650

  24440155.840    24440155.620                   128433885.4370  100078352.0810

  25129888.780    25129898.140    25129898.200   132058542.3910  102902844.0300
  98615276.3350
 23  2 16  2 27 30.0000000  0 10G03G04G06G07G09G11G17G19G20G30
  23568678.100    23568680.960    23568681.600   123854558.3200   96510240.5360
  92488935.3790
  21497957.820    21497957.920    21497961.160   112972880.3240   88030993.1820
  84362958.4290
  20355101.800    20355103.240    20355104.220   106966801.6610   83350771.3400
  79877835.2080
  22660080.000    22660079.400                   119079710.7030   92789477.6690

  20233611.060    20233611.460    20233612.260   106328679.3770   82853636.6410
  79401442.7370
  22748841.560    22748841.340    22748845.420   119545959.6630   93152697.7250
  89271346.5990
  23940842.800    23940844.120                   125809957.0860   98033737.3030

  22697737.940    22697736.560                   119277406.1890   92943418.9510

  24423218.580    24423218.140                   128344878.7440  100008996.2410

  25109924.920    25109934.100    25109934.260   131953634.6050  102821098.5280
  98536937.0640
 23  2 16  2 28  0.0000000  0 10G03G04G06G07G09G11G17G19G20G30
  23583739.240    23583741.920    23583742.620   123933704.1670   96571912.5880
  92548037.7520
  21511029.940    21511030.020    21511033.380   113041574.6230   88084521.1930
  84414256.1050
  20351034.040    20351035.520    20351036.420   106945425.4110   83334114.5240
  79861872.4330
  22644936.460    22644935.680                   119000130.5380   92727467.1970

  20234911.240    20234911.720    20234912.500   106335512.0370   82858960.8040
  79406545.0600
  22731962.040    22731961.860    22731965.820   119457257.6810   93083579.3320
  89205108.1450
  23958687.680    23958689.160                   125903731.9930   98106808.4730

  22713887.820    22713886.440                   119362273.7870   93009549.4980

  24406279.340    24406278.800                   128255862.3550   99939632.8480

  25089949.740    25089958.760    25089959.000   131848667.7750  102739306.9770
  98458553.6870
 23  2 16  2 28 30.0000000  0 10G03G04G06G07G09G11G17G19G20G30
  23598822.240    23598824.720    23598825.180   124012965.1160   96633674.3320
  92607226.0910
  21524156.940    21524156.900    21524160.380   113110557.1320   88138273.7940
  84465769.0000
  20347067.800    20347069.320    20347070.160   106924582.9030   83317873.6150
  79846308.2260
  22629842.560    22629841.640                   118920811.5600   92665660.2410

  20236297.540    20236298.100    20236298.840   106342797.2720   82864637.6180
  79411985.3360
  22715132.560    22715132.400    22715136.280   119368818.3270   93014665.5820
  89139065.8150
  23976540.400    23976542.020                   125997548.3600   98179911.9530

  22730098.920    22730097.560                   119447463.7980   93075931.2780

  24389338.060    24389337.420                   128166835.4070   99870261.2330

  25069963.500    25069972.380    25069972.660   131743642.8780  102657470.1580
  98380126.8980
 23  2 16  2 29  0.0000000  0 10G03G04G06G07G09G11G17G19G20G30
  23613926.780    23613928.940    23613929.180   124092339.1260   96695524.1790
  92666498.8540
  21537338.000    21537337.880    21537341.400   113179823.8390   88192247.8470
  84517494.1380
  20343203.000    20343204.600    20343205.380   106904273.5910   83302048.1770
  79831142.1910
  22614798.540    22614797.580                   118841754.8670   92604057.6680

  20237769.400    20237769.980    20237770.700   106350532.0460   82870664.7180
  79417761.3090
  22698353.220    22698353.040    22698356.900   119280642.2710   92945957.0060
  89073220.0970
  23994400.260    23994401.780                   126091401.3070   98253043.9490

  22746370.400    22746369.020                   119532970.9260   93142560.1620

  24372394.540    24372394.000                   128077796.8740   99800880.5780

  25049966.460    25049974.940    25049975.520   131638560.4270  102575588.4600
  98301657.1140
 23  2 16  2 29 30.0000000  0 10G03G04G06G07G09G11G17G19G20G30
  23629053.220    23629055.240    23629055.560   124171828.9050   96757464.2400
  92725858.0830
  21550573.260    21550573.140    21550576.680   113249375.6180   88246444.0320
  84569432.1470
  20339440.500    20339442.180    20339442.860   106884501.8490   83286641.6330
  79816377.5800
  22599805.440    22599804.560                   118762965.9390   92542663.7650

  20239327.200    20239327.780    20239328.440   106358718.3000   82877043.6240
  79423874.4260
  22681625.020    22681624.920    22681628.720   119192735.0130   92877457.8830
  89007575.1140
  24012267.040    24012268.620                   126185291.2970   98326204.7880

  22762702.160    22762700.780                   119618794.9250   93209435.9500

  24355449.560    24355449.080                   127988750.2790   99731493.6420

  25029959.520    25029967.760    25029968.280   131533425.7330  102493666.0700
  98223148.2840
 23  2 16  2 30  0.0000000  0 10G03G04G06G07G09G11G17G19G20G30
  23644201.600    23644203.800    23644204.140   124251434.7130   96819494.7010
  92785303.9350
  21563862.400    21563862.340    21563866.000   113319210.8120   88300861.0560
  84621581.7980
  20335780.620    20335782.360    20335782.980   106865269.4510   83271655.3510
  79802015.7310
  22584863.840    22584863.100                   118684447.7270   92481480.7900

  20240970.780    20240971.340    20240971.940   106367355.3870   82883773.8280
  79430324.2060
  22664948.560    22664948.460    22664952.260   119105099.5640   92809170.5610
  88942133.1000
  24030140.360    24030141.880                   126279215.5970   98399392.3640

  22779093.660    22779092.200                   119704932.7080   93276556.2550

  24338503.200    24338502.960                   127899696.8110   99662101.3740

  25009943.240    25009951.280    25009951.820   131428241.6600  102411705.1320
  98144602.5800
 23  2 16  2 30 30.0000000  0 10G03G04G06G07G09G11G17G19G20G30
  23659371.160    23659373.640    23659373.740   124331151.7360   96881611.8080
  92844832.8340
  21577204.240    21577204.180    21577208.020   113389322.7830   88355493.7500
  84673938.1230
  20332222.800    20332224.560    20332225.100   106846573.1180   83257086.7810
  79788054.1930
  22569973.320    22569972.720                   118606197.8810   92420506.9370

  20242699.040    20242699.560    20242700.160   106376437.6280   82890850.9050
  79437106.4070
  22648323.380    22648323.320    22648327.120   119017733.9080   92741093.4640
  88876892.5490
  24048018.820    24048020.420                   126373166.9100   98472600.9870

  22795543.400    22795541.880                   119791376.5670   93343915.0650

  24321554.800    24321554.540                   127810632.5890   99592700.7310

  24989917.020    24989924.960    24989925.520   131323006.0570  102329704.0590
  98066018.3460
 23  2 16  2 31  0.0000000  0 10G03G04G06G07G09G11G17G19G20G30
  23674563.160    23674565.700    23674565.560   124410986.1660   96943820.4180
  92904449.4180
  21590599.560    21590599.520    21590603.500   113459715.8750   88410345.5020
  84726504.3730
  20328768.540    20328770.280    20328770.760   106828420.6590   83242942.0150
  79774498.7880
  22555135.640    22555135.080                   118528225.3840   92359749.1940

  20244513.040    20244513.480    20244514.140   106385970.4020   82898279.0490
  79444225.0460
  22631751.280    22631751.240    22631755.020   118930647.0500   92673233.6140
  88811860.2060
  24065903.020    24065904.720                   126467148.7210   98545833.3400

  22812051.900    22812050.380                   119878129.3650   93411514.5930

  24304605.680    24304605.520                   127721564.6220   99523297.1410

  24969882.720    24969890.500    24969891.160   131217727.7590  102247669.7020
  97987402.2400
 23  2 16  2 31 30.0000000  0 10G03G04G06G07G09G11G17G19G20G30
  23689776.200    23689778.620    23689778.360   124490930.4610   97006114.6430
  92964148.0410
  21604046.600    21604046.660    21604050.560   113530380.6810   88465408.9730
  84779273.5290
  20325416.640    20325418.360    20325418.760   106810806.0060   83229216.3110
  79761344.9900
  22540349.900    22540349.340                   118450525.6250   92299203.9740

  20246411.160    20246411.520    20246412.220   106395945.1980   82906051.6270
  79451673.7580
  22615231.280    22615231.340    22615235.000   118843834.2240   92605587.2990
  88747032.4820
  24083791.120    24083792.900                   126561150.8640   98619081.5760

  22828617.140    22828615.660                   119965180.3880   93479346.5120

  24287654.580    24287654.560                   127632486.3820   99453885.5640

  24949839.400    24949847.100    24949847.760   131112401.9160  102165598.2690
  97908750.5780
 23  2 16  2 32  0.0000000  0 10G03G04G06G07G09G11G17G19G20G30
  23705011.220    23705013.660    23705013.460   124570990.9630   97068499.4150
  93023933.4440
  21617546.200    21617546.400    21617550.180   113601321.7000   88520687.6750
  84832248.9410
  20322168.580    20322170.280    20322170.700   106793737.0210   83215915.8050
  79748598.6760
  22525617.680    22525617.180                   118373107.4910   92238878.1970

  20248394.460    20248394.760    20248395.500   106406367.5120   82914172.9210
  79459456.6640
  22598765.220    22598765.260    22598768.920   118757304.5980   92538161.6540
  88682416.2510
  24101683.860    24101685.740                   126655176.8490   98692348.3560

  22845239.780    22845238.420                   120052533.0170   93547413.4540

  24270702.960    24270703.100                   127543404.8780   99384471.4710

  24929788.580    24929796.260    24929796.920   131007037.4670  102083496.7440
  97830070.0910
 23  2 16  2 32 30.0000000  0 10G03G04G06G07G09G11G17G19G20G30
  23720267.740    23720270.220    23720270.180   124651164.8400   97130972.5310
  93083803.5010
  21631097.460    21631097.800    21631101.420   113672534.2280   88576177.9420
  84885427.1220
  20319024.060    20319025.720    20319026.340   106777212.3800   83203039.4640
  79736258.8490
  22510939.100    22510938.620                   118295970.9040   92178771.8080

  20250462.220    20250462.520    20250463.220   106417233.6200   82922640.0240
  79467570.9690
  22582353.000    22582353.000    22582356.680   118671058.0750   92470956.6170
  88618011.4350
  24119580.240    24119582.020                   126749221.8570   98765629.9800

  22861918.720    22861917.460                   120140181.2910   93615710.7640

  24253750.280    24253750.340                   127454318.3300   99315053.4000

  24909730.640    24909738.060    24909738.700   130901634.3070  102001365.0150
  97751360.6570
 23  2 16  2 33  0.0000000  0 10G03G04G06G07G09G11G17G19G20G30
  23735545.640    23735548.080    23735548.260   124731450.7490   97193532.9470
  93143757.2270
  21644699.820    21644700.220    21644703.740   113744015.1120   88631877.3160
  84938805.6810
  20315983.140    20315984.760    20315985.600   106761232.1930   83190587.3700
  79724325.5860
  22496314.260    22496313.840                   118219117.1790   92118885.8380

  20252614.000    20252614.340    20252614.960   106428541.2210   82931451.1500
  79476014.9650
  22565994.980    22565994.980    22565998.620   118585096.3210   92403973.4700
  88553819.2530
  24137479.240    24137480.980                   126843281.2140   98838922.7710

  22878653.020    22878651.840                   120228120.5230   93684234.7980

  24236796.700    24236796.760                   127365226.6050   99245631.3360

  24889665.560    24889672.820    24889673.300   130796193.7620  101919204.1480
  97672623.2680
 23  2 16  2 33 30.0000000  0 10G03G04G06G07G09G11G17G19G20G30
  23750843.320    23750845.760    23750846.240   124811840.6240   97256174.3770
  93203788.5920
  21658351.380    21658351.740    21658355.180   113815754.3970   88687778.0390
  84992377.2210
  20313044.580    20313046.100    20313047.180   106745789.8460   83178554.3760
  79712793.9730
  22481742.180    22481741.800                   118142540.9000   92059216.0570

  20254848.060    20254848.440    20254849.020   106440281.3380   82940599.2970
  79484781.9480
  22549689.980    22549690.060    22549693.700   118499413.7530   92337207.8780
  88489835.5650
  24155379.020    24155380.760                   126937344.8010   98912218.8470

  22895440.580    22895439.540                   120316339.5910   93752976.8840

  24219840.700    24219840.620                   127276122.4080   99176199.5180

  24869592.340    24869599.300    24869599.700   130690710.3070  101837009.8340
  97593853.8820
 23  2 16  2 34  0.0000000  0 10G03G04G06G07G09G11G17G19G20G30
  23766163.800    23766166.480    23766167.140   124892350.8020   97318909.5400
  93263909.7540
  21672054.920    21672055.140    21672058.520   113887766.5940   88743891.4270
  85046152.5430
  20310211.740    20310213.160    20310214.480   106730903.0760   83166954.3000
  79701677.2320
  22467226.520    22467226.180                   118066261.1690   91999777.3530

  20257167.340    20257167.740    20257168.340   106452469.3580   82950096.4640
  79493883.3970
  22533441.880    22533441.860    22533445.660   118414029.5710   92270674.7870
  88426074.6930
  24173282.360    24173284.060                   127031426.5340   98985529.0860

  22912283.960    22912282.920                   120404851.6990   93821947.3120

  24202885.600    24202885.540                   127187023.0130   99106771.4560

  24849514.760    24849521.380    24849521.620   130585203.1390  101754797.0150
  97515066.6840
 23  2 16  2 34 30.0000000  0 10G03G04G06G07G09G11G17G19G20G30
  23781505.340    23781508.200    23781508.940   124972971.5750   97381730.8910
  93324113.5530
  21685808.140    21685808.260    21685811.620   113960040.1850   88800208.5000
  85100123.0720
  20307483.060    20307484.420    20307485.780   106716563.6610   83155780.7280
  79690969.2270
  22452766.020    22452765.680                   117990271.0100   91940564.2850

  20259569.800    20259570.280    20259570.880   106465094.6700   82959934.3730
  79503311.3930
  22517249.260    22517249.120    22517253.140   118328936.9660   92204368.8930
  88362531.5530
  24191186.700    24191188.580                   127125513.7030   99058843.5180

  22929180.660    22929179.500                   120493643.9020   93891135.9890

  24185929.680    24185929.700                   127097919.7200   99037340.3670

  24829431.260    24829437.620    24829437.780   130479665.1300  101672560.1620
  97436256.4680
 23  2 16  2 35  0.0000000  0 10G03G04G06G07G09G11G17G19G20G30
  23796868.880    23796871.740    23796872.380   125053707.2910   97444641.8120
  93384403.1920
  21699611.560    21699611.560    21699614.920   114032577.6700   88856731.2020
  85154290.6530
  20304859.580    20304860.900    20304862.200   106702777.2860   83145038.0980
  79680674.2200
  22438361.960    22438361.660                   117914577.3010   91881582.2210

  20262056.160    20262056.680    20262057.240   106478160.6610   82970115.6690
  79513068.4730
  22501113.560    22501113.300    22501117.440   118244143.0770   92138295.7660
  88299211.4900
  24209092.380    24209094.260                   127219608.0750   99132163.5690

  22946130.880    22946129.580                   120582717.3030   93960543.7900

  24168974.140    24168974.020                   127008817.8840   98967910.4230

  24809343.120    24809349.360    24809349.540   130373978.3791  101590137.7631
  97357428.5070
 23  2 16  2 35 30.0000000  0 10G03G04G06G07G09G11G17G19G20G30
  23812253.200    23812255.880    23812256.540   125134551.5690   97507637.3370
  93444773.8930
  21713463.640    21713463.580    21713466.920   114105370.7870   88913453.1010
  85208649.1450
  20302340.400    20302341.720    20302342.840   106689538.9550   83134722.5150
  79670788.4600
  22424013.580    22424013.400                   117839176.4650   91822828.3660

  20264625.000    20264625.520    20264626.060   106491659.9250   82980634.5800
  79523149.1020
  22485034.000    22485033.620    22485037.940   118159644.2950   92072452.5980
  88236111.8000
  24226997.760    24226999.660                   127313700.6860   99205482.2430

  22963132.820    22963131.300                   120672062.5830   94030163.4320

  24152017.700    24152017.580                   126919711.9110   98898477.2410

  24789249.720    24789255.900    24789256.120   130268389.0560  101507860.8930
  97278579.9790
 23  2 16  2 36  0.0000000  0 10G03G04G06G07G09G11G17G19G20G30
  23827659.020    23827661.940    23827662.660   125215509.9170   97570721.7330
  93505229.7460
  21727365.060    21727365.040    21727368.400   114178423.2580   88970377.0960
  85263201.3090
  20299926.840    20299928.160    20299929.060   106676855.5170   83124839.3150
  79661317.0630
  22409722.420    22409722.360                   117764076.3980   91764308.8790

  20267277.180    20267277.680    20267278.220   106505597.0230   82991494.6610
  79533556.6820
  22469012.160    22469011.680    22469016.220   118075448.9600   92006845.8700
  88173238.7050
  24244903.380    24244905.320                   127407793.8670   99278801.3650

  22980186.900    22980185.300                   120761681.9710   94099996.6620

  24135061.700    24135061.540                   126830608.2490   98829045.8350

  24769152.720    24769159.000    24769159.040   130162780.5870  101425569.0690
  97199717.0280
 23  2 16  2 36 30.0000000  0 10G03G04G06G07G09G11G17G19G20G30
  23843085.660    23843088.880    23843089.580   125296577.5680   97633891.2840
  93565767.2120
  21741314.500    21741314.640    21741318.100   114251728.5140   89027498.0540
  85317942.2220
  20297618.240    20297619.540    20297620.260   106664723.5560   83115385.8370
  79652257.4760
  22395488.080    22395488.100                   117689275.1280   91706022.2210

  20270011.600    20270012.080    20270012.620   106519966.2150   83002691.4360
  79544286.9180
  22453047.640    22453047.120    22453051.840   117991555.0780   91941474.0550
  88110590.7190
  24262807.900    24262809.900                   127501881.9530   99352116.4910

  22997291.680    22997290.080                   120851567.5470   94170037.3240

  24118105.500    24118105.040                   126741503.2290   98759613.3830

  24749051.640    24749057.880    24749057.900   130057150.5900  101343260.4680
  97120838.1270
