     2.11           OBSERVATION DATA    M (MIXED)           RINEX VERSION / TYPE
Mdb2Rinex 5.6.29X   Unknown             20230311 112522 UTC PGM / RUN BY / DATE
gfzrnx-1.15-8044    HEADER EDIT         20230212 041007 UTC COMMENT
SNR is mapped to RINEX snr flag value [1-9]                 COMMENT
LX:     < 12dBHz -> 1; 12-17dBHz -> 2; 18-23dBHz -> 3       COMMENT
       24-29dBHz -> 4; 30-35dBHz -> 5; 36-41dBHz -> 6       COMMENT
       42-47dBHz -> 7; 48-53dBHz -> 8; >= 54dBHz -> 9       COMMENT
Map of observations from RINEX 3 to RINEX 2.11              COMMENT
 G: C1C->C1 C2W->P2 C5Q->C5 L1C->L1 L2W->L2 L5Q->L5         COMMENT
TERU                                                        MARKER NAME
IGN-E               Unknown                                 OBSERVER / AGENCY
1871623             LEICA GR50          4.61/7.811          REC # / TYPE / VERS
23349044            LEIAR20         LEIM                    ANT # / TYPE
  4867391.6750   -95523.9180  4108341.2560                  APPROX POSITION XYZ
        0.0600        0.0000        0.0000                  ANTENNA: DELTA H/E/N
     6    C1    P2    C5    L1    L2    L5                  # / TYPES OF OBSERV
    30.000                                                  INTERVAL
  2023    02    11    00    00   00.0000000     GPS         TIME OF FIRST OBS
  2023    02    11    23    59   30.0000000     GPS         TIME OF LAST OBS
    30                                                      # OF SATELLITES
   G01   886   886   887   881   881   887                  PRN / # OF OBS
   G02  1073  1069        1070  1067                        PRN / # OF OBS
   G03   825   822   825   820   819   825                  PRN / # OF OBS
   G04   744   736   762   734   732   762                  PRN / # OF OBS
   G05   904   901         892   892                        PRN / # OF OBS
   G06   918   917   948   903   903   948                  PRN / # OF OBS
   G07  1021  1011        1017  1008                        PRN / # OF OBS
   G08   858   858   861   855   855   861                  PRN / # OF OBS
   G09   818   818   826   812   812   826                  PRN / # OF OBS
   G10  1041  1041  1036  1041  1041  1036                  PRN / # OF OBS
   G11   994   990  1011   988   986  1011                  PRN / # OF OBS
   G12   814   812         807   807                        PRN / # OF OBS
   G13   876   872         874   871                        PRN / # OF OBS
   G14  1086  1084  1091  1076  1075  1091                  PRN / # OF OBS
   G15   812   812         812   812                        PRN / # OF OBS
   G16   852   829         831   820                        PRN / # OF OBS
   G17  1026  1026        1017  1017                        PRN / # OF OBS
   G18   972   969   943   963   960   943                  PRN / # OF OBS
   G19  1052  1041        1040  1032                        PRN / # OF OBS
   G20   844   819         822   809                        PRN / # OF OBS
   G21   918   917         917   917                        PRN / # OF OBS
   G23  1082  1072  1058  1079  1070  1058                  PRN / # OF OBS
   G24   866   866   870   862   862   870                  PRN / # OF OBS
   G25   823   821   832   818   818   832                  PRN / # OF OBS
   G26   797   796   799   794   794   799                  PRN / # OF OBS
   G27   873   873   881   870   870   881                  PRN / # OF OBS
   G29   778   778         771   771                        PRN / # OF OBS
   G30   753   753   772   748   748   772                  PRN / # OF OBS
   G31   920   917         903   903                        PRN / # OF OBS
   G32  1048  1041  1055  1040  1037  1055                  PRN / # OF OBS
                                                            END OF HEADER
 23  2 11  0  0  0.0000000  0 10G01G03G04G08G09G14G17G19G21G31
  20535081.120    20535081.820    20535082.120   107912752.7760   84087957.7890
  80584329.0570
  20342071.060    20342071.100    20342072.520   106898467.2160   83297628.8330
  79827022.4330
  21996392.120    21996391.740    21996396.940   115592132.7840   90071896.8670
  86318938.1450
  25304936.140    25304943.760    25304949.160   132978289.0140  103619458.0730
  99302083.8750
  24536448.540    24536454.760    24536455.820   128939997.9890  100472806.6730
  96286483.4860
  24726744.220    24726744.960    24726750.500   129939896.4340  101251860.8770
  97033063.6110
  21576382.860    21576380.300                   113384678.6610   88351698.3190

  23247201.440    23247197.760                   122164862.6710   95193387.9510

  22217505.460    22217502.600                   116753993.7600   90977261.2580

  24545571.860    24545570.720                   128987851.2800  100510004.7390

 23  2 11  0  0 30.0000000  0 10G01G03G04G08G09G14G17G19G21G31
  20541859.980    20541860.720    20541860.920   107948375.9860   84115716.1200
  80610930.7860
  20342919.960    20342920.040    20342921.480   106902928.3520   83301105.0410
  79830353.7950
  21979405.820    21979405.400    21979410.700   115502869.2250   90002340.8760
  86252280.3280
  25326072.100    25326079.940    25326085.720   133089354.0130  103706000.9590
  99385020.4720
  24514673.420    24514679.240    24514680.580   128825570.5620  100383642.9860
  96201035.0690
  24740957.060    24740957.660    24740963.340   130014585.1000  101310059.7210
  97088837.4500
  21568172.520    21568169.980                   113341533.3280   88318078.5810

  23228971.900    23228968.340                   122069065.9040   95118741.1380

  22227590.880    22227588.080                   116806993.2020   91018559.5040

  24538852.260    24538851.080                   128952539.5390  100482489.1670

 23  2 11  0  1  0.0000000  0 10G01G03G04G08G09G14G17G19G21G31
  20548706.420    20548707.140    20548707.320   107984354.2500   84143751.1210
  80637797.6670
  20343837.940    20343838.080    20343839.460   106907752.4480   83304864.0810
  79833956.2120
  21962484.900    21962484.420    21962489.680   115413949.0690   89933052.4840
  86185878.9540
  25347202.400    25347210.440    25347216.160   133200388.9790  103792520.3810
  99467934.6190
  24492908.940    24492914.420    24492916.220   128711105.5891  100294390.2761
  96115628.8290
  24755196.040    24755196.700    24755202.540   130089410.2620  101368364.9600
  97144713.2730
  21560054.760    21560052.340                   113298874.1190   88284837.6430

  23210805.380    23210801.780                   121973599.5120   95044351.7580

  22237719.060    22237716.200                   116860217.1260   91060032.6850

  24532220.900    24532219.360                   128917689.5940  100455333.3950

 23  2 11  0  1 30.0000000  0 10G01G03G04G08G09G14G17G19G21G31
  20555619.980    20555620.700    20555620.820   108020685.1320   84172060.8910
  80664927.8540
  20344824.340    20344824.500    20344825.840   106912936.0360   83308903.2440
  79837827.0790
  21945629.300    21945628.740    21945634.040   115325372.3090   89864031.6580
  86119733.9970
  25368326.060    25368334.420    25368340.280   133311389.3750  103879012.7770
  99550822.8670
  24471154.940    24471160.060    24471162.200   128596790.8740  100205314.3570
  96030264.5550
  24769459.180    24769460.480    24769466.140   130164366.6170  101426772.2660
  97200686.9390
  21552029.220    21552026.860                   113256699.3190   88251974.1610

  23192701.740    23192698.060                   121878463.9500   94970220.1490

  22247889.520    22247886.640                   116913663.2470   91101678.9960

  24525677.120    24525675.540                   128883300.9540  100428537.0890

 23  2 11  0  2  0.0000000  0 10G01G03G04G08G09G14G17G19G21G31
  20562600.880    20562601.620    20562601.720   108057369.9570   84200646.4540
  80692322.3540
  20345879.180    20345879.340    20345880.720   106918479.3600   83313222.7140
  79841966.5690
  21928839.760    21928839.140    21928844.600   115237142.6570   89795281.3110
  86053848.2630
  25389442.820    25389451.560    25389457.040   133422353.9020  103965477.2500
  99633684.3700
  24449412.600    24449417.760    24449419.540   128482536.1480  100116285.2190
  95944945.0220
  24783747.780    24783748.820    24783755.020   130239451.9980  101485280.2340
  97256757.0660
  21544096.480    21544094.080                   113215012.2320   88219490.7080

  23174661.840    23174658.280                   121783663.1360   94896349.4260

  22258102.440    22258099.660                   116967332.8550   91143499.4460

  24519221.700    24519219.140                   128849376.9520  100402102.8650

 23  2 11  0  2 30.0000000  0 10G01G03G04G08G09G14G17G19G21G31
  20569648.580    20569649.380    20569649.440   108094405.8520   84229505.5790
  80719979.0190
  20347001.760    20347001.920    20347003.260   106924378.4850   83317819.4380
  79846371.7680
  21912116.200    21912115.480    21912121.080   115149259.6540   89726801.0690
  85988221.3820
  25410552.080    25410561.140    25410566.280   133533278.1320  104051910.2570
  99716515.7320
  24427681.580    24427686.940    24427688.300   128368333.7381  100027295.2801
  95859669.8250
  24798059.500    24798060.680    24798066.900   130314660.6650  101543884.2620
  97312919.2270
  21536256.160    21536253.720                   113173811.1270   88187385.9410

  23156685.680    23156682.120                   121689197.3260   94822739.7120

  22268357.380    22268354.640                   117021222.8630   91185491.6310

  24512854.400    24512851.720                   128815916.9690  100376030.1660

 23  2 11  0  3  0.0000000  0 10G01G03G04G08G09G14G17G19G21G31
  20576764.440    20576765.260    20576765.380   108131799.9800   84258643.8460
  80747903.1860
  20348193.220    20348193.400    20348194.640   106930639.5230   83322698.1690
  79851047.2170
  21895460.380    21895459.800    21895465.100   115061732.8520   89658598.4040
  85922860.4860
  25431654.300    25431663.880    25431668.900   133644166.7820  104138315.5150
  99799320.4510
  24405963.680    24405968.840    24405970.340   128254207.1580   99938365.9320
  95774445.9870
  24812395.100    24812396.320    24812403.560   130389996.6780  101602587.4600
  97369176.3840
  21528510.040    21528507.600                   113133105.1550   88155666.9990

  23138775.120    23138771.480                   121595076.5080   94749398.8270

  22278655.660    22278652.920                   117075340.5660   91227661.2500

  24506576.860    24506574.680                   128782930.0660  100350326.1510

 23  2 11  0  3 30.0000000  0 10G01G03G04G08G09G14G17G19G21G31
  20583946.160    20583947.000    20583947.180   108169540.2290   84288051.8200
  80776085.8290
  20349451.020    20349451.200    20349452.460   106937249.3460   83327848.6810
  79855983.1240
  21878870.480    21878869.980    21878875.140   114974552.5390   89590665.7250
  85857758.3540
  25452747.120    25452756.940    25452761.880   133755005.4170  104224681.8100
  99882087.8060
  24384257.200    24384262.200    24384263.600   128140139.6300   99849482.5690
  95689266.1860
  24826752.640    24826753.420    24826761.300   130465444.7090  101661378.0110
  97425517.2360
  21520856.120    21520853.740                   113092883.5990   88124325.5190

  23120928.200    23120924.540                   121501291.2460   94676319.4150

  22288994.920    22288992.100                   117129673.6660   91269998.7130

  24500387.920    24500386.040                   128750406.4020  100324983.0810

 23  2 11  0  4  0.0000000  0 10G01G03G04G08G09G14G17G19G21G31
  20591195.520    20591196.360    20591196.620   108207635.8930   84317736.7410
  80804533.8790
  20350776.760    20350776.920    20350778.200   106944216.1670   83333277.3720
  79861185.6260
  21862348.740    21862348.320    21862353.340   114887730.4140   89523012.1540
  85792923.6890
  25473831.880    25473842.180    25473847.300   133865801.2660  104311014.7250
  99964823.1450
  24362563.980    24362569.000    24362569.980   128026142.7860   99760654.3120
  95604139.1750
  24841133.080    24841133.680    24841141.380   130541010.9920  101720260.6830
  97481946.4680
  21513296.500    21513294.100                   113053157.4050   88093370.0470

  23103147.620    23103144.080                   121407854.0590   94603511.2290

  22299376.980    22299374.180                   117184231.6070   91312511.3720

  24494289.520    24494287.860                   128718356.9760  100300009.5230

 23  2 11  0  4 30.0000000  0 10G01G03G04G08G09G14G17G19G21G31
  20598512.720    20598513.500    20598513.780   108246087.7000   84347699.1730
  80833247.8690
  20352170.380    20352170.540    20352171.780   106951539.7290   83338984.0460
  79866654.5200
  21845895.780    21845895.340    21845900.280   114801269.6360   89455640.1560
  85728358.8580
  25494908.620    25494919.100    25494924.260   133976552.8040  104397313.0850
 100047525.4640
  24340884.760    24340889.560    24340890.500   127912219.6760   99671883.4760
  95519067.1980
  24855535.240    24855535.940    24855543.360   130616693.2510  101779233.7280
  97538462.2370
  21505831.680    21505829.140                   113013929.3320   88062802.7200

  23085433.960    23085430.280                   121314768.6050   94530977.1290

  22309801.980    22309799.220                   117239015.1470   91355199.8260

  24488281.760    24488279.660                   128686784.4600  100275407.6200

 23  2 11  0  5  0.0000000  0 10G01G03G04G08G09G14G17G19G21G31
  20605896.900    20605897.700    20605897.920   108284891.6470   84377936.0030
  80862224.8260
  20353630.920    20353631.120    20353632.300   106959214.9080   83344964.7090
  79872385.9910
  21829511.280    21829510.820    21829515.720   114715168.5230   89388548.4190
  85664062.6120
  25515975.640    25515986.300    25515991.720   134087253.4080  104483571.8140
 100130189.7370
  24319219.280    24319223.860    24319224.840   127798368.6210   99583168.7710
  95434049.0350
  24869958.160    24869958.940    24869966.340   130692484.3230  101838291.5270
  97595059.2600
  21498461.000    21498458.320                   112975196.0450   88032620.9380

  23067787.020    23067783.440                   121222033.6590   94458716.1550

  22320269.180    22320266.420                   117294020.4410   91398061.0680

  24482364.060    24482361.260                   128655686.9490  100251175.8260

 23  2 11  0  5 30.0000000  0 10G01G03G04G08G09G14G17G19G21G31
  20613348.380    20613349.200    20613349.380   108324049.5330   84408448.6250
  80891466.0850
  20355158.540    20355158.720    20355159.880   106967242.5270   83351220.0020
  79878380.6470
  21813196.040    21813195.500    21813200.400   114629431.3030   89321740.2160
  85600038.0940
  25537032.980    25537043.860    25537049.580   134197903.5870  104569791.2010
 100212816.3460
  24297568.360    24297572.600    24297573.720   127684593.7480   99494513.3980
  95349087.7400
  24884401.520    24884402.260    24884408.840   130768382.9580  101897433.1600
  97651736.6860
  21491185.120    21491182.480                   112936961.1080   88002827.4760

  23050207.760    23050204.280                   121129654.1030   94386732.1060

  22330778.900    22330776.160                   117349249.0800   91441096.3480

  24476537.180    24476534.840                   128625068.2090  100227317.1020

 23  2 11  0  6  0.0000000  0 10G01G03G04G08G09G14G17G19G21G31
  20620867.280    20620868.160    20620868.380   108363561.8690   84439237.4370
  80920972.0360
  20356753.120    20356753.240    20356754.460   106975622.0700   83357749.5180
  79884638.1020
  21796950.560    21796950.020    21796955.000   114544060.9060   89255217.8540
  85536287.5050
  25558079.900    25558091.420    25558097.620   134308501.3210  104655969.7510
 100295403.8030
  24275932.620    24275936.680    24275937.660   127570898.0070   99405919.6950
  95264185.4870
  24898864.640    24898865.580    24898871.960   130844386.6860  101956656.6560
  97708492.5130
  21484004.480    21484002.020                   112899226.7740   87973424.0890

  23032696.620    23032693.160                   121037632.7720   94315027.2060

  22341331.180    22341328.540                   117404701.5410   91484306.0380

  24470802.200    24470799.640                   128594930.8670  100203833.4570

 23  2 11  0  6 30.0000000  0 10G01G03G04G08G09G14G17G19G21G31
  20628453.100    20628454.040    20628454.300   108403425.7530   84470300.1860
  80950740.5040
  20358413.880    20358414.020    20358415.280   106984349.5670   83364550.1660
  79891155.3920
  21780774.800    21780774.240    21780779.280   114459056.7500   89188980.8790
  85472810.4190
  25579115.780    25579127.920    25579134.800   134419041.1450  104742103.1730
 100377947.9860
  24254311.840    24254315.580    24254316.740   127457280.7720   99317387.1330
  95179341.8690
  24913346.740    24913347.580    24913354.020   130920489.4740  102015957.4310
  97765322.3440
  21476918.880    21476916.520                   112861991.7980   87944409.8210

  23015253.860    23015250.220                   120945970.1740   94243601.8100

  22351925.520    22351922.900                   117460375.0100   91527687.9500

  24465158.560    24465156.120                   128565273.8200  100180724.1140

 23  2 11  0  7  0.0000000  0 10G01G03G04G08G09G14G17G19G21G31
  20636106.560    20636107.580    20636107.940   108443645.1830   84501639.9910
  80980774.4740
  20360141.460    20360141.620    20360142.860   106993428.0240   83371624.2900
  79897934.7560
  21764669.960    21764669.420    21764674.420   114374425.2760   89123034.3100
  85409611.6210
  25600141.460    25600153.780    25600161.280   134529525.2620  104828193.2870
 100460450.6500
  24232707.100    24232710.640    24232712.260   127343748.4240   99228920.6940
  95094561.6200
  24927847.460    24927848.440    24927855.200   130996692.3460  102075336.0940
  97822226.8650
  21469929.280    21469926.880                   112825261.1150   87915788.5060

  22997880.780    22997876.840                   120854673.0920   94172461.2540

  22362562.720    22362559.980                   117516273.6530   91571245.3110

  24459607.480    24459604.600                   128536103.1840  100157993.7670

 23  2 11  0  7 30.0000000  0 10G01G03G04G08G09G14G17G19G21G31
  20643827.380    20643828.400    20643828.820   108484218.3420   84533255.4320
  81011072.6010
  20361935.260    20361935.400    20361936.680   107002854.5570   83378969.6490
  79904974.0620
  21748636.140    21748635.520    21748640.600   114290166.9700   89057378.5220
  85346691.4980
  25621155.760    25621168.320    25621175.960   134639949.5570  104914236.7890
 100542908.7180
  24211118.640    24211122.100    24211123.700   127230301.5670   99140520.8750
  95009845.1960
  24942366.380    24942367.700    24942374.420   131072990.3850  102134788.9210
  97879202.4770
  21463035.620    21463033.160                   112789034.6450   87887560.0860

  22980577.420    22980573.360                   120763742.7250   94101606.4200

  22373242.360    22373239.520                   117572395.5930   91614976.6720

  24454149.040    24454146.060                   128507418.6540  100135642.2410

 23  2 11  0  8  0.0000000  0 10G01G03G04G08G09G14G17G19G21G31
  20651615.320    20651616.320    20651616.640   108525143.9990   84565145.5460
  81041633.9640
  20363794.860    20363794.960    20363796.300   107012626.9420   83386584.4940
  79912271.6240
  21732673.540    21732672.880    21732677.960   114206283.0170   88992014.4280
  85284050.9160
  25642157.940    25642170.800    25642178.360   134750310.8110  105000231.2270
 100625319.7770
  24189546.400    24189549.840    24189551.800   127116941.3190   99052188.5400
  94925193.4360
  24956902.940    24956904.100    24956910.480   131149379.3280  102194312.6330
  97936245.9990
  21456237.960    21456235.500                   112753312.7740   87859724.8640

  22963344.000    22963340.020                   120673180.9490   94031038.8170

  22383964.280    22383961.480                   117628739.5310   91658881.0110

  24448783.180    24448780.160                   128479221.0820  100113670.1400

 23  2 11  0  8 30.0000000  0 10G01G03G04G08G09G14G17G19G21G31
  20659470.820    20659471.840    20659472.080   108566424.8590   84597312.4350
  81072460.5620
  20365720.620    20365720.720    20365722.060   107022746.8440   83394470.1370
  79919828.6940
  21716783.140    21716782.400    21716787.560   114122778.4860   88926945.9940
  85221693.6730
  25663148.040    25663161.440    25663168.760   134860609.9360  105086177.3270
 100707684.5310
  24167991.980    24167995.220    24167997.540   127003672.7790   98963927.6490
  94840610.1740
  24971456.560    24971457.680    24971464.280   131225858.9700  102253906.9670
  97993357.1940
  21449537.080    21449534.680                   112718099.5250   87832285.9730

  22946181.740    22946178.020                   120582993.1260   93960762.5960

  22394728.900    22394726.100                   117685308.0090   91702960.3240

  24443510.840    24443508.340                   128451515.2580  100092081.2140

 23  2 11  0  9  0.0000000  0 10G01G03G04G08G09G14G17G19G21G31
  20667393.540    20667394.500    20667394.720   108608058.7160   84629754.3850
  81103550.7640
  20367711.920    20367712.020    20367713.340   107033211.1180   83402624.1120
  79927642.9240
  21700964.900    21700964.240    21700969.480   114039653.5360   88862173.3370
  85159619.8860
  25684125.600    25684139.440    25684146.140   134970842.5390  105172071.7280
 100789999.7400
  24146454.840    24146458.200    24146460.280   126890496.1500   98875738.3970
  94756095.5450
  24986026.560    24986028.000    24986034.520   131302424.0200  102313567.8360
  98050532.1900
  21442932.920    21442930.500                   112683394.3280   87805242.9620

  22929090.720    22929087.040                   120493179.8750   93890778.2580

  22405535.880    22405533.020                   117742098.7860   91747212.8570

  24438332.060    24438329.720                   128424300.7880  100070875.1600

 23  2 11  0  9 30.0000000  0 10G01G03G04G08G09G14G17G19G21G31
  20675383.560    20675384.540    20675384.720   108650046.4880   84662472.1200
  81134905.2540
  20369768.700    20369768.800    20369770.100   107044019.5960   83411046.3000
  79935714.1900
  21685219.540    21685218.980    21685223.980   113956911.4500   88797699.0190
  85097831.9920
  25705090.120    25705104.480    25705110.460   135081007.5050  105257913.5190
 100872264.5690
  24124935.840    24124939.100    24124941.100   126777414.6990   98787623.2780
  94671651.9520
  25000612.260    25000613.360    25000620.880   131379072.4270  102373293.6550
  98107769.3960
  21436425.800    21436423.380                   112649199.3260   87778597.5020

  22912071.780    22912068.320                   120403745.1620   93821088.9080

  22416385.360    22416382.480                   117799112.9330   91791639.4330

  24433247.280    24433245.120                   128397580.5250  100050054.2150

 23  2 11  0 10  0.0000000  0 10G01G03G04G08G09G14G17G19G21G31
  20683440.520    20683441.500    20683441.580   108692386.1100   84695464.0200
  81166522.4980
  20371890.400    20371890.480    20371891.840   107055169.2830   83419734.3690
  79944040.2560
  21669547.100    21669546.560    21669551.500   113874552.5260   88733523.2650
  85036330.2400
  25726040.960    25726055.880    25726061.440   135191100.6560  105343699.4660
 100954475.8650
  24103435.180    24103438.240    24103440.400   126664428.8830   98699582.6590
  94587279.7760
  25015213.260    25015214.220    25015221.600   131455799.1430  102433080.5940
  98165065.0960
  21430015.720    21430013.340                   112615514.2410   87752349.3780

  22895125.180    22895121.640                   120314690.0750   93751695.3530

  22427277.000    22427274.140                   117856348.7430   91836238.7450

  24428256.480    24428254.500                   128371354.1800  100029618.1590

 23  2 11  0 10 30.0000000  0 10G01G03G04G08G09G14G17G19G21G31
  20691565.020    20691566.000    20691566.020   108735080.6080   84728732.4570
  81198404.7420
  20374077.420    20374077.520    20374078.880   107066662.1560   83428689.8560
  79952622.5980
  21653948.620    21653948.140    21653952.900   113792582.1180   88669650.2470
  84975118.6010
  25746978.100    25746993.580    25746999.060   135301122.7350  105429430.1080
 101036634.2750
  24081953.760    24081956.800    24081958.560   126551544.0780   98611620.7660
  94502982.9840
  25029829.020    25029830.020    25029836.920   131532604.1920  102492928.4900
  98222419.3320
  21423703.480    21423701.140                   112582343.1700   87726501.7920

  22878251.980    22878248.280                   120226020.5030   93682602.2110

  22438211.220    22438208.440                   117913808.8540   91881012.8450

  24423360.640    24423358.980                   128345626.4960  100009570.6260

 23  2 11  0 11  0.0000000  0 10G01G03G04G08G09G14G17G19G21G31
  20699756.780    20699757.800    20699757.780   108778128.6560   84762276.3730
  81230551.0010
  20376329.300    20376329.380    20376330.760   107078495.9210   83437910.9750
  79961459.5040
  21638424.220    21638423.860    21638428.440   113711001.2840   88606080.7900
  84914197.8820
  25767900.920    25767916.920    25767922.640   135411070.9410  105515103.3350
 101118737.5900
  24060491.740    24060494.620    24060496.560   126438761.3930   98523738.4430
  94418762.4910
  25044458.520    25044459.720    25044466.940   131609483.4120  102552834.1330
  98279828.8440
  21417489.200    21417486.900                   112549686.6530   87701055.1590

  22861452.500    22861448.620                   120137738.1010   93613810.7450

  22449187.960    22449185.400                   117971492.4900   91925961.1080

  24418560.000    24418558.080                   128320398.0850   99989912.1750

 23  2 11  0 11 30.0000000  0 10G01G03G04G08G09G14G17G19G21G31
  20708016.300    20708017.300    20708017.320   108821532.4790   84796097.5260
  81262962.9390
  20378646.300    20378646.340    20378647.760   107090671.8330   83447398.7010
  79970551.9090
  21622974.860    21622974.580    21622979.120   113629814.6330   88542818.4850
  84853571.5100
  25788809.820    25788825.740    25788831.900
 101200785.8660
  24039050.040    24039052.780    24039055.060   126326085.5130   98435939.3180
  94334621.7360
  25059102.340    25059103.580    25059111.040   131686435.9280  102612796.9550
  98337293.1250
  21411373.380    21411371.040                   112517547.6390   87676011.7700

  22844727.540    22844723.780                   120049847.8460   93545324.8600

  22460207.660    22460205.020                   118029401.2680   91971084.8130

  24413855.040    24413852.200                   128295673.0140   99970645.8940

 23  2 11  0 12  0.0000000  0 10G01G03G04G08G09G14G17G19G21G31
  20716343.280    20716344.160    20716344.340   108865290.7360   84830194.8620
  81295639.5420
  20381027.960    20381028.020    20381029.440   107103187.5330   83457151.1990
  79979898.0490
  21607600.740    21607600.520    21607604.920   113549023.1220   88479864.0890
  84793240.2100
                                  25809726.140
 101282908.5391
  24017628.780    24017631.440    24017633.920   126213517.4880   98348224.2540
  94250561.5130
  25073759.560    25073760.620    25073767.640   131763457.5170  102672813.5770
  98394808.9950
  21405356.060    21405353.700                   112485926.4560   87651371.8850

  22828077.460    22828073.620                   119962351.2450   93477145.7010

  22471270.020    22471267.400                   118087534.1070   92016383.1150

  24409246.200    24409242.640                   128271451.6940   99951772.1770

 23  2 11  0 12 30.0000000  0  9G01G03G04G09G14G17G19G21G31
  20724738.900    20724739.700    20724740.020   108909409.9200   84864573.4320
  81328585.6680
  20383475.320    20383475.420    20383476.780   107116048.5230   83467172.7470
  79989502.0370
  21592303.540    21592303.140    21592307.700   113468635.5570   88417224.4510
  84733210.5620
  23996229.920    23996232.400    23996235.080   126101066.2710   98260600.1890
  94166588.5000
  25088430.000    25088431.400    25088438.060   131840551.7140  102732886.7670
  98452379.1000
  21399438.820    21399436.400                   112454831.1270   87627141.7560

  22811504.160    22811500.260                   119875258.1810   93409280.9780

  22482376.160    22482373.580                   118145897.4800   92061861.0410

  24404734.180    24404730.800                   128247742.3320   99933297.3720

 23  2 11  0 13  0.0000000  0  9G01G03G04G09G14G17G19G21G31
  20733199.460    20733200.280    20733200.580   108953870.4130   84899217.9580
  81361786.6740
  20385984.500    20385984.580    20385985.920   107129234.2970   83477447.3810
  79999348.5590
  21577079.880    21577079.500    21577084.100   113388634.7310   88354886.1770
  84673469.7330
  23974850.020    23974852.180    23974855.220   125988714.7740   98173053.8020
  94082689.9550
  25103110.300    25103111.460    25103118.340   131917696.1190  102792999.0270
  98509986.6790
  21393618.200    21393615.780                   112424243.5120   87603307.2490

  22795004.480    22795000.580                   119788551.8570   93341717.6180

  22493522.560    22493519.940                   118204471.8810   92107503.4050

  24400316.200    24400313.600                   128224527.3960   99915207.7710

 23  2 11  0 13 30.0000000  0  9G01G03G04G09G14G17G19G21G31
  20741727.380    20741728.220    20741728.480   108998684.8690   84934138.3010
  81395251.9950
  20388557.700    20388557.740    20388559.160   107142756.4470   83487984.1170
  80009446.2620
  21561932.640    21561932.200    21561936.820   113309035.5580   88292860.8760
  84614028.8210
  23953491.860    23953494.000    23953496.860   125876478.0000   98085596.8150
  93998877.0780
  25117801.980    25117803.360    25117809.540   131994900.3360  102853157.9440
  98567638.8900
  21387896.800    21387894.400                   112394177.3710   87579879.0910

  22778581.300    22778577.500                   119702247.8940   93274467.8080

  22504711.500    22504708.860                   118263269.5770   92153319.7770

  24395994.940    24395993.020                   128201820.7870   99897514.4160

 23  2 11  0 14  0.0000000  0  9G01G03G04G09G14G17G19G21G31
  20750322.800    20750323.660    20750323.860   109043854.1380   84969335.1170
  81428982.2790
  20391194.860    20391194.920    20391196.320   107156614.9130   83498782.9220
  80019795.1190
  21546862.440    21546862.000    21546866.640   113229841.2770   88231151.0740
  84554890.2660
  23932156.280    23932158.260    23932160.860   125764359.3300   97998231.8410
  93915152.3540
  25132504.300    25132505.600    25132512.360   132072162.2530  102913361.7590
  98625334.2540
  21382275.060    21382272.640                   112364634.7620   87556858.8720

  22762235.520    22762231.660                   119616350.0250   93207534.4280

  22515943.240    22515940.520                   118322292.1600   92199311.3770

  24391771.740    24391769.400                   128179625.6090   99880219.4840

 23  2 11  0 14 30.0000000  0  9G01G03G04G09G14G17G19G21G31
  20758985.240    20758986.080    20758986.240   109089375.4470   85004806.2560
  81462975.4550
  20393895.320    20393895.440    20393896.820   107170805.9340   83509840.8600
  80030392.3120
  21531869.220    21531868.740    21531873.320   113151051.3870   88169756.3880
  84496053.7000
  23910842.960    23910844.960    23910847.220   125652358.4590   97910958.6640
  93831515.5880
  25147216.600    25147218.380    25147225.080   132149476.3760  102973606.2850
  98683068.5320
  21376752.660    21376750.240                   112335614.5170   87534245.6860

  22745967.020    22745962.900                   119530858.4040   93140917.5930

  22527217.140    22527214.420                   118381536.6150   92245475.8650

  24387645.360    24387643.220                   128157940.4210   99863321.9310

 23  2 11  0 15  0.0000000  0  9G01G03G04G09G14G17G19G21G31
  20767714.420    20767715.220    20767715.440   109135247.4950   85040550.6970
  81497230.5480
  20396658.660    20396658.780    20396660.180   107185327.2790   83521156.1940
  80041236.1730
  21516953.160    21516952.600    21516957.280   113072666.8890   88108677.5890
  84437519.8510
  23889552.520    23889554.260    23889556.620   125540476.5500   97823778.1520
  93747967.6670
  25161938.400    25161940.180    25161947.300   132226838.5100  103033888.2190
  98740838.6090
  21371329.700    21371327.280                   112307116.6930   87512039.5880

  22729776.180    22729772.040                   119445774.6370   93074618.5790

  22538532.920    22538530.160                   118441001.4400   92291812.0620

  24383615.980    24383613.900                   128136765.8990   99846822.3220

 23  2 11  0 15 30.0000000  0  9G01G03G04G09G14G17G19G21G31
  20776511.480    20776512.240    20776512.500   109181476.1200   85076572.9970
  81531751.9140
  20399485.740    20399485.880    20399487.340   107200183.8610   83532732.7470
  80052330.3680
  21502115.800    21502115.240    21502120.080   112994695.9860   88047921.0610
  84379294.8550
  23868285.980    23868288.260    23868290.380   125428721.9640   97736696.8940
  93664514.8250
  25176670.040    25176671.640    25176678.640   132304251.5270  103094209.8100
  98798646.7550
  21366007.480    21366005.120                   112279148.3620   87490246.0790

  22713664.560    22713660.540                   119361107.7310   93008644.3830

  22549891.760    22549889.040                   118500692.8860   92338324.8530

  24379685.060    24379682.820                   128116109.3400   99830726.3280

 23  2 11  0 16  0.0000000  0  9G01G03G04G09G14G17G19G21G31
  20785375.100    20785375.840    20785376.140   109228054.7030   85112867.9900
  81566534.6140
  20402375.220    20402375.360    20402376.840   107215368.0730   83544564.6020
  80063669.2300
  21487356.320    21487355.760    21487360.600   112917134.3510   87987483.4520
  84321375.4790
  23847043.040    23847045.520    23847047.400   125317090.5120   97649711.5500
  93581153.9250
  25191409.260    25191411.180    25191417.440   132381706.1000  103154563.7070
  98856485.8650
  21360785.120    21360782.780                   112251704.6070   87468861.3320

  22697631.560    22697627.760                   119276854.2370   92942992.3370

  22561292.560    22561289.860                   118560604.2530   92385009.0140

  24375851.680    24375849.260                   128095966.1560   99815030.3630

 23  2 11  0 16 30.0000000  0  9G01G03G04G09G14G17G19G21G31
  20794306.080    20794306.800    20794307.160   109274987.3250   85149438.8540
  81601581.6840
  20405327.640    20405327.780    20405329.240   107230883.1290   83556654.2560
  80075255.1500
  21472675.880    21472675.380    21472680.220   112839988.3600   87927369.7170
  84263766.4950
  23825824.800    23825827.460    23825828.980   125205588.8540   97562827.3240
  93497889.9120
  25206156.840    25206158.980    25206164.640   132459203.2850  103214950.8080
  98914356.9140
  21355663.460    21355661.120                   112224789.9860   87447888.8910

  22681678.440    22681674.780                   119193020.8260   92877667.6310

  22572735.960    22572733.200                   118620739.4890   92431867.6230

  24372117.200    24372114.260                   128076341.8170   99799738.6540

 23  2 11  0 17  0.0000000  0  9G01G03G04G09G14G17G19G21G31
  20803303.800    20803304.580    20803304.900   109322270.7200   85186283.0420
  81636890.6970
  20408342.180    20408342.340    20408343.820   107246724.7720   83568998.3960
  80087084.9530
  21458074.360    21458073.920    21458078.720   112763257.0570   87867579.1120
  84206467.1670
  23804631.020    23804633.820    23804635.180   125094216.1420   97476043.5990
  93414722.2150
  25220911.280    25220913.320    25220919.440   132536781.0801  103275422.4911
  98972255.1930
  21350642.140    21350639.760                   112198402.7580   87427327.4140

  22665805.300    22665801.720                   119109607.2040   92812670.0260

  22584221.260    22584218.500                   118681095.2850   92478898.0800

  24368481.160    24368478.500                   128057234.8870   99784850.1700

 23  2 11  0 17 30.0000000  0  9G01G03G04G09G14G17G19G21G31
  20812368.840    20812369.680    20812370.020   109369907.9270   85223402.9290
  81672463.9170
  20411419.300    20411419.460    20411420.960   107262895.1630   83581598.7000
  80099160.2380
  21443552.780    21443552.400    21443557.080   112686945.7650   87808115.7900
  84149481.4900
  23783463.020    23783465.740    23783467.060   124982978.0220   97389364.7140
  93331655.0130
  25235673.800                    25235681.840   132614353.9001
  99030180.9830
  21345722.120    21345719.720                   112172547.6900   87407180.5990

  22650013.340    22650009.700                   119026619.4530   92748004.2580

  22595749.060    22595746.280                   118741674.5090   92526102.6440

  24364944.520    24364942.460                   128038649.9570   99770368.4390

 23  2 11  0 18  0.0000000  0  9G01G03G04G09G14G17G19G21G31
  20821500.500    20821501.300    20821501.700   109417895.0400   85260795.4760
  81708298.4370
  20414558.080    20414558.260    20414559.680   107279389.4760   83594451.4080
  80111477.4200
  21429110.780    21429110.420    21429115.100   112611052.8890   87748978.5090
  84092808.2640
  23762320.300    23762323.020    23762324.320   124871873.0820   97302789.6240
  93248687.2420
  25250440.640    25250441.560    25250449.520
  99088129.2700
  21340902.780    21340900.360                   112147221.8030   87387446.1340

  22634302.240    22634298.460                   118944056.7680   92683669.7040

  22607318.860    22607316.200                   118802473.9900   92573478.8300

  24361507.020    24361504.920                   128020584.7240   99756291.6510

 23  2 11  0 18 30.0000000  0  9G01G03G04G09G14G17G19G21G31
  20830699.400    20830700.300    20830700.580   109466235.7750   85298463.5690
  81744397.0240
  20417759.040    20417759.200    20417760.560   107296210.4950   83607558.6980
  80124038.5730
  21414749.580    21414749.140    21414753.860   112535584.3500   87690171.8860
  84036451.9250
  23741204.120    23741206.680    23741208.160   124760907.5380   97216323.1300
  93165823.5760
  25265213.220    25265215.840    25265222.660
  99146100.7460
  21336185.080    21336182.640                   112122430.2010   87368128.0000

  22618673.420    22618669.560                   118861925.8580   92619671.6090

  22618931.240    22618928.580                   118863497.2030   92621029.3680

  24358169.640    24358167.340                   128003044.6930   99742624.0960

 23  2 11  0 19  0.0000000  0  9G01G03G04G09G14G17G19G21G31
  20839965.280    20839966.320    20839966.500   109514928.4790   85336405.9180
  81780758.4450
  20421021.660    20421021.820    20421023.200   107313355.7080   83620918.6040
  80136841.8200
  21400469.240    21400468.780    21400473.520   112460540.8720   87631696.4730
  83980412.9880
  23720114.640    23720117.120    23720118.400   124650082.3180   97129965.9850
  93083064.6760
  25279992.280    25279995.960    25280001.120   132847246.2711  103517348.7961
  99204092.0940
  21331569.000    21331566.560                   112098172.6020   87349225.9740

  22603126.820    22603122.940                   118780228.1260   92556011.0470

  22630585.900    22630583.200                   118924742.5080   92668752.9530

  24354931.820    24354929.760                   127986029.7210   99729365.7150

 23  2 11  0 19 30.0000000  0  9G01G03G04G09G14G17G19G21G31
  20849298.220    20849299.280    20849299.420   109563973.3330   85374622.6810
  81817382.8380
  20424345.840    20424346.000    20424347.360   107330824.3710   83634530.5490
  80149886.5990
  21386270.260    21386269.820    21386274.500   112385924.8440   87573554.1410
  83924693.2600
  23699052.540    23699054.720    23699056.000   124539400.0910   97043720.2590
  93000412.5460
  25294775.720    25294773.000    25294784.100
  99262101.3460
  21327054.760    21327052.300                   112074449.9820   87330740.8050

  22587663.080    22587659.380                   118698966.7090   92492690.4850

  22642282.820    22642280.140                   118986210.1140   92716649.7620

  24351793.900    24351792.200                   127969541.3400   99716517.6470

 23  2 11  0 20  0.0000000  0  9G01G03G04G09G14G17G19G21G31
  20858698.280    20858699.300    20858699.400   109613370.8740   85413114.2630
  81854270.6040
  20427731.480    20427731.660    20427733.020   107348616.1000   83648394.2360
  80163172.6300
  21372153.160    21372152.600    21372157.360   112311739.0750   87515747.0700
  83869294.8170
  23678018.200    23678020.200    23678021.260   124428863.9700   96957588.3640
  92917869.5130
  25309560.500    25309563.220    25309570.920
  99320126.9520
  21322642.700    21322640.280                   112051264.4610   87312674.1590

  22572283.140    22572279.360                   118618144.8810   92429712.4530

  22654022.080    22654019.540                   119047900.6390   92764720.2770

  24348756.620    24348754.840                   127953581.5350   99704081.4780

 23  2 11  0 20 30.0000000  0  9G01G03G04G09G14G17G19G21G31
  20868164.400    20868165.360    20868165.340   109663115.4890   85451876.2910
  81891417.5430
  20431177.380    20431177.580    20431178.960   107366724.4530   83662504.6410
  80176695.1060
  21358117.320    21358116.760    21358121.440   112237980.2330   87458272.6760
  83814215.1920
  23657010.960    23657012.800    23657014.020   124318470.9220   96871567.9670
  92835433.3130
                                  25324360.580
  99378162.6060
  21318331.980    21318329.600                   112028611.4640   87295022.4670

  22556986.380    22556982.340                   118537759.8570   92367074.7660

  22665802.780    22665800.320                   119109808.4220   92812960.0850

  24345819.260    24345817.500                   127938146.9780   99692054.6100

 23  2 11  0 21  0.0000000  0  9G01G03G04G09G14G17G19G21G31
  20877697.660    20877698.640    20877698.540   109713213.0720   85490913.3540
  81928828.0680
  20434684.460    20434684.700    20434686.100   107385154.4300   83676865.6620
  80190457.7490
  21344164.280    21344163.680    21344168.420   112164656.4310   87401137.2690
  83759460.4420
  23636032.680    23636034.200    23636035.620   124208229.3350   96785665.5710
  92753110.2360
  25339145.120                    25339153.880
  99436210.6630
  21314123.940    21314121.600                   112006498.0380   87277791.2160

  22541774.520    22541770.480                   118457820.6860   92304784.5130

  22677625.900    22677623.520                   119171939.3430   92861373.7650

  24342983.600    24342981.480                   127923244.6860   99680442.4830

 23  2 11  0 21 30.0000000  0  9G01G03G04G09G14G17G19G21G31
  20887298.340    20887299.340    20887299.400   109763665.1360   85530226.6300
  81966503.2890
  20438252.900    20438253.140    20438254.580   107403906.7250   83691477.8420
  80204461.0920
  21330294.720    21330294.100    21330298.960   112091771.4960   87344343.8400
  83705033.4100
  23615083.820    23615085.360    23615087.000   124098143.3550   96699884.4470
  92670903.3460
  25353939.220    25353943.460    25353949.020
  99494270.3130
  21310019.120    21310016.740                   111984927.0580   87260982.6540

  22526648.280    22526644.340                   118378332.0890   92242845.3610

  22689491.740    22689489.400                   119234294.9580   92909962.5230

  24340249.740    24340247.440                   127908877.6370   99669247.3900

 23  2 11  0 22  0.0000000  0  9G01G03G04G09G14G17G19G21G31
  20896964.660    20896965.600    20896965.800   109814461.7980   85569808.4260
  82004435.8360
  20441880.620    20441880.880    20441882.340   107422970.5220   83706332.7460
  80218697.0420
  21316507.160    21316506.600    21316511.460   112019317.7080   87287886.3690
  83650928.3380
  23594163.200    23594164.680    23594166.700   123988205.6300   96614218.8230
  92588807.1460
  25368736.420    25368738.840    25368745.400
  99552332.1090
  21306015.780    21306013.360                   111963889.3730   87244589.6480

  22511606.560    22511602.680                   118299286.9490   92181251.7640

  22701398.520    22701396.160                   119296865.6240   92958718.8640

  24337616.120    24337613.420                   127895037.4370   99658462.7860

 23  2 11  0 22 30.0000000  0 10G01G03G04G06G09G14G17G19G21G31
  20906698.480    20906699.420    20906699.660   109865613.4310   85609666.8270
  82042633.4660
  20445569.440    20445569.680    20445571.160   107442355.3620   83721437.8230
  80233172.7390
  21302804.080    21302803.480    21302808.380   111947307.7150   87231774.7110
  83597154.6670
  24492095.760    24492096.180    24492100.040   128706832.2731  100291035.6191
  96112261.3411
  23573273.320    23573274.700    23573276.920   123878429.1240   96528678.8170
  92506831.3500
  25383534.400    25383534.720    25383543.840
  99610401.7580
  21302116.220    21302113.800                   111943397.0460   87228621.5910

  22496651.700    22496648.020                   118220698.5510   92120014.0790

  22713348.200    22713345.860                   119359661.6930   93007650.8350

  24335085.180    24335082.540                   127881736.0560   99648098.0860

 23  2 11  0 23  0.0000000  0 10G01G03G04G06G09G14G17G19G21G31
  20916499.060    20916499.960    20916500.280   109917115.6320   85649798.3980
  82081092.8960
  20449318.360    20449318.580    20449320.040   107462056.0380   83736789.0010
  80247884.2880
  21289185.060    21289184.480    21289189.340   111875739.3660   87176007.1930
  83543710.8030
  24474118.180    24474119.380    24474121.820   128612359.0640  100217420.1920
  96041713.2040
  23552413.820    23552415.180    23552417.700   123768812.0350   96443263.0360
  92424974.6080
  25398332.520    25398335.440    25398343.020   133469138.7691  104001927.9411
  99668474.0550
  21298319.740    21298317.360                   111923446.4490   87213075.6690

  22481783.520    22481779.920                   118142565.6480   92059131.3170

  22725340.040    22725337.600                   119422679.0800   93056755.2840

  24332656.020    24332653.480                   127868970.3900   99638150.8530

 23  2 11  0 23 30.0000000  0 10G01G03G04G06G09G14G17G19G21G31
  20926366.080    20926366.920    20926367.320   109968966.8590   85690201.9370
  82119812.9450
  20453126.900    20453127.120    20453128.560   107482070.0960   83752384.3690
  80262829.8510
  21275650.220    21275649.600    21275654.400   111804613.2600   87120584.2790
  83490597.1760
  24456137.240    24456138.280    24456141.100   128517868.8620  100143791.4760
  95971152.3710
  23531584.780    23531586.320    23531588.800   123659355.3480   96357972.2220
  92343237.6060
  25413131.240    25413134.060    25413142.140
  99726545.7740
  21294626.300    21294623.960                   111904037.1720   87197951.5490

  22467002.260    22466998.540                   118064889.7180   91998604.6060

  22737373.680    22737371.200                   119485916.0040   93106030.7820

  24330328.540    24330326.420                   127856740.5410   99628621.1310

 23  2 11  0 24  0.0000000  0 10G01G03G04G06G09G14G17G19G21G31
  20936299.620    20936300.420    20936300.900   110021167.8170   85730877.9920
  82158794.1680
  20456995.080    20456995.260    20456996.740   107502397.4610   83768223.8760
  80278009.3770
  21262200.120    21262199.400    21262204.260   111733932.3680   87065508.2740
  83437816.0100
  24438153.460    24438154.660    24438157.300   128423363.7700  100070151.1610
  95900580.4060
  23510786.960    23510788.600    23510790.760   123550062.4290   96272809.0410
  92261622.9370
                                  25427940.780
  99784700.5521
  21291036.260    21291033.940                   111885171.3930   87183250.9350

  22452308.500    22452304.820                   117987674.2900   91938436.7680

  22749449.080    22749446.720                   119549372.5560   93155477.4220

  24328103.680    24328101.560                   127845048.4780   99619510.4550

 23  2 11  0 24 30.0000000  0  9G01G03G04G06G09G17G19G21G31
  20946300.540    20946301.200    20946301.820   110073722.8040   85771829.9220
  82198039.7610
  20460923.540    20460923.700    20460925.140   107523041.6100   83784310.2220
  80293425.4600
  21248835.980    21248835.180    21248840.060   111663703.2040   87010784.2810
  83385372.1920
  24420168.060    24420169.060    24420171.880   128328849.4430   99996503.6290
  95830001.5330
  23490021.560    23490023.260    23490025.060   123440940.1670   96187778.8370
  92180135.6750
  21287550.640    21287548.300                   111866854.1990   87168977.7860

  22437703.940    22437700.120                   117910926.7460   91878633.4850

  22761567.300    22761565.020                   119613054.2850   93205099.5220

  24325981.740    24325980.100                   127833900.0050   99610823.3490

 23  2 11  0 25  0.0000000  0  9G01G03G04G06G09G17G19G21G31
  20956366.820    20956367.440    20956367.980   110126621.3260   85813049.5410
  82237541.8900
  20464910.140    20464910.260    20464911.720   107543991.2380   83800634.6110
  80309069.6620
  21235556.180    21235555.400    21235560.240   111593917.4970   86956405.8260
  83333259.5160
  24402179.000    24402180.180    24402182.440   128234316.7050   99922841.7590
  95759408.9270
  23469287.180    23469288.920    23469290.560   123331980.6820   96102875.4650
  92098769.9710
  21284167.540    21284165.160                   111849075.9990   87155124.6380

  22423187.020    22423183.040                   117834639.3930   91819188.8090

  22773726.320    22773724.060                   119676950.3660   93254888.6430

  24323961.980    24323960.280                   127823286.1760   99602552.8450

 23  2 11  0 25 30.0000000  0  9G01G03G04G06G09G17G19G21G31
  20966499.740    20966500.400    20966500.880   110179870.3090   85854542.2340
  82277305.7240
  20468956.020    20468956.100    20468957.640   107565252.4520   83817201.7890
  80324946.5430
  21222362.460    21222361.740    21222366.520   111524584.2990   86902379.9800
  83281484.7480
  24384188.100    24384189.640    24384191.720   128139773.8320   99849171.9960
  95688808.7260
  23448585.460    23448587.220    23448588.980   123223193.5600   96018106.4120
  92017532.9780
  21280888.600    21280886.140                   111831845.0950   87141697.9520

  22408759.580    22408755.360                   117758822.2030   91760110.4890

  22785927.340    22785925.100                   119741067.3720   93304849.9300

  24322045.740    24322043.780                   127813215.0180   99594705.2030

 23  2 11  0 26  0.0000000  0  9G01G03G04G06G09G17G19G21G31
  20976699.040    20976699.740    20976700.200   110233468.1000   85896306.7280
  82317330.0280
  20473060.720    20473060.780    20473062.300   107586822.7960   83834009.8510
  80341054.2680
  21209254.980    21209254.280    21209258.920   111455704.2180   86848707.2080
  83230048.3500
  24366195.120    24366196.900    24366198.640   128045220.5960   99775494.1830
  95618200.8120
  23427916.800    23427918.420    23427920.180   123114579.6390   95933472.3020
  91936425.3230
  21277713.720    21277711.200                   111815160.8650   87128697.2430

  22394421.780    22394417.760                   117683476.3380   91701399.4480

  22798170.200    22798167.940                   119805403.7750   93354982.1560

  24320232.980    24320231.760

 23  2 11  0 26 30.0000000  0  9G01G03G04G06G09G17G19G21G31
  20986964.700    20986965.420    20986965.880   110287414.5100   85938342.8820
  82357614.6680
  20477224.080    20477224.120    20477225.580   107608701.3060   83851058.0350
  80357392.1120
  21196234.120    21196233.440    21196237.960   111387279.2050   86795389.0370
  83178951.7750
  24348200.460    24348202.280    24348203.920   127950658.2010   99701809.2140
  95547586.0560
  23407281.760    23407283.240    23407284.900   123006141.4140   95848975.0910
  91855448.8600
  21274643.000    21274640.440                   111799024.0720   87116123.1140

  22380174.080    22380170.200                   117608604.7080   91643057.9300

  22810454.940    22810452.620                   119869960.0440   93405285.7190

  24318522.740    24318519.460                   127794699.7921   99580273.3511

 23  2 11  0 27  0.0000000  0  9G01G03G04G06G09G17G19G21G31
  20997296.280    20997297.100    20997297.480   110341707.3900   85980648.9990
  82398158.0240
  20481445.520    20481445.540    20481446.960   107630885.0380   83868344.0660
  80373957.8940
  21183299.880    21183299.200    21183303.640   111319309.3180   86742425.5050
  83128195.0510
  24330203.800    24330205.800    24330207.640   127856085.9600   99628116.6040
  95476963.9850
  23386680.140    23386681.640    23386683.140   122897879.3910   95764615.1790
  91774603.9570
  21271676.300    21271673.780                   111783433.8380   87103974.8720

  22366016.820    22366012.960                   117534208.3060   91585086.7180

  22822781.020    22822778.700                   119934733.5800   93455758.5780

  24316917.060    24316913.480                   127786258.0920   99573695.4430

 23  2 11  0 27 30.0000000  0  9G01G03G04G06G09G17G19G21G31
  21007694.380    21007695.200    21007695.560   110396349.6530   86023227.3700
  82438962.2960
  20485725.400    20485725.460    20485726.900   107653376.1250   83885869.5840
  80390753.1780
  21170453.160    21170452.440    21170456.980   111251799.5750   86689820.5330
  83077781.9580
  24312206.160    24312208.160    24312209.840   127761508.1780   99554419.6740
  95406337.7720
  23366112.940    23366114.460    23366116.120   122789799.0610   95680396.8490
  91693894.7500
  21268814.320    21268811.860                   111768393.8840   87092255.4190

  22351951.160    22351947.320                   117460292.7610   91527490.1940

  22835149.080    22835146.700                   119999727.8160   93506403.4070

  24315415.200    24315411.500                   127778363.4710   99567543.7710

 23  2 11  0 28  0.0000000  0  9G01G03G04G06G09G17G19G21G31
  21018158.540    21018159.380    21018159.720   110451339.0350   86066076.2170
  82480025.7650
  20490063.220    20490063.320    20490064.700   107676171.5650   83903632.2610
  80407775.7410
  21157694.000    21157693.220    21157697.980   111184749.9150   86637574.0630
  83027712.4330
  24294207.540    24294209.240    24294211.220   127666924.1610   99480717.8510
  95335706.8900
  23345580.520    23345582.060    23345583.880   122681900.8700   95596320.4430
  91613321.5580
  21266056.800    21266054.480                   111753903.1000   87080963.8910

  22337977.220    22337973.360                   117386859.0720   91470269.1450

  22847558.680    22847556.040                   120064940.0320   93557218.0910

  24314016.740    24314013.600                   127771015.0260   99561817.7290

 23  2 11  0 28 30.0000000  0  9G01G03G04G06G09G17G19G21G31
  21028689.000    21028689.880    21028690.200   110506676.8710   86109196.5960
  82521349.4630
  20494459.060    20494459.160    20494460.520   107699271.9020   83921632.5230
  80425025.9970
  21145023.040    21145022.220    21145027.180   111118163.8260   86585688.8190
  82977989.0800
  24276208.260    24276209.580    24276211.800   127572336.6360   99407013.3150
  95265073.3440
  23325083.600    23325085.100    23325086.780   122574188.7710   95512389.0350
  91532887.3140
  21263404.120    21263401.820                   111739963.2730   87070101.6790

  22324095.720    22324091.760                   117313911.0810   91413426.5640

  22860009.980    22860007.200                   120130371.8710   93608203.9160

  24312722.580    24312719.520                   127764215.3570   99556519.3080

 23  2 11  0 29  0.0000000  0  9G01G03G04G06G09G17G19G21G31
  21039285.580    21039286.460    21039286.900   110562362.2720   86152587.8090
  82562932.7130
  20498912.600    20498912.720    20498914.040   107722675.5650   83939869.1420
  80442502.7570
  21132440.560    21132439.800    21132444.760   111052042.5810   86534165.8020
  82928612.8690
  24258208.240    24258209.720    24258211.720   127477746.2210   99333306.5160
  95194437.6760
  23304622.300    23304623.900    23304625.480   122466664.5340   95428604.0220
  91452593.3760
  21260856.420    21260854.100                   111726575.0690   87059669.3080

  22310306.980    22310303.000                   117241450.9130   91356964.1220

  22872502.860    22872500.080                   120196022.5200   93659360.2510

  24311533.220    24311530.020                   127757965.1780   99551649.0470

 23  2 11  0 29 30.0000000  0  9G01G03G04G06G09G17G19G21G31
  21049948.080    21049948.980    21049949.460   110618393.9480   86196248.8420
  82604774.5240
  20503423.460    20503423.600    20503424.960   107746380.4340   83958340.4640
  80460204.4400
  21119946.700    21119946.000    21119950.880   110986386.9720   86483005.6140
  82879584.3570
  24240207.780    24240209.300    24240211.360   127383153.1790   99259597.6680
  95123800.0280
  23284196.900    23284198.600    23284200.180   122359329.5410   95344966.4860
  91372440.7350
  21258413.580    21258411.220                   111713737.9970   87049666.3960

  22296611.500    22296607.380                   117169480.4250   91300883.2240

  22885037.120    22885034.480                   120261890.6420   93710686.0200

  24310448.040    24310445.080                   127752264.1370   99547206.7430

 23  2 11  0 30  0.0000000  0  9G01G03G04G06G09G17G19G21G31
  21060676.100    21060677.040    21060677.460   110674770.0770   86240178.2700
  82646873.5630
  20507991.200    20507991.320    20507992.780   107770384.0090   83977044.5490
  80478129.1860
  21107541.520    21107540.880    21107545.560   110921197.3690   86432208.5470
  82830903.8370
  24222206.680    24222208.340    24222210.540   127288557.2040   99185886.5640
  95053160.2160
  23263807.840    23263809.460    23263811.080   122252184.6040   95261477.0190
  91292430.0330
  21256075.520    21256073.140                   111701451.4980   87040092.4840

  22283009.380    22283005.260                   117098000.8180   91245184.8230

  22897612.440    22897609.800                   120327974.4130   93762179.8450

  24309467.360    24309464.900                   127747111.6850   99543191.8370

 23  2 11  0 30 30.0000000  0  9G01G03G04G06G09G17G19G21G31
  21071469.980    21071470.900    21071471.420   110731492.5060   86284377.5450
  82689231.2020
  20512615.960    20512616.080    20512617.480   107794687.3760   83995982.2370
  80496277.8060
  21095225.780    21095225.200    21095229.700   110856477.6680   86381777.6420
  82782574.2240
  24204205.680    24204207.680    24204209.660   127193961.5650   99112175.7420
  94982520.7120
  23243455.840    23243457.300    23243458.860   122145234.2120   95178139.1270
  91212564.5690
  21253842.660    21253840.300                   111689717.6560   87030949.2260

  22269501.460    22269497.580                   117027016.6130   91189872.4700

  22910229.240    22910226.540                   120394275.8060   93813843.2470

  24308591.780    24308589.180                   127742510.8940   99539606.8050

 23  2 11  0 31  0.0000000  0  9G01G03G04G06G09G17G19G21G31
  21082330.060    21082331.020    21082331.440   110788562.5200   86328847.6630
  82731848.3950
  20517297.880    20517298.040    20517299.360   107819291.1840   84015154.0340
  80514650.7820
  21083000.120    21082999.520    21083003.960   110792231.3230   86331715.5840
  82734598.0900
  24186205.340    24186207.160    24186209.080   127099369.3550   99038467.5370
  94911883.6900
  23223141.400    23223143.000    23223144.320   122038482.3490   95094955.9530
  91132847.3730
  21251715.500    21251713.220                   111678539.3250   87022238.8240

  22256088.600    22256084.900                   116956531.8920   91134949.3060

  22922887.720    22922885.100                   120460796.5540   93865677.5740

  24307821.440    24307818.900                   127738464.2960   99536453.6440

 23  2 11  0 31 30.0000000  0  9G01G03G04G06G09G17G19G21G31
  21093255.800    21093256.800    21093257.200   110845977.6060   86373586.6740
  82774723.2810
  20522036.400    20522036.520    20522037.880   107844192.1570   84034557.3910
  80533245.6600
  21070864.420    21070863.780    21070868.320   110728457.8940   86282022.0310
  82686975.1060
  24168205.480    24168206.980    24168209.100   127004779.4970   98964761.1890
  94841248.4320
  23202864.940    23202866.560    23202867.960   121931929.2350   95011927.6470
  91053278.5990
  21249693.680    21249691.420                   111667914.5740   87013959.7950

  22242771.000    22242767.360                   116886547.2740   91080415.8640

  22935587.400    22935584.900                   120527534.1200   93917680.8350

  24307156.480    24307153.920                   127734970.7540   99533731.4510

 23  2 11  0 32  0.0000000  0  9G01G03G04G06G09G17G19G21G31
  21104247.280    21104248.300    21104248.680   110903738.0180   86418594.7690
  82817856.0340
  20526831.380    20526831.480    20526832.880   107869389.8650   84054191.9690
  80552062.1320
  21058819.180    21058818.500    21058823.140   110665159.7310   86232698.8140
  82639707.0370
  24150206.340    24150207.460    24150210.060   126910193.8430   98891058.1170
  94770616.3500
  23182626.860    23182628.380    23182630.160   121825577.7480   94929056.4630
  90973860.4100
  21247777.460    21247775.180                   111657844.7620   87006113.1800

  22229549.240    22229545.420                   116817065.9360   91026274.5660

  22948328.400    22948326.080                   120594488.7690   93969853.2490

  24306597.160    24306594.400                   127732031.5780   99531441.1960

 23  2 11  0 32 30.0000000  0  9G01G03G04G06G09G17G19G21G31
  21115304.000    21115305.060    21115305.400   110961841.3760   86463870.0930
  82861244.8810
  20531682.260    20531682.320    20531683.700   107894881.2280   84074055.3680
  80571097.8880
  21046864.320    21046863.600    21046868.300   110602336.5490   86183745.7080
  82592793.6490
  24132207.840    24132209.060    24132211.300   126815611.6180   98817357.7600
  94699986.8430
  23162427.300    23162428.640    23162430.540   121719428.2130   94846342.6110
  90894593.0000
  21245966.560    21245964.280                   111648328.3370   86998697.7800

  22216423.340    22216419.280                   116748088.6060   90972525.9970

  22961110.300    22961107.980                   120661657.8670   94022192.7800

  24306143.140    24306140.520                   127729645.4060   99529581.8940

 23  2 11  0 33  0.0000000  0  9G01G03G04G06G09G17G19G21G31
  21126426.440    21126427.500    21126427.880   111020290.0380   86509414.4850
  82904891.5850
  20536589.300    20536589.340    20536590.680   107920667.9650   84094148.9300
  80590354.2200
  21035000.660    21034999.900    21035004.660   110539992.7970   86135166.1870
  82546238.2830
  24114210.760    24114212.060    24114214.040   126721036.8530   98743663.1530
  94629362.8750
  23142266.980    23142268.360    23142270.200   121613485.7200   94763790.1030
  90815480.1940
  21244261.560    21244259.240                   111639368.2910   86991715.9120

  22203394.220    22203390.160                   116679620.4490   90919174.2010

  22973933.520    22973931.220                   120729043.9600   94074701.3910

  24305794.860    24305792.180                   127727815.9260   99528156.3480

 23  2 11  0 33 30.0000000  0  9G01G03G04G06G09G17G19G21G31
  21137614.100    21137615.060    21137615.600   111079081.4120   86555225.9350
  82948794.2170
  20541551.960    20541551.980    20541553.340   107946746.7700   84114470.0750
  80609828.6480
  21023228.120    21023227.360    21023232.140   110478127.9420   86086959.8330
  82500040.5200
  24096215.140    24096216.400    24096218.120   126626468.6790   98669973.6470
  94558743.7670
  23122146.040    23122147.520    23122149.260   121507750.2500   94681398.9240
  90736522.0100
  21242662.100    21242659.760                   111630962.8930   86985166.2490

  22190462.020    22190457.900                   116611661.8100   90866219.4210

  22986797.560    22986795.320                   120796644.6600   94127377.2340

  24305552.520    24305549.900                   127726541.5740   99527163.3080

 23  2 11  0 34  0.0000000  0  9G01G03G04G06G09G17G19G21G31
  21148867.240    21148868.180    21148868.660   111138216.9310   86601305.5290
  82992953.8300
  20546570.320    20546570.340    20546571.720   107973118.4590   84135019.4400
  80629521.7900
  21011547.440    21011546.640    21011551.400   110416745.4620   86039129.3580
  82454202.9910
  24078221.220    24078222.480    24078224.060   126531910.0970   98596291.6430
  94488131.8460
  23102065.380    23102066.740    23102068.260   121402226.0790   94599172.3670
  90657721.5730
  21241168.640    21241166.260                   111623114.6630   86979050.7310

  22177627.520    22177623.620                   116544216.6960   90813664.7950

  22999702.660    22999700.380                   120864461.4340   94180221.4490

  24305416.020    24305413.840                   127725824.8500   99526604.8450

 23  2 11  0 34 30.0000000  0  9G01G03G04G06G09G17G19G21G31
  21160185.740    21160186.560    21160187.100   111197695.9470   86647652.8040
  83037369.9650
  20551644.160    20551644.180    20551645.600   107999781.6920   84155795.9850
  80649432.6480
  20999958.800    20999957.980    20999962.740   110355846.7750   85991675.8540
  82408726.7180
  24060229.320    24060230.640    24060232.160   126437362.1270   98522617.9220
  94417527.8410
  23082025.380    23082026.560    23082028.140   121296915.2000   94517112.0130
  90579080.4280
  21239781.180    21239778.780                   111615823.5990   86973369.3740

  22164891.340    22164887.500                   116477287.5130   90761512.1910

  23012648.620    23012646.460                   120932493.5590   94233233.4600

  24305385.820    24305383.820                   127725666.2770   99526481.2910

 23  2 11  0 35  0.0000000  0  9G01G03G04G06G09G17G19G21G31
  21171569.160    21171570.060    21171570.540   111257516.4540   86694266.1700
  83082041.0910
  20556772.980    20556773.020    20556774.440   108026733.8540   84176797.6680
  80669559.2590
  20988462.220    20988461.420    20988466.200   110295431.8910   85944599.3480
  82363611.7330
  24042239.320    24042240.800    24042242.480   126342824.3960   98448952.2280
  94346931.5420
  23062026.120    23062027.220    23062028.900   121191818.2820   94435218.3930
  90500599.0680
  21238499.480    21238497.200                   111609088.3960   86968121.1570

  22152253.540    22152249.700                   116410875.0350   90709762.2140

  23025635.340    23025633.380                   121000739.5910   94286412.1430

  24305461.740    24305459.660                   127726064.9450   99526791.9560

 23  2 11  0 35 30.0000000  0  9G01G03G04G06G09G17G19G21G31
  21183017.920    21183018.860    21183019.320   111317680.2910   86741147.0610
  83126968.6140
  20561957.020    20561957.080    20561958.600   108053976.2000   84198025.4680
  80689902.5630
  20977058.420    20977057.660    20977062.520   110235504.7440   85897902.8900
  82318860.9740
  24024252.100    24024253.540    24024255.300   126248300.7410   98375297.4360
  94276345.7170
  23042068.400    23042069.680    23042071.040   121086939.9890   94353495.1240
  90422280.9500
  21237324.220    21237322.000                   111602912.2310   86963308.5540

  22139715.000    22139711.080                   116344984.3100   90658418.7840

  23038663.260    23038661.220                   121069201.1440   94339758.7690

  24305644.040    24305641.920                   127727023.8030   99527539.1300

 23  2 11  0 36  0.0000000  0  9G01G03G04G06G09G17G19G21G31
  21194531.640    21194532.600    21194532.980   111378185.2480   86788293.7600
  83172150.8710
  20567195.740    20567195.780    20567197.320   108081505.8410   84219477.1410
  80710460.4160
  20965747.380    20965746.620    20965751.520   110176065.1430   85851586.3360
  82274474.2670
  24006267.400    24006268.760    24006270.680   126153790.5540   98301653.1590
  94205769.9460
  23022152.400    23022153.720    23022154.740   120982280.7630   94271942.5600
  90344126.4100
  21236255.020    21236252.820                   111597293.5130   86958930.3220

  22127275.700    22127271.880                   116279615.6360   90607482.1570

  23051731.660    23051729.420                   121137875.2560   94393271.0420

  24305932.920    24305930.700                   127728541.4730   99528721.7580

 23  2 11  0 36 30.0000000  0  9G01G03G04G06G09G17G19G21G31
  21206110.300    21206111.280    21206111.520   111439031.0760   86835706.0750
  83217587.6630
  20572488.960    20572488.980    20572490.540   108109321.9000   84241151.9880
  80731232.1480
  20954529.420    20954528.640    20954533.640   110117114.7720   85805651.0030
  82230452.9280
  23988285.400    23988287.060    23988288.920   126059295.1900   98228020.4910
  94135205.3180
  23002278.500    23002279.780    23002280.640   120877843.0580   94190562.5990
  90266137.2910
  21235291.880    21235289.620                   111592232.0550   86954986.3180

  22114936.300    22114932.480                   116214771.8490   90556954.5290

  23064840.740    23064838.360                   121206763.7370   94446950.3490

  24306328.400    24306325.880                   127730618.9170   99530340.5360

 23  2 11  0 37  0.0000000  0  9G01G03G04G06G09G17G19G21G31
  21217754.000    21217754.880    21217755.080   111500218.6070   86883384.6540
  83263279.6390
  20577836.740    20577836.800    20577838.360   108137424.6940   84263050.2670
  80752218.0030
  20943405.160    20943404.380    20943409.320   110058656.5990   85760099.2000
  82186799.1210
  23970306.960    23970308.420    23970310.380   125964817.4740   98154401.5290
  94064653.8250
  22982447.420    22982448.600    22982449.720   120773630.4710   94109358.0640
  90188316.2930
  21234435.220    21234432.840                   111587730.1550   86951478.3320

  22102697.460    22102693.620                   116150456.4470   90506838.6450

  23077990.480    23077988.020                   121275866.3660   94500796.5300

  24306830.800    24306828.200                   127733257.9380   99532396.9530

 23  2 11  0 37 30.0000000  0  9G01G03G04G06G09G17G19G21G31
  21229462.100    21229462.900    21229463.220   111561745.1580   86931327.4120
  83309224.7700
  20583238.440    20583238.500    20583240.160   108165810.8590   84285169.3560
  80773415.4620
  20932374.480    20932373.660    20932378.480   110000689.8400   85714930.3170
  82143512.2690
  23952331.740    23952332.980    23952335.140   125870356.3700   98080795.4550
  93994114.7020
  22962659.260    22962660.340    22962661.740   120669643.0220   94028328.9450
  90110663.4110
  21233684.580    21233682.260                   111583785.4810   86948404.5500

  22090559.280    22090555.380                   116086669.8230   90457134.7990

  23091180.520    23091178.020                   121345180.1440   94554807.2420

  24307439.420    24307436.940                   127736456.6750   99534889.4880

 23  2 11  0 38  0.0000000  0  9G01G03G04G06G09G17G19G21G31
  21241235.220    21241236.100    21241236.440   111623613.0720   86979536.1570
  83355424.8210
  20588694.440    20588694.520    20588696.160   108194482.2240   84307510.6780
  80794825.8910
  20921438.140    20921437.280    20921442.000   109943218.8700   85670147.7600
  82100595.6570
  23934360.320    23934361.540    23934363.640   125775916.0620   98007205.6580
  93923591.1410
  22942914.780    22942915.800    22942917.260   120565885.8080   93947479.2300
  90033182.4510
  21233040.580    21233038.300                   111580401.2100   86945767.4430

  22078522.720    22078518.800                   116023417.1890   90407847.0320

  23104411.400    23104408.800                   121414708.1100   94608984.8520

  24308155.280    24308152.580                   127740218.6710   99537820.9320

 23  2 11  0 38 30.0000000  0  9G01G03G04G06G09G17G19G21G31
  21253072.740    21253073.560    21253073.940   111685819.6860   87028008.8210
  83401877.7840
  20594204.060    20594204.160    20594205.760   108223435.5280   84330071.6940
  80816446.8630
  20910596.020    20910595.140    20910599.880   109886243.0050   85625751.0010
  82058048.7690
  23916392.980    23916393.700    23916395.940   125681495.8150   97933631.4340
  93853082.5250
  22923214.240    22923215.260    22923216.700   120462358.9390   93866809.0050
  89955873.5000
  21232502.900    21232500.660                   111577575.6610   86943565.7080

  22066587.800    22066583.820                   115960698.6720   90358975.4640

  23117682.500    23117679.900                   121484447.8490   94663327.4850

  24308977.860    24308975.300                   127744542.1680   99541189.8960

 23  2 11  0 39  0.0000000  0  9G01G03G04G06G09G17G19G21G31
  21264974.980    21264975.800    21264976.220   111748366.3480   87076746.4630
  83448584.6840
  20599767.480    20599767.640    20599769.140   108252671.5610   84352853.0120
  80838278.9690
  20899848.700    20899847.780    20899852.620   109829765.5470   85581742.6000
  82015874.0590
  23898429.880    23898430.360    23898432.760   125587098.7200   97860075.2420
  93782591.2340
  22903558.320    22903559.240    22903561.000   120359066.4740   93786321.4310
  89878739.6030
  21232071.920    21232069.620                   111575310.9220   86941800.9600

  22054755.240    22054751.340                   115898518.5090   90310523.3860

  23130993.940    23130991.440                   121554400.2320   94717835.7990

  24309907.580    24309905.600                   127749429.4950   99544998.2640

 23  2 11  0 39 30.0000000  0  9G01G03G04G06G09G17G19G21G31
  21276941.460    21276942.440    21276942.780   111811250.6850   87125747.2250
  83495543.7510
  20605384.160    20605384.300    20605385.840   108282187.4320   84375852.3860
  80860320.0260
  20889196.120    20889195.240    20889200.140   109773786.0610   85538122.2410
  81974071.2170
  23880470.820    23880471.640    23880473.440   125492724.2740   97786536.7470
  93712116.8300
  22883947.020    22883947.940    22883950.060   120256008.7810   93706016.7900
  89801781.0080
  21231747.300    21231744.960                   111573604.9960   86940471.6610

  22043025.220    22043021.420                   115836876.9380   90262491.0050

  23144345.300    23144342.940                   121624562.7730   94772507.8590

  24310944.680    24310942.720                   127754879.3080   99549244.8680

 23  2 11  0 40  0.0000000  0  9G01G03G04G06G09G17G19G21G31
  21288972.620    21288973.620    21288973.880   111874475.0310   87175012.9340
  83542756.7170
  20611054.440    20611054.600    20611056.080   108311984.8830   84399071.1810
  80882571.3750
  20878639.140    20878638.260    20878643.200   109718308.8670   85494893.2800
  81932643.4680
  23862516.960    23862518.020    23862519.120   125398376.6860   97713019.1710
  93641662.4520
  22864381.340    22864382.280    22864384.640   120153190.9640   93625899.0720
  89725001.5420
  21231529.640    21231527.320                   111572461.0300   86939580.2480

  22031398.720    22031395.000                   115775779.1260   90214882.3240

  23157737.280    23157734.940                   121694938.1630   94827345.7950

  24312089.340    24312087.060                   127760894.6630   99553932.1930

 23  2 11  0 40 30.0000000  0  9G01G03G04G06G09G17G19G21G31
  21301067.720    21301068.720    21301068.980   111938035.1080   87224540.2450
  83590220.3830
  20616777.380    20616777.540    20616779.060   108342059.1310   84422505.6490
  80905029.4040
  20868177.300    20868176.420    20868181.300   109663331.6030   85452053.8750
  81891589.0410
  23844567.460    23844568.960    23844570.060   125304053.5810   97639520.7270
  93571226.3910
  22844860.980    22844862.080    22844864.200   120050611.4420   93545967.0410
  89648400.0240
  21231418.160    21231415.880                   111571875.1250   86939123.6870

  22019875.420    22019871.660                   115715223.5470   90167696.1650

  23171169.260    23171166.700                   121765522.8400   94882346.8260

  24313341.080    24313338.700                   127767472.1390   99559057.5310

 23  2 11  0 41  0.0000000  0  9G01G03G04G06G09G17G19G21G31
  21313227.100    21313228.000    21313228.300   112001932.5950   87274330.4800
  83637936.0200
  20622553.220    20622553.360    20622554.900   108372411.3640   84446156.7390
  80927695.0290
  20857811.320    20857810.420    20857815.240   109608857.9000   85409606.8510
  81850910.6460
  23826623.600    23826625.300    23826626.880   125209758.5150   97566044.1200
  93500811.3370
  22825386.920    22825388.020    22825390.020   119948274.7600   93466224.2330
  89571979.8310
  21231413.380    21231411.120                   111571849.9430   86939104.0600

  22008456.220    22008452.260                   115655214.8570   90120936.1450

  23184641.260    23184638.660                   121836318.1450   94937511.9670

  24314700.220    24314697.400                   127774614.2390   99564622.7730

 23  2 11  0 41 30.0000000  0  9G01G03G04G06G09G17G19G21G31
  21325450.520    21325451.380    21325451.780   112066166.9320   87324383.1920
  83685903.2000
  20628381.780    20628381.900    20628383.420   108403040.5090   84470023.6010
  80950567.4400
  20847541.420    20847540.520    20847545.320   109554889.1140   85367553.2650
  81810609.2960
  23808685.620    23808687.100    23808689.040   125115492.9400   97492590.4500
  93430418.2580
  22805959.400    22805960.560    22805962.620   119846183.0610   93386672.3210
  89495742.6060
  21231515.260    21231512.980                   111572385.3650   86939521.2640

  21997141.460    21997137.400                   115595755.3790   90074604.0900

  23198153.140    23198150.620                   121907323.5090   94992840.7670

  24316166.900    24316163.920                   127782321.2030   99570628.2260

 23  2 11  0 42  0.0000000  0  9G01G03G04G06G09G17G19G21G31
  21337737.460    21337738.500    21337738.820   112130735.6900   87374696.4970
  83734120.1160
  20634262.440    20634262.600    20634264.180   108433943.5940   84494103.9240
  80973644.4170
  20837367.480    20837366.560    20837371.400   109501424.7010   85325892.6980
  81770684.5940
  23790753.040    23790754.420    23790756.620   125021256.3570   97419159.3720
  93360046.8110
  22786578.700    22786579.820    22786581.920   119744336.6580   93307311.5330
  89419688.5310
  21231723.500    21231721.220                   111573479.6290   86940373.9210

  21985931.260    21985927.400                   115536845.5570   90028700.3470

  23211704.580    23211702.140                   121978536.9830   95048331.7430

  24317740.920    24317737.700                   127790591.9930   99577073.0100

 23  2 11  0 42 30.0000000  0  9G01G03G04G06G09G17G19G21G31
  21350088.560    21350089.700    21350089.820   112195641.3240   87425272.2960
  83782588.5930
  20640195.660    20640195.780    20640197.400   108465122.6520   84518399.2880
  80996927.4760
  20827290.320    20827289.420    20827294.320   109448469.0520   85284628.5760
  81731139.8120
  23772827.040    23772828.040    23772830.740   124927053.1800   97345754.3200
  93289700.3260
  22767245.660    22767246.640    22767248.780   119642740.8470   93228146.0290
  89343821.6020
  21232038.640    21232036.480                   111575135.7850   86941664.4240

  21974826.500    21974822.780                   115478490.0010   89983228.4910

  23225296.140    23225293.720                   122049960.7080   95103986.5630

  24319422.200    24319419.780                   127799429.3920   99583959.2880

 23  2 11  0 43  0.0000000  0  9G01G03G04G06G09G17G19G21G31
  21362503.260    21362504.400    21362504.580   112260881.0890   87476108.4660
  83831306.5800
  20646180.760    20646180.840    20646182.420   108496574.4260   84542907.1620
  81020414.1860
  20817309.800    20817308.940    20817313.880   109396021.2860   85243760.2040
  81691974.2900
  23754907.020    23754907.820    23754910.860   124832882.6050   97272374.6410
  93219378.2000
  22747960.240    22747961.260    22747963.160   119541395.5830   93149175.7490
  89268141.7620
  21232460.260    21232458.100                   111577351.3890   86943390.8530

  21963827.400    21963823.660                   115420689.1540   89938188.8780

  23238927.380    23238924.760                   122121592.4220   95159803.4540

  24321211.480    24321209.000                   127808831.6220   99591285.7390

 23  2 11  0 43 30.0000000  0  9G01G03G04G06G09G17G19G21G31
  21374981.560    21374982.780    21374983.000   112326454.9900   87527204.9960
  83880274.0800
  20652217.640    20652217.740    20652219.240   108528298.4730   84567627.1930
  81044104.2140
  20807426.260    20807425.480    20807430.440   109344083.3110   85203289.0730
  81653189.4550
  23736993.500    23736994.520    23736996.960   124738746.6900   97199022.0170
  93149081.9320
  22728723.060    22728724.060    22728726.000   119440303.6860   93070402.8930
  89192651.1290
  21232988.440    21232986.200                   111580126.9600   86945553.6270

  21952934.420    21952930.580                   115363445.8820   89893583.7250

  23252598.060    23252595.380                   122193431.8650   95215782.2120

  24323108.360    24323105.700                   127818799.3530   99599052.8010

 23  2 11  0 44  0.0000000  0  9G01G03G04G06G09G17G19G21G31
  21387523.560    21387524.760    21387524.960   112392363.5110   87578562.2660
  83929491.4620
  20658306.360    20658306.420    20658307.940   108560294.8340   84592559.4180
  81067997.5920
  20797640.180    20797639.420    20797644.400   109292657.4440   85163216.9900
  81614787.0470
  23719086.880    23719088.200    23719090.120   124644647.9160   97125698.3130
  93078813.4230
  22709534.660    22709535.800    22709537.720   119339468.4070   92991830.0140
  89117352.1280
  21233623.480    21233621.100                   111583464.0070   86948153.9110

  21942148.080    21942144.040                   115306763.2480   89849415.4410

  23266308.300    23266305.640                   122265480.0250   95271923.6090

  24325112.980    24325110.620                   127829334.0220   99607261.6290

 23  2 11  0 44 30.0000000  0  9G01G03G04G06G09G17G19G21G31
  21400128.620    21400129.880    21400130.360   112458603.7010   87630177.9720
  83978956.5190
  20664446.220    20664446.300    20664447.740   108592560.0820   84617701.1650
  81092091.7710
  20787951.400    20787950.620    20787955.540   109241742.5960   85123543.0980
  81576766.2410
  23701187.040    23701188.940    23701190.440   124550585.3420   97052402.8530
  93008571.9460
  22690395.140    22690396.180    22690398.120   119238889.6220   92913456.9880
  89042244.6570
  21234364.840    21234362.460                   111587359.8460   86951189.6240

  21931468.240    21931464.240                   115250640.8490   89805683.7120

  23280057.540    23280055.080                   122337733.9200   95328225.2980

  24327225.320    24327222.560                   127840433.2200   99615910.4090

 23  2 11  0 45  0.0000000  0  9G01G03G04G06G09G17G19G21G31
  21412797.580    21412798.720    21412799.420   112525179.0990   87682054.8930
  84028671.8920
  20670637.860    20670637.960    20670639.360   108625097.3560   84643054.8810
  81116389.0780
  20778360.940    20778360.080    20778364.920   109191344.1890   85084271.6250
  81539131.0740
  23683295.260    23683297.380    23683297.780   124456564.5550   96979139.9520
  92938361.5820
  22671305.580    22671306.520    22671308.520   119138573.5800   92835288.6870
  88967333.3970
  21235213.380    21235211.040                   111591818.7830   86954664.1060

  21920896.320    21920892.360                   115195085.1340   89762393.5510

  23293846.700    23293844.380                   122410197.0470   95384690.0250

  24329445.680    24329442.760                   127852101.0910   99625002.2770

 23  2 11  0 45 30.0000000  0  9G01G03G04G06G09G17G19G21G31
  21425529.140    21425530.100    21425530.800   112592083.7750   87734188.3910
  84078633.1570
  20676880.060    20676880.160    20676881.640   108657900.2890   84668615.6080
  81140884.7730
  20768867.940    20768867.000    20768871.820   109141458.0580   85045399.3270
  81501878.4640
  23665411.000    23665413.160    23665413.920   124362581.7430   96905906.6580
  92868179.6590
  22652265.420    22652266.420    22652268.220   119038517.1610   92757322.7050
  88892616.0060
  21236168.000    21236165.680                   111596835.1660   86958572.9680

  21910431.700    21910427.860                   115140092.9060   89719542.4760

  23307674.620    23307672.340                   122482863.4700   95441313.1890

  24331772.980    24331770.260                   127864332.4750   99634533.2630

 23  2 11  0 46  0.0000000  0  9G01G03G04G06G09G17G19G21G31
  21438324.180    21438325.180    21438325.720   112659322.2030   87786581.9530
  84128843.6600
  20683173.560    20683173.700    20683175.180   108690972.9490   84694386.5100
  81165581.8870
  20759473.660    20759472.600    20759477.440   109092090.5790   85006931.1780
  81465013.1540
  23647535.180    23647537.160    23647538.280   124268643.4300   96832708.0260
  92798030.9430
  22633276.140    22633277.000    22633278.880   118938727.6420   92679564.6820
  88818097.9120
  21237229.600    21237227.340                   111602414.0040   86962920.1040

  21900075.720    21900071.900                   115085671.2650   89677135.9990

  23321542.360    23321539.920                   122555737.8530   95498098.3980

  24334209.020    24334205.940                   127877132.8840   99644507.6060

 23  2 11  0 46 30.0000000  0  9G01G03G04G06G09G17G19G21G31
  21451181.820    21451182.800    21451183.360   112726889.2580   87839231.5870
  84179299.5570
  20689517.360    20689517.500    20689518.980   108724309.8510   84720363.3130
  81190476.3190
  20750177.400    20750176.340    20750181.180   109043238.4190   84968864.5720
  81428532.6630
  23629667.420    23629668.960    23629670.940   124174746.7220   96759541.7640
  92727913.2980
  22614337.220    22614338.000    22614339.760   118839202.7230   92602012.8430
  88743777.3930
  21238397.360    21238395.060                   111608550.6660   86967701.9080

  21889827.840    21889824.000                   115031818.0370   89635172.4530

  23335448.620    23335446.120                   122628815.0040   95555041.6130

  24336752.260    24336749.140                   127890498.0290   99654922.0110

 23  2 11  0 47  0.0000000  0  9G01G03G04G06G09G17G19G21G31
  21464102.340    21464103.300    21464103.860   112794787.0220   87892138.9220
  84230002.4120
  20695911.720    20695911.880    20695913.300   108757912.6130   84746547.2770
  81215569.2870
  20740979.900    20740978.900    20740983.760   108994905.4270   84931202.5170
  81392439.8620
  23611808.120    23611809.620    23611812.140   124080895.6640   96686411.1310
  92657829.7830
  22595449.560    22595450.240    22595452.300   118739947.2470   92524670.9570
  88669658.1110
  21239671.840    21239669.460                   111615247.6680   86972920.3430

  21879688.860    21879684.980                   114978537.7480   89593655.3460

  23349393.920    23349391.540                   122702097.5110   95612144.8140

  24339403.260    24339400.440                   127904430.2550   99665778.2760

 23  2 11  0 47 30.0000000  0  9G01G03G04G06G09G17G19G21G31
  21477085.720    21477086.760    21477087.240   112863014.6170   87945303.2650
  84280951.5680
  20702356.460    20702356.600    20702358.020   108791780.0320   84772937.4690
  81240859.8880
  20731881.380    20731880.460    20731885.320   108947092.5390   84893945.7350
  81356735.4500
  23593957.840    23593958.720    23593961.720   123987091.5680   96613317.0070
  92587781.3030
  22576613.540    22576614.120    22576616.260   118640963.1440   92447540.5280
  88595741.4630
  21241052.820    21241050.440                   111622504.4150   86978574.9320

  21869659.240    21869655.200                   114925832.2800   89552586.1520

  23363378.100    23363375.880                   122775584.5660   95669407.3960

  24342162.380    24342159.580                   127918929.1980   99677076.1820

 23  2 11  0 48  0.0000000  0  9G01G03G04G06G09G17G19G21G31
  21490131.760    21490132.920    21490133.320   112931571.7960   87998724.4290
  84332146.8550
  20708851.480    20708851.560    20708853.020   108825911.5130   84799533.4310
  81266347.6790
  20722882.140    20722881.280    20722886.060   108899801.3010   84857095.4320
  81321420.5760
  23576116.660    23576117.580    23576120.940   123893336.3490   96540261.0110
  92517769.3590
  22557829.580    22557830.260    22557832.280   118542252.9680   92370623.5590
  88522029.3660
  21242540.300    21242537.960                   111630321.3640   86984666.0490

  21859739.460    21859735.320                   114873703.6550   89511966.4510

  23377401.120    23377398.900                   122849275.6840   95726829.0020

  24345029.140    24345026.580                   127933995.4340   99688816.1500

 23  2 11  0 48 30.0000000  0  9G01G03G04G06G09G17G19G21G31
  21503240.160    21503241.380    21503241.760   113000456.8980   88052401.1070
  84383587.0000
  20715396.300    20715396.420    20715397.820   108860304.9900   84826333.5450
  81292031.1270
  20713982.220    20713981.320    20713986.000   108853031.7690   84820651.6550
  81286495.2960
  23558285.000    23558286.020    23558289.300   123799630.5320   96467243.5020
  92447794.2840
  22539097.940    22539098.600    22539100.720   118443817.7930   92293920.8680
  88448522.6480
  21244134.060    21244131.780                   111638697.0150   86991192.5230

  21849929.680    21849925.560                   114822153.1050   89471797.1890

  23391462.740    23391460.420                   122923169.7090   95784408.7310

  24348004.000    24348001.560                   127949628.0090   99700997.3460

 23  2 11  0 49  0.0000000  0  9G01G03G04G06G09G17G19G21G31
  21516410.980    21516412.220    21516412.700   113069670.3320   88106333.6330
  84435272.3370
  20721991.020    20721991.200    20721992.560   108894960.5910   84853337.9050
  81317910.2990
  20705182.020    20705181.020    20705185.680   108806786.2010   84784616.1600
  81251961.2830
  23540463.120    23540464.240    23540467.100   123705976.7060   96394266.5210
  92377858.0180
  22520419.320    22520419.960    22520422.020   118345660.9770   92217435.0810
  88375223.7700
  21245834.340    21245832.120                   111647632.5020   86998155.2350

  21840230.480    21840226.420                   114771183.6700   89432080.7500

  23405562.960    23405560.520                   122997267.0390   95842146.8770

  24351086.720    24351084.440                   127965827.9670   99713620.7350

 23  2 11  0 49 30.0000000  0  9G01G03G04G06G09G17G19G21G31
  21529643.700    21529644.940    21529645.260   113139208.6260   88160519.3070
  84487200.2630
  20728634.880    20728635.120    20728636.460   108929874.4340   84880543.4930
  81343982.3190
  20696481.120    20696480.040    20696484.800   108761062.7730   84748987.5310
  81217817.1830
  23522651.200    23522652.620    23522654.720   123612373.6570   96321329.1350
  92307959.6410
  22501793.440    22501794.100    22501796.120   118247781.7190   92141165.5760
  88302132.1650
  21247640.600    21247638.360                   111657124.3730   87005551.4920

  21830641.720    21830637.860                   114720794.6170   89392816.5650

  23419701.300    23419698.820                   123071564.5570   95900041.0180

  24354276.440    24354274.580                   127982592.1130   99726683.7120

 23  2 11  0 50  0.0000000  0  9G01G03G04G06G09G17G19G21G31
  21542938.780    21542940.160    21542940.340   113209074.8880   88214960.5230
  84539373.0950
  20735328.460    20735328.660    20735330.040   108965049.3920   84907952.5510
  81370249.3320
  20687880.520    20687879.400    20687884.280   108715866.4070   84713769.5980
  81184066.6660
  23504849.800    23504851.040    23504852.720   123518826.6290   96248435.3780
  92238103.1220
  22483221.540    22483222.220    22483224.340   118150186.0090   92065117.0100
  88229252.3250
  21249553.480    21249551.220                   111667176.3440   87013384.1850

  21821164.640    21821160.760                   114670991.9180   89354009.2670

  23433878.380    23433876.020                   123146065.6520   95958093.7870

  24357574.740    24357572.840                   127999924.5760   99740189.5580

 23  2 11  0 50 30.0000000  0  9G01G03G04G06G09G17G19G21G31
  21556295.900    21556297.220    21556297.460   113279266.9460   88269655.6140
  84591789.2150
  20742071.240    20742071.420    20742072.900   109000482.9190   84935563.0940
  81396709.4350
  20679380.080    20679379.020    20679383.980   108671196.5900   84678961.9630
  81150709.3560
  23487059.260    23487060.600    23487061.700   123425335.7860   96175585.3760
  92168288.5120
  22464703.780    22464704.420    22464706.480   118052874.4680   91989289.8720
  88156584.6480
  21251572.600    21251570.320                   111677786.5280   87021651.8490

  21811799.100    21811795.200                   114621775.2870   89315658.6440

  23448093.600    23448091.340                   123220767.5360   96016303.0130

  24360980.860    24360978.560                   128017823.2610   99754136.5790

 23  2 11  0 51  0.0000000  0  9G01G03G04G06G09G17G19G21G31
  21569714.980    21569716.200    21569716.440   113349784.7000   88324604.5000
  84644448.5570
  20748863.140    20748863.320    20748864.840   109036174.6660   84963374.8380
  81423362.3560
  20670980.140    20670979.180    20670984.140   108627054.9570   84644565.9030
  81117746.4660
  23469279.480    23469280.920    23469282.460   123331903.2390   96102780.8540
  92098517.5320
  22446240.540    22446241.200    22446243.020   117955849.7820   91913686.2690
  88084131.2010
  21253697.920    21253695.640                   111688954.9740   87030354.5250

  21802545.620    21802541.740                   114573148.0370   89277767.2840

  23462346.980    23462345.060                   123295670.4600   96074668.8660

  24364494.720    24364492.640                   128036288.7730   99768525.2980

 23  2 11  0 51 30.0000000  0  9G01G03G04G06G09G17G19G21G31
  21583195.360    21583196.600    21583196.860   113420624.8460   88379804.5820
  84697348.6380
  20755703.520    20755703.660    20755705.260   109072121.0240   84991384.9830
  81450205.4100
  20662680.420    20662679.540    20662684.420   108583439.8860   84610580.1480
  81085176.7840
  23451510.840    23451512.120    23451513.360   123238528.0530   96030020.9440
  92028789.2680
  22427831.740    22427832.420    22427834.300   117859111.4840   91838305.8190
  88011891.6160
  21255928.920    21255926.580                   111700678.8950   87039490.0360

  21793404.040    21793400.040                   114525108.7910   89240334.1010

  23476638.260    23476636.380                   123370771.4620   96133189.0910

  24368116.000    24368113.880                   128055318.3750   99783353.5550

 23  2 11  0 52  0.0000000  0  9G01G03G04G06G09G17G19G21G31
  21596737.600    21596738.680    21596739.120   113491789.8240   88435257.7980
  84750491.2950
  20762592.780    20762592.900    20762594.500   109108324.1610   85019595.2220
  81477240.2210
  20654481.780    20654480.880    20654485.740   108540355.5420   84577007.9450
  81053003.4280
  23433753.600    23433755.440    23433757.100   123145214.8190   95957309.4360
  91959107.3980
  22409478.480    22409479.220    22409481.000   117762664.8480   91763152.6450
  87939869.8340
  21258266.160    21258263.860                   111712961.2030   87049060.6550

  21784375.340    21784371.200                   114477662.5680   89203363.0310

  23490967.760    23490965.640                   123446072.7970   96191865.4390

  24371844.900    24371843.080                   128074914.8470   99798623.5720

 23  2 11  0 52 30.0000000  0  9G01G03G04G06G09G17G19G21G31
  21610341.160    21610342.180    21610342.600   113563276.9060   88490962.0050
  84803874.4960
  20769530.320    20769530.460    20769532.140   109144781.1040   85048003.2210
  81504464.5510
  20646383.920    20646382.980    20646387.900   108497800.8540   84543848.4570
  81021225.5920
  23416008.300    23416009.580    23416011.640   123051963.2300   95884645.8150
  91889471.4770
  22391180.760    22391181.560    22391183.380   117666509.9510   91688226.7920
  87868065.9100
  21260709.120    21260706.880                   111725799.0080   87059064.1310

  21775459.520    21775455.260                   114430809.3290   89166854.0130

  23505335.000    23505332.820                   123521572.3060   96250696.1850

  24375681.540    24375679.500                   128095076.0900   99814333.6480

 23  2 11  0 53  0.0000000  0  9G01G03G04G06G09G17G19G21G31
  21624006.040    21624007.120    21624007.680   113635086.5640   88546917.5500
  84857498.5580
  20776516.200    20776516.380    20776518.040   109181492.0540   85076609.1500
  81531878.5640
  20638387.220    20638386.240    20638391.140   108455777.9400   84511103.3470
  80989844.8630
  23398275.440    23398276.940    23398278.860   122958776.0300   95812032.4880
  91819883.6930
  22372939.160    22372940.020    22372941.820   117570650.0510   91613530.8130
  87796482.2710
  21263258.020    21263255.780                   111739193.3570   87069501.2660

  21766657.080    21766652.760                   114384552.0290   89130809.3500

  23519739.980    23519737.820                   123597270.2360   96309681.5570

  24379625.680    24379623.420                   128115803.0900   99830484.5430

 23  2 11  0 53 30.0000000  0  9G01G03G04G06G09G17G19G21G31
  21637735.080    21637736.060    21637736.640   113707232.7440   88603135.3400
  84911373.9360
  20783553.040    20783553.220    20783554.840   109218470.7000   85105423.6720
  81559492.4870
  20630494.660    20630493.640    20630498.560   108414302.4000   84478784.7580
  80958872.8860
  23380557.880    23380558.860    23380561.260   122865669.5840   95739481.9600
  91750356.1670
  22354756.980    22354757.820    22354759.580   117475101.9560   91539077.7990
  87725131.4750
  21265915.440    21265913.200                   111753158.3200   87080383.0450

  21757971.120    21757966.980                   114338907.2740   89095242.0040

  23534185.300    23534183.280                   123673181.0650   96368832.7980

  24383680.260    24383678.040                   128137110.2170   99847087.4910

 23  2 11  0 54  0.0000000  0  9G01G03G04G06G09G17G19G21G31
  21651521.780    21651522.700    21651523.340   113779682.0470   88659589.3200
  84965475.6570
  20790634.420    20790634.560    20790636.200   109255683.4770   85134420.6390
  81587281.2430
  20622700.260    20622699.200    20622704.100   108373342.5040   84446867.9660
  80928285.9620
  23362849.980    23362851.000    23362852.980   122772612.8540   95666970.2480
  91680865.7450
  22336628.280    22336629.040    22336630.840   117379835.0730   91464843.9100
  87653990.6760
  21268675.180    21268672.820                   111767660.7230   87091683.6080

  21749395.760    21749391.900                   114293843.9610   89060127.7360

  23548664.600    23548662.760                   123749270.8410   96428123.4810

  24387839.080    24387836.740                   128158964.2410   99864116.6030

 23  2 11  0 54 30.0000000  0  9G01G03G04G06G09G17G19G21G31
  21665369.580    21665370.520    21665371.160   113852452.7530   88716293.7400
  85019817.3850
  20797763.780    20797763.920    20797765.580   109293148.4220   85163614.0960
  81615258.3060
  20615007.720    20615006.660    20615011.560   108332918.1090   84415368.4500
  80898098.9340
  23345155.160    23345156.120    23345158.480   122679626.4100   95594513.3050
  91611427.8790
  22318557.100    22318557.920    22318559.680   117284870.4470   91390845.5450
  87583075.5840
  21271540.720    21271538.400                   111782719.2500   87103417.5070

  21740935.140    21740931.380                   114249382.9840   89025482.8230

  23563181.660    23563179.580                   123825558.3090   96487568.2210

  24392105.500    24392103.220                   128181384.3460   99881586.8380

 23  2 11  0 55  0.0000000  0  9G01G03G04G06G09G17G19G21G31
  21679278.760    21679279.860    21679280.320   113925545.7270   88773249.2780
  85074399.7710
  20804941.220    20804941.360    20804943.040   109330866.1980   85193004.5670
  81643424.1580
  20607417.580    20607416.560    20607421.440   108293031.7410   84384288.1800
  80868313.6730
  23327474.520    23327475.500    23327477.140   122586713.6880   95522113.7900
  91542044.9870
  22300544.180    22300544.900    22300546.700   117190211.8950   91317085.6690
  87512389.0450
  21274512.300    21274510.020                   111798335.0930   87115585.6920

  21732589.820    21732586.000                   114205527.6930   88991309.8630

  23577736.740    23577734.400                   123902045.0120   96547168.1970

  24396479.940    24396477.200                   128204371.4420   99899498.9030

 23  2 11  0 55 30.0000000  0  9G01G03G04G06G09G17G19G21G31
  21693247.960    21693249.140    21693249.500   113998954.0170   88830450.5130
  85129217.6130
  20812165.440    20812165.600    20812167.140   109368829.6670   85222586.4830
  81671773.4980
  20599928.780    20599927.800    20599932.680   108253678.0080   84353622.9450
  80838926.1580
  23309807.060    23309808.120    23309810.140   122493869.9970   95449768.0710
  91472713.6880
  22282588.700    22282589.380    22282591.020   117095855.1420   91243560.9720
  87441927.8920
  21277588.680    21277586.400                   111814501.3340   87128182.7470

  21724358.920    21724354.900                   114162273.7720   88957605.5090

  23592328.180    23592325.760                   123978723.2020   96606917.4060

  24400961.020    24400958.560                   128227918.8800   99917847.5390

 23  2 11  0 56  0.0000000  0  9G01G03G04G06G09G17G19G21G31
  21707277.880    21707279.160    21707279.460   114072681.7150   88887900.6350
  85184273.9730
  20819437.140    20819437.280    20819438.780   109407042.7240   85252362.8870
  81700309.2250
  20592542.460    20592541.520    20592546.320   108214862.6080   84323377.1950
  80809940.6540
  23292153.900    23292155.100    23292156.540   122401101.9200   95377481.2930
  91403438.8380
  22264691.920    22264692.560    22264694.200   117001807.1990   91170276.8930
  87371697.3230
  21280770.540    21280768.240                   111831222.0920   87141211.9010

  21716243.520    21716239.500                   114119627.2620   88924374.4600

  23606956.740    23606954.600                   124055597.5050   96666819.3890

  24405549.460    24405547.060                   128252031.3660   99936636.5120

 23  2 11  0 56 30.0000000  0  9G01G03G04G06G09G17G19G21G31
  21721368.120    21721369.360    21721369.580   114146726.0030   88945597.4600
  85239566.7620
  20826755.780    20826755.860    20826757.360   109445502.4240   85282331.4760
  81729029.1140
  20585258.360    20585257.400    20585262.140   108176584.3150   84293549.9640
  80781356.2200
  23274515.080    23274516.180    23274517.900   122308409.1640   95305253.1690
  91334220.2430
  22246853.920    22246854.560    22246856.220   116908068.0550   91097233.4490
  87301697.3660
  21284057.440    21284055.160                   111848494.8290   87154671.1560

  21708243.680    21708239.680                   114077587.9160   88891616.5220

  23621622.180    23621620.240                   124132665.2940   96726872.1780

  24410244.980    24410242.420                   128276706.3540   99955863.7670

 23  2 11  0 57  0.0000000  0  9G01G03G04G06G09G17G19G21G31
  21735518.400    21735519.580    21735519.960   114221085.9900   89003540.2870
  85295095.3000
  20834121.120    20834121.220    20834122.740   109484207.6760   85312491.4020
  81757932.3750
  20578076.560    20578075.620    20578080.300   108138843.7740   84264141.7630
  80753173.3650
  23256890.700    23256891.960    23256893.380   122215793.2180   95233084.9410
  91265058.9840
  22229075.080    22229075.680    22229077.360   116814639.6440   91024432.1310
  87231929.4470
  21287449.220    21287446.980                   111866318.7430   87168559.9080

  21700359.700    21700355.820                   114036157.5050   88859333.0770

  23636324.440    23636322.600                   124209926.0050   96787075.2830

  24415047.180    24415044.720                   128301943.0780   99975528.7450

 23  2 11  0 57 30.0000000  0  9G01G03G04G06G09G17G19G21G31
  21749728.860    21749730.080    21749730.460   114295762.5950   89061729.8210
  85350860.2680
  20841533.360    20841533.420    20841534.980   109523159.2650   85342843.2830
  81787019.5950
  20570997.560    20570996.640    20571001.380   108101643.4830   84235154.5320
  80725393.9410
  23239281.620    23239282.900    23239284.820   122123257.4830   95160979.2060
  91195957.6900
  22211356.020    22211356.620    22211358.260   116721525.7000   90951875.8410
  87162396.3480
  21290946.060    21290943.840                   111884694.7320   87182878.8480

  21692592.280    21692588.400                   113995339.2280   88827526.6270

  23651063.620    23651061.760                   124287380.4690   96847429.3840

  24419956.640    24419954.300                   128327742.8010   99995632.4580

 23  2 11  0 58  0.0000000  0  9G01G03G04G06G09G17G19G21G31
  21763999.100    21764000.400    21764000.840   114370753.2620   89120164.0740
  85406859.7510
  20848991.960    20848992.000    20848993.460   109562354.5330   85373385.0420
  81816288.7830
  20564021.160    20564020.240    20564025.020   108064982.4170   84206587.4770
  80698017.1780
  23221687.920    23221689.180    23221690.960   122030801.9920   95088936.0050
  91126916.2600
  22193696.780    22193697.440    22193699.020   116628726.5050   90879564.8220
  87093098.2940
  21294547.580    21294545.360                   111903620.8110   87197626.4210

  21684941.340    21684937.520                   113955133.0750   88796197.1610

  23665839.180    23665837.260                   124365026.3060   96907932.6030

  24424973.180    24424970.340                   128354103.3410  100016173.1440

 23  2 11  0 58 30.0000000  0  9G01G03G04G06G09G17G19G21G31
  21778329.380    21778330.700    21778331.380   114446059.6230   89178844.3310
  85463094.9970
  20856497.220    20856497.260    20856498.680   109601794.9590   85404117.8360
  81845741.0370
  20557148.020    20557147.060    20557151.840   108028863.7150   84178443.0460
  80671045.4440
  23204110.300    23204111.540    23204113.480   121938430.8460   95016958.5480
  91057937.8460
  22176098.340    22176099.120    22176100.680   116536246.4490   90807502.4850
  87024038.5680
  21298254.160    21298251.920                   111923098.8230   87212804.0870

  21677407.520    21677403.680                   113915542.7700   88765347.5690

  23680651.460    23680649.480                   124442865.1320   96968586.1840

  24430096.440    24430093.460                   128381026.8010  100037152.5210

 23  2 11  0 59  0.0000000  0  9G01G03G04G06G09G17G19G21G31
  21792718.580    21792719.900    21792720.620   114521675.2110   89237765.5540
  85519561.1680
  20864047.860    20864047.960    20864049.440   109641473.9950   85435036.5570
  81875371.4800
  20550377.100    20550376.120    20550380.920   107993282.4530   84150717.4000
  80644475.0310
  23186547.940    23186549.120    23186551.220   121846140.1770   94945043.7100
  90989019.5170
  22158560.000    22158560.680    22158562.280   116444081.9790   90735686.0380
  86955214.4870
  21302064.480    21302062.220                   111943122.0110   87228406.5530

  21669990.080    21669986.200                   113876564.0880   88734974.5760

  23695499.380    23695497.380                   124520891.0050   97029385.5230

  24435325.700    24435322.860                   128408507.0810  100058565.7160

 23  2 11  0 59 30.0000000  0  9G01G03G04G06G09G17G19G21G31
  21807167.540    21807168.820    21807169.600   114597604.9270   89296931.5400
  85576261.8880
  20871644.860    20871644.900    20871646.440   109681396.4230   85466144.9380
  81905183.6770
  20543709.680    20543708.680    20543713.580   107958244.9950   84123415.4990
  80618310.7050
  23169002.280    23169003.480    23169005.700   121753937.3210   94873197.3450
  90920166.7660
  22141083.140    22141083.880    22141085.440   116352240.7860   90664121.5230
  86886631.8240
  21305979.460    21305977.220                   111963695.4220   87244437.7790

  21662690.440    21662686.500                   113838204.4210   88705083.9180

  23710383.700    23710381.560                   124599108.5190   97090334.1920

  24440661.680    24440658.920                   128436548.8280  100080416.4400

 23  2 11  1  0  0.0000000  0  9G01G03G04G06G09G17G19G21G31
  21821675.680    21821676.980    21821677.800   114673845.7330   89356339.9250
  85633194.9160
  20879287.580    20879287.580    20879289.120   109721559.1750   85497440.5810
  81935175.3320
  20537145.460    20537144.440    20537149.500   107923749.7990   84096536.1380
  80592551.3210
  23151473.200    23151474.520    23151476.820   121661821.9120   94801419.1230
  90851379.3330
  22123667.820    22123668.440    22123670.060   116260722.6720   90592808.7350
  86818290.4190
  21309998.580    21309996.400                   111984816.0830   87260895.4210

  21655508.620    21655504.620                   113800463.1970   88675675.1790

  23725303.960    23725301.960                   124677515.0880   97151430.1560

  24446104.160    24446101.440                   128465149.1350  100102702.4330

 23  2 11  1  0 30.0000000  0  9G01G03G04G06G09G17G19G21G31
  21836243.020    21836244.320    21836245.040   114750397.2200   89415990.4180
  85690359.9700
  20886975.900    20886975.940    20886977.460   109761961.6900   85528923.0540
  81965346.0360
  20530684.660    20530683.600    20530688.720   107889797.9530   84070080.1580
  80567197.6780
  23133961.140    23133962.640    23133964.820   121569796.0800   94729710.7260
  90782658.7930
  22106314.420    22106315.040    22106316.740   116169530.0320   90521749.5720
  86750192.0680
  21314121.740    21314119.680                   112006483.6890   87277779.2490

  21648444.760    21648440.780                   113763342.2630   88646749.7710

  23740259.900    23740258.300                   124756109.9920   97212672.8880

  24451652.820    24451650.400                   128494308.2390  100125423.7920

 23  2 11  1  1  0.0000000  0  9G01G03G04G06G09G17G19G21G31
  21850869.400    21850870.660    21850871.400   114827259.1240   89475882.7860
  85747756.8190
  20894709.840    20894709.900    20894711.400   109802603.6980   85560592.1430
  81995695.5760
  20524327.480    20524326.360    20524331.440   107856390.6370   84044048.4970
  80542250.6650
  23116466.740    23116468.200    23116470.440   121477862.2570   94658073.9940
  90714006.9120
  22089023.420    22089024.040    22089025.760   116078665.4420   90450946.0320
  86682338.6830
  21318349.000    21318346.920                   112028698.1010   87295089.1630

  21641499.280    21641495.400                   113726843.4820   88618309.1630

  23755251.840    23755250.540                   124834893.4210   97274062.5250

  24457308.040    24457305.420                   128524026.2370  100148580.6880

 23  2 11  1  1 30.0000000  0  9G01G03G04G06G09G17G19G21G31
  21865554.140    21865555.440    21865555.920   114904427.7400   89536014.1550
  85805382.7080
  20902488.660    20902488.680    20902490.200   109843481.4420   85592444.9220
  82026221.1560
  20518073.480    20518072.320    20518077.280   107823525.5790   84018439.3690
  80517708.5870
  23098989.460    23098991.160    23098993.220   121386019.2290   94586508.0500
  90645422.8740
  22071794.720    22071795.280    22071797.080   115988127.9840   90380397.4000
  86614729.5870
  21322679.580    21322677.460                   112051455.4530   87312822.1520

  21634671.960    21634668.100                   113690965.9130   88590352.6170

  23770279.220    23770277.800                   124913862.0320   97335596.4400

  24463068.960    24463066.220                   128554299.1380  100172169.9760

 23  2 11  1  2  0.0000000  0  9G01G03G04G06G09G17G19G21G31
  21880297.780    21880299.040    21880299.340   114981905.6740   89596386.5380
  85863239.5750
  20910312.800    20910312.840    20910314.360   109884597.4800   85624483.3880
  82056924.6850
  20511923.400    20511922.340    20511927.240   107791206.8590   83993255.9570
  80493574.4830
  23081530.660    23081532.140    23081534.120   121294272.3350   94515016.9760
  90576910.6020
  22054629.280    22054629.860    22054631.620   115897923.1010   90310107.9220
  86547368.8490
  21327114.020    21327111.820                   112074758.4580   87330980.3200

  21627963.540    21627959.660                   113655713.3820   88562883.1210

  23785342.340    23785340.780                   124993018.0220   97397276.4060

  24468935.940    24468933.100                   128585129.9450  100196193.9920

 23  2 11  1  2 30.0000000  0  9G01G03G04G06G09G17G19G21G31
  21895099.620    21895100.780    21895101.040   115059689.4470   89656997.2420
  85921324.8270
  20918181.600    20918181.660    20918183.260   109925948.3220   85656704.8210
  82087803.5520
  20505876.880    20505875.920    20505880.880   107759432.4020   83968496.6470
  80469846.8090
  23064089.900    23064091.280    23064093.120   121202620.6830   94443600.1410
  90508469.4920
  22037527.020    22037527.580    22037529.320   115808050.1680   90240077.0980
  86480255.9900
  21331651.600    21331649.400                   112098603.4550   87349560.8200

  21621374.020    21621370.040                   113621085.1920   88535900.1140

  23800440.460    23800438.960                   125072358.8570   97459100.3660

  24474908.660    24474905.480                   128616515.5210  100220650.3030

 23  2 11  1  3  0.0000000  0  9G01G03G04G06G09G17G19G21G31
  21909959.740    21909960.980    21909961.160   115137779.8370   89717846.8650
  85979639.0440
  20926095.280    20926095.380    20926096.920   109967534.7490   85689109.8190
  82118858.3400
  20499934.360    20499933.440    20499938.400   107728204.3700   83944163.1250
  80446527.1880
  23046667.960    23046669.280    23046671.080   121111067.7960   94372260.2620
  90440102.1090
  22020488.600    22020489.120    22020490.820   115718512.7740   90170307.7370
  86413393.6930
  21336292.460    21336290.300                   112122991.2600   87368564.2890

  21614903.960    21614900.000                   113587084.5450   88509406.1030

  23815573.900    23815572.220                   125151885.0120   97521068.7610

  24480986.940    24480983.640                   128648456.4360  100245539.3480

 23  2 11  1  3 30.0000000  0  9G01G03G04G06G09G17G19G21G31
  21924877.940    21924879.220    21924879.520   115216175.6280   89778934.4720
  86038181.3220
  20934053.580    20934053.680    20934055.240   110009355.5120   85721697.4220
  82150088.1250
  20494095.860    20494094.960    20494099.620   107697522.9790   83920255.5580
  80423615.7830
  23029265.160    23029266.440    23029268.240   121019615.1660   94300998.4920
  90371809.5680
  22003514.400    22003514.920    22003516.700   115629312.5460   90100801.1110
  86346783.1870
  21341036.380    21341034.240                   112147920.5310   87387989.6760

  21608553.520    21608549.600                   113553712.4580   88483401.8750

  23830742.360    23830740.460                   125231595.0400   97583180.4510

  24487170.300    24487167.380                   128680951.5280  100270860.1910

 23  2 11  1  4  0.0000000  0  9G01G03G04G06G09G17G19G21G31
  21939853.840    21939855.160    21939855.600   115294874.5920   89840258.3120
  86096949.9960
  20942056.000    20942056.120    20942057.660   110051408.4570   85754465.9490
  82181491.2980
  20488361.260    20488360.320    20488364.500   107667387.4080   83896773.3070
  80401111.9660
  23011881.560    23011882.680    23011884.540   120928263.2370   94229815.1800
  90303592.2320
  21986604.400    21986604.860    21986606.640   115540450.0350   90031557.6310
  86280424.8670
  21345882.940    21345880.720                   112173389.2360   87407835.4080

  21602322.560    21602318.700                   113520968.4840   88457887.0870

  23845945.560    23845943.340                   125311487.6540   97645434.3890

  24493458.920    24493455.840                   128713999.1120  100296611.5690

 23  2 11  1  4 30.0000000  0  9G01G03G04G06G09G17G19G21G31
  21954887.780    21954888.980    21954889.520   115373878.2830   89901819.6030
  86155946.2330
  20950102.880    20950103.020    20950104.560   110093695.1390   85787416.6040
  82213069.0090
  20482731.080    20482730.120    20482734.080   107637800.5070   83873718.5920
  80379017.8690
  22994517.920    22994519.040    22994520.780   120837016.2590   94158713.6690
  90235453.2830
  21969759.520    21969760.020    21969761.700   115451929.6410   89962580.7390
  86214322.0130
  21350832.440    21350830.220                   112199398.9580   87428102.7030

  21596211.820    21596207.980                   113488856.3840   88432864.6710

  23861183.700    23861181.380                   125391564.0340   97707831.5230

  24499853.020    24499850.140                   128747600.4390  100322794.4230

 23  2 11  1  5  0.0000000  0  9G01G03G04G06G09G17G19G21G31
  21969979.240    21969980.400    21969981.000   115453184.8430   89963616.8960
  86215168.6290
  20958193.880    20958194.040    20958195.600   110136213.6840   85820547.9330
  82244819.8630
  20477205.160    20477204.180    20477208.500   107608761.8070   83851091.0450
  80357333.1370
  22977174.320    22977175.400    22977177.360   120745875.1130   94087694.6210
  90167393.3810
  21952979.880    21952980.340    21952982.100   115363752.2870   89893871.1520
  86148475.3400
  21355884.500    21355882.280                   112225947.5730   87448789.9180

  21590221.460    21590217.540                   113457376.6770   88408335.0250

  23876456.460    23876454.080                   125471822.6640   97770370.6500

  24506352.280    24506349.640                   128781753.8240  100349407.4950

 23  2 11  1  5 30.0000000  0  9G01G03G04G06G09G17G19G21G31
  21985128.260    21985129.420    21985129.980   115532793.5930   90025649.6630
  86274616.7040
  20966328.920    20966329.100    20966330.660   110178963.5600   85853859.5210
  82276743.4580
  20471783.740    20471782.680    20471787.720   107580271.9950   83828891.2020
  80336058.2830
  22959851.260    22959852.120    22959854.480   120654842.0000   94016759.7360
  90099414.1250
  21936266.000    21936266.340    21936268.080   115275920.1840   89825430.5870
  86082886.4710
  21361038.900    21361036.680                   112253034.2070   87469896.3650

  21584351.720    21584347.700                   113426530.8380   88384299.3150

  23891763.640    23891761.440                   125552262.7530   97833051.1790

  24512956.460    24512953.560                   128816458.6530  100376450.2710

 23  2 11  1  6  0.0000000  0  9G01G03G04G06G09G17G19G21G31
  22000334.420    22000335.500    22000336.120   115612702.0150   90087915.9350
  86334288.5380
  20974507.480    20974507.720    20974509.240   110221942.1960   85887349.3590
  82308837.8900
  20466466.480    20466465.440    20466471.060   107552329.8120   83807118.0870
  80315192.3720
  22942548.820    22942549.720    22942552.100   120563916.9980   93945909.1070
  90031515.6280
  21919617.800    21919618.120    21919619.780   115188433.5150   89757259.1910
  86017555.5710
  21366295.220    21366293.000                   112280656.2760   87491420.0350

  21578602.440    21578598.520                   113396318.3600   88360757.1300

  23907105.060    23907103.100                   125632882.3130   97895871.5620

  24519664.860    24519662.080                   128851712.4580  100403920.7640

 23  2 11  1  6 30.0000000  0  9G01G03G04G06G09G17G19G21G31
  22015597.600    22015598.700    22015599.440   115692910.4120   90150415.9600
  86394184.3850
  20982729.660    20982729.900    20982731.440   110265150.0490   85921017.8080
  82341103.4830
  20461253.780    20461252.820    20461258.480   107524936.9700   83785773.0260
  80294736.6860
  22925267.560    22925268.480    22925270.860   120473103.3690   93875145.2490
  89963700.2930
  21903035.920    21903036.300    21903038.100   115101295.4920   89689359.4760
  85952485.0260
  21371653.480    21371651.280                   112308814.0830   87513361.1730

  21572974.200    21572970.320                   113366741.8400   88337710.4890

  23922480.600    23922478.880                   125713681.7230   97958832.0840

  24526477.960    24526475.140                   128887515.7160  100431819.4130

 23  2 11  1  7  0.0000000  0  9G01G03G04G06G09G17G19G21G31
  22030917.620    22030918.740    22030919.480   115773417.7860   90213148.9530
  86454303.5030
  20990995.280    20990995.500    20990997.080   110308586.1990   85954864.1500
  82373539.5630
  20456145.680    20456144.780    20456150.000   107498093.7130   83764856.2080
  80274691.4080
  22908007.820    22908008.740    22908010.840   120382402.7780   93804469.4830
  89895969.3530
  21886520.760    21886521.200    21886522.960   115014507.8820   89621732.7940
  85887676.1220
  21377113.460    21377111.300                   112337506.4300   87535718.8250

  21567467.080    21567463.200                   113337801.7010   88315159.7270

  23937890.100    23937888.740                   125794659.7590   98021931.8050

  24533395.340    24533392.560                   128923867.3640  100460145.3930

 23  2 11  1  7 30.0000000  0  9G01G03G04G06G09G17G19G21G31
  22046294.260    22046295.400    22046296.260   115854222.9850   90276114.0120
  86514645.0020
  20999304.140    20999304.380    20999305.880   110352249.5900   85988887.5700
  82406145.3320
  20451142.200    20451141.260    20451145.920   107471800.1830   83744367.7550
  80255056.6500
  22890769.840    22890771.100    22890772.860   120291816.9630   93733883.1760
  89828324.1240
  21870072.580    21870073.000    21870074.860   114928072.3260   89554380.4490
  85823130.1340
  21382674.980    21382672.800                   112366732.2570   87558492.1760

  21562081.280    21562077.380                   113309499.1830   88293105.8130

  23953333.600    23953332.160                   125875815.5130   98085170.0100

  24540416.820    24540414.040                   128960766.0870  100488897.6200

 23  2 11  1  8  0.0000000  0  9G01G03G04G06G09G17G19G21G31
  22061727.320    22061728.460    22061729.320   115935324.3520   90339309.8500
  86575207.6760
  21007655.940    21007656.240    21007657.660   110396138.6760   86023086.8520
  82438919.6440
  20446243.260    20446242.260    20446246.660   107446056.0210   83724307.3760
  80235832.1280
  22873553.940    22873555.140    22873556.740   120201347.1000   93663387.1970
  89760765.4680
  21853691.660    21853691.960    21853693.960   114841990.0440   89487303.3710
  85758847.9410
  21388337.580    21388335.380                   112396489.4100   87581679.5520

  21556816.880    21556812.940                   113281834.7430   88271549.0960

  23968810.680    23968809.380                   125957148.0360   98148545.9390

  24547542.300    24547539.420                   128998210.2430  100518074.9170

 23  2 11  1  8 30.0000000  0  9G01G03G04G06G09G17G19G21G31
  22077216.780    22077217.920    22077218.740   116016721.7900   90402736.4020
  86635991.4360
  21016050.720    21016050.980    21016052.400   110440253.4750   86057462.0090
  82471862.5030
  20441449.080    20441448.080    20441452.460   107420862.3750   83704675.9730
  80217018.7030
  22856360.680    22856361.860    22856363.100   120110995.9430   93592983.7290
  89693295.4620
  21837378.460    21837378.700    21837380.700   114756263.6710   89420503.6280
  85694831.5320
  21394101.260    21394099.060                   112426777.6980   87605280.7970

  21551674.200    21551670.340                   113254810.2180   88250491.0250

  23984321.380    23984320.080                   126038656.8840   98212059.2750

  24554771.560    24554768.320                   129036199.7320  100547677.1000

 23  2 11  1  9  0.0000000  0  9G01G03G04G06G09G17G19G21G31
  22092762.640    22092763.820    22092764.500   116098415.5100   90466393.8220
  86696996.4610
  21024488.520    21024488.720    21024490.240   110484594.3420   86092013.3300
  82504974.1780
  20436759.920    20436759.020    20436763.480   107396220.7120   83685474.6790
  80198617.4670
  22839190.560    22839191.600    22839192.940   120020766.5930   93522675.1630
  89625916.4220
  21821133.580    21821133.740    21821135.600   114670896.2580   89353983.5870
  85631083.1630
  21399965.980    21399963.900                   112457597.0460   87629295.8590

  21546653.820    21546650.000                   113228428.0220   88229933.4690

  23999865.740    23999864.340                   126120342.4240   98275710.2930

  24562104.480    24562101.400                   129074734.6970  100577704.3820

 23  2 11  1  9 30.0000000  0  9G01G03G04G06G09G17G19G21G31
  22108364.300    22108365.560    22108366.080   116180402.4430   90530279.7040
  86758220.4300
  21032968.780    21032968.900    21032970.420   110529158.3540   86126738.5300
  82538252.4980
  20432175.440    20432174.580    20432179.180   107372129.1910   83666702.0720
  80180627.0610
  22822043.800    22822044.540    22822046.140   119930658.8360   93452461.3260
  89558628.1970
  21804956.940    21804957.160    21804959.040   114585887.5220   89287743.0340
  85567602.6390
  21405931.160    21405929.100                   112488944.3500   87653722.3130

  21541755.480    21541751.720                   113202686.7960   88209875.3650

  24015443.220    24015441.520                   126202202.1270   98339497.0250

  24569540.600    24569537.520                   129113811.9270  100608154.1610

 23  2 11  1 10  0.0000000  0  9G01G03G04G06G09G17G19G21G31
  22124021.420    22124022.720    22124023.200   116262680.9850   90594392.8240
  86819662.1690
  21041491.200    21041491.300    21041492.820   110573944.0470   86161636.4580
  82571696.3480
  20427695.580    20427694.560    20427699.400   107348587.3840   83648357.8210
  80163047.1560
  22804920.220    22804921.000    22804922.600   119840673.9570   93382343.2530
  89491431.7110
  21788848.780    21788849.020    21788850.940   114501238.6520   89221782.9020
  85504390.8540
  21411996.460    21411994.380                   112520817.6160   87678558.6040

  21536979.240    21536975.520                   113177587.3910   88190317.3740

  24031053.500    24031051.420                   126284234.2840   98403418.1330

  24577079.600    24577076.680                   129153429.7410  100639025.2060

 23  2 11  1 10 30.0000000  0  9G01G03G04G06G09G17G19G21G31
  22139734.500    22139735.760    22139736.260   116345253.4180   90658734.9520
  86881323.3720
  21050056.300    21050056.380    21050057.920   110618953.9140   86196709.0780
  82605307.5990
  20423321.000    20423319.580    20423324.820   107325598.8690   83630444.7080
  80145880.4110
  22787820.980    22787821.900    22787823.500   119750817.2230   93312325.0270
  89424330.9220
  21772810.100    21772810.260    21772812.200   114416954.7670   89156107.1680
  85441451.6090
  21418162.320    21418160.160                   112553219.1250   87703806.5140

  21532325.780    21532322.040                   113153133.0880   88171262.0620

  24046696.880    24046694.960                   126366441.3610   98467475.5220

  24584722.000    24584718.900                   129193590.5300  100670319.3710

 23  2 11  1 11  0.0000000  0  9G01G03G04G06G09G17G19G21G31
  22155502.860    22155504.000    22155504.760   116428116.4300   90723303.5050
  86943201.5720
  21058663.440    21058663.560    21058665.040   110664184.8090   86231953.9250
  82639083.9140
  20419051.280    20419049.620    20419055.100   107303161.4940   83612961.0620
  80129125.2380
  22770745.960    22770747.080    22770748.760   119661088.2310   93242406.3710
  89357325.5330
  21756840.720    21756840.880    21756842.960   114333035.3160   89090715.4160
  85378784.5330
  21424428.000    21424425.860                   112586145.3140   87729463.2710

  21527794.940    21527791.100                   113129323.1030   88152708.8330

  24062372.720    24062371.040                   126448819.3970   98531666.1540

  24592466.920    24592464.040                   129234290.7350  100702033.8370

 23  2 11  1 11 30.0000000  0  9G01G03G04G06G09G17G19G21G31
  22171326.380    22171327.580    22171328.380   116511269.7150   90788098.2400
  87005296.5280
  21067312.620    21067312.680    21067314.340   110709636.6170   86267370.9100
  82673025.1900
  20414886.640    20414885.140    20414890.360   107281276.1020   83595907.5140
  80112782.2610
  22753695.800    22753696.880    22753698.620   119571489.5190   93172589.1990
  89290417.4200
  21740941.140    21740941.340    21740943.500   114249482.8040   89025609.5810
  85316391.4490
  21430793.360    21430791.120                   112619595.2520   87755528.1370

  21523387.020    21523383.100                   113106159.1010   88134658.9550

  24078081.540    24078079.800                   126531369.6110   98595990.9490

  24600314.380    24600311.760                   129275530.2300  100734168.5040

 23  2 11  1 12  0.0000000  0  9G01G03G04G06G09G17G19G21G31
  22187204.680    22187206.020    22187207.040   116594711.3100   90853117.6410
  87067606.7690
  21076003.480    21076003.580    21076005.220   110755307.5700   86302958.6580
  82707130.1130
  20410826.860    20410825.760    20410830.500   107259941.8830   83579283.4550
  80096850.8770
  22736670.800    22736671.720    22736673.720   119482022.2850   93102874.4940
  89223607.4900
  21725111.560    21725111.780    21725113.940   114166298.0090   88960790.2810
  85254272.9570
  21437257.940    21437255.800                   112653566.8570   87781999.4950

  21519101.940    21519097.820                   113083640.4600   88117111.9470

  24093822.900    24093820.920                   126614089.7550   98660448.1670

  24608263.980    24608261.480                   129317306.5010  100766721.4650

 23  2 11  1 12 30.0000000  0  9G01G03G04G06G09G17G19G21G31
  22203137.620    22203139.040    22203140.420   116678439.7500   90918360.5540
  87130131.2010
  21084735.860    21084736.020    21084737.540   110801196.5240   86338716.2740
  82741397.8240
  20406871.940    20406871.160    20406875.560   107239158.6220   83563088.7010
  80081330.9180
  22719671.120    22719671.900    22719674.160   119392688.0270   93033263.3820
  89156896.8430
  21709352.240    21709352.520    21709354.740   114083482.3450   88896258.6190
  85192430.1220
  21443821.520    21443819.440                   112688058.4920   87808876.0740

  21514939.720    21514935.580                   113061767.9620   88100068.4320

  24109596.380    24109594.340                   126696978.3810   98725036.6560

  24616315.600    24616313.020                   129359618.1890  100799691.5830

 23  2 11  1 13  0.0000000  0  9G01G03G04G06G09G17G19G21G31
  22219124.980    22219126.420    22219127.740   116762453.3030   90983825.6330
  87192868.5650
  21093509.400    21093509.600    21093511.100   110847301.8540   86374642.4960
  82775827.1270
  20403021.720    20403021.020    20403025.380   107218925.6240   83547322.7340
  80066221.8700
  22702696.800    22702697.700    22702700.240   119303487.8860   92963756.8110
  89090286.3850
  21693663.340    21693663.660    21693665.880   114001036.7840   88832015.3480
  85130863.6600
  21450483.620    21450481.620                   112723068.0560   87836156.2350

  21510900.500    21510896.240                   113040541.5390   88083528.3580

  24125401.600    24125399.500                   126780034.1790   98789755.4330

  24624468.840    24624466.380                   129402463.1760  100833077.2640

 23  2 11  1 13 30.0000000  0  9G01G03G04G06G09G17G19G21G31
  22235167.480    22235168.820    22235169.900   116846756.4270   91049516.3480
  87255822.1600
  21102325.080    21102325.220    21102326.820   110893628.3020   86410741.0250
  82810421.5390
  20399277.280    20399276.460    20399280.980   107199248.4930   83531989.9090
  80051527.9150
  22685749.440    22685750.440    22685752.900   119214429.3390   92894360.5650
  89023781.6640
  21678046.260    21678046.640    21678048.660   113918968.5410   88768066.0960
  85069578.9660
  21457245.040    21457243.040                   112758599.6290   87863843.1520

  21506985.400    21506981.120                   113019967.5550   88067496.6780

  24141239.080    24141237.020                   126863261.2770   98854607.6530

  24632724.180    24632721.640                   129445845.7780  100866881.9050

 23  2 11  1 14  0.0000000  0  9G01G03G04G06G09G17G19G21G31
  22251263.780    22251265.020    22251265.880   116931342.9800   91115427.9200
  87318987.4270
  21111181.660    21111181.880    21111183.400   110940170.0100   86447007.2790
  82845176.6960
  20395637.620    20395636.660    20395641.340   107180122.2320   83517086.3450
  80037245.3230
  22668828.560    22668829.460    22668831.880   119125509.3540   92825072.2810
  88957380.3980
  21662500.340    21662500.700    21662502.720   113837274.3110   88704408.2810
  85008573.5660
  21464104.680    21464102.580                   112794647.0390   87891932.0200

  21503193.580    21503189.380                   113000041.6950   88051970.0220

  24157107.900    24157106.160                   126946653.9630   98919588.8890

  24641080.620    24641078.300                   129489759.6650  100901100.5190

 23  2 11  1 14 30.0000000  0  9G01G03G04G06G09G17G19G21G31
  22267414.060    22267415.380    22267416.180   117016214.0920   91181561.2180
  87382365.1790
  21120079.500    21120079.700    21120081.180   110986928.3190   86483442.3130
  82880093.6120
  20392103.240    20392102.160    20392106.920   107161548.9900   83502613.6990
  80023375.7120
  22651934.860    22651935.760    22651938.000   119036732.0570   92755895.1850
  88891085.6800
  21647026.320    21647026.620    21647028.600   113755957.9180   88641044.8830
  84947850.3150
  21471062.560    21471060.420                   112831210.7850   87920423.2260

  21499525.580    21499521.580                   112980766.8690   88036950.6660

  24173008.520    24173006.840                   127030213.5350   98984700.1690

  24649538.540    24649536.120                   129534205.7600  100935733.8680

 23  2 11  1 15  0.0000000  0  9G01G03G04G06G09G17G19G21G31
  22283618.020    22283619.280    22283620.200   117101366.2560   91247913.5330
  87445952.7980
  21129017.940    21129018.200    21129019.680   111033900.0760   86520043.6690
  82915169.9080
  20388673.660    20388672.580    20388677.380   107143526.4620   83488570.1810
  80009917.3390
  22635068.180    22635069.000    22635071.040   118948097.0290   92686828.9480
  88824897.1950
  21631624.040    21631624.340    21631626.120   113675018.6900   88577975.3790
  84887408.7110
  21478117.920    21478115.720                   112868286.9150   87949313.6970

  21495981.180    21495977.320                   112962141.1990   88022437.1580

  24188940.320    24188939.040                   127113936.5290   99049938.7750

  24658097.180    24658094.700                   129579180.5310  100970779.1400

 23  2 11  1 15 30.0000000  0  9G01G03G04G06G09G17G19G21G31
  22299875.980    22299877.100    22299878.020   117186801.3370   91314486.3060
  87509751.6940
  21137997.420    21137997.660    21137999.240   111081087.4250   86556813.0220
  82950407.2020
  20385349.440    20385348.360    20385353.280   107126057.5150   83474958.0210
  79996872.3560
  22618229.480    22618230.280    22618232.260   118859609.2230   92617877.4250
  88758818.6510
  21616294.440    21616294.640    21616296.400   113594461.2590   88515203.3710
  84827252.2110
  21485271.140    21485268.920                   112905877.2610   87978604.8530

  21492561.000    21492557.300                   112944168.3420   88008432.3400

  24204903.800    24204902.600                   127197824.9570   99115306.3510

  24666756.480    24666753.940                   129624685.3230  101006237.4300

 23  2 11  1 16  0.0000000  0  9G01G03G04G06G09G17G19G21G31
  22316187.280    22316188.360    22316189.240   117272516.8910   91381277.6260
  87573760.0220
  21147017.460    21147017.660    21147019.360   111128488.1920   86593748.6760
  82985803.8750
  20382130.260    20382129.220    20382134.240   107109140.7710   83461776.1460
  79984239.7260
  22601418.920    22601419.760    22601421.660   118771269.2210   92549041.0890
  88692850.5010
  21601037.580    21601037.760    21601039.440   113514285.9370   88452729.1250
  84767381.0630
  21492521.620    21492519.400                   112943978.8270   88008294.3550

  21489264.940    21489261.300                   112926847.4410   87994935.5300

  24220898.500    24220897.180                   127281876.7710   99180801.2220

  24675516.240    24675513.500                   129670717.6370  101042106.7710

 23  2 11  1 16 30.0000000  0  9G01G03G04G06G09G17G19G21G31
  22332551.400    22332552.680    22332553.140   117358511.0190   91448286.0070
  87637976.3870
  21156077.840    21156078.080    21156079.780   111176100.8410   86630849.4380
  83021358.7620
  20379016.040    20379014.980    20379020.040   107092775.3890   83449023.9120
  79972018.8300
  22584636.720    22584637.500    22584639.460   118683078.2780   92480320.8850
  88626993.6530
  21585853.600    21585853.780    21585855.420   113434493.5520   88390553.2710
  84707795.8710
  21499868.940    21499866.800                   112982589.3830   88038380.4760

  21486092.960    21486089.380                   112910178.3890   87981946.6520

  24236923.960    24236922.420                   127366089.9940   99246421.8680

  24684375.800    24684373.100                   129717275.1100  101078385.3260

 23  2 11  1 17  0.0000000  0  9G01G03G04G06G09G17G19G21G31
  22348968.120    22348969.620    22348969.760   117444782.2530   91515510.3000
  87702399.6720
  21165178.340    21165178.680    21165180.240   111223924.2000   86668114.3870
  83057071.0080
  20376006.640    20376005.580    20376010.580   107076960.8910   83436700.9340
  79960209.3190
  22567883.200    22567883.920    22567886.040   118595038.0330   92411718.1080
  88561249.3340
  21570742.720    21570742.800    21570744.640   113355085.3570   88328676.7820
  84648497.5860
  21507312.780    21507310.640                   113021706.8870   88068861.6270

  21483045.080    21483041.540                   112894161.5010   87969465.9620

  24252979.980    24252978.340                   127450463.9820   99312167.7910

  24693335.240    24693332.080                   129764356.2180  101115071.9060

 23  2 11  1 17 30.0000000  0  9G01G03G04G06G09G17G19G21G31
  22365437.900    22365439.280    22365439.280   117531331.6000   91582951.3180
  87767030.6420
  21174319.220    21174319.540    21174321.040   111271959.6460   86705544.5940
  83092941.6200
  20373102.480    20373101.440    20373106.320   107061699.3510   83424808.8370
  79948812.7250
  22551159.160    22551159.960    22551162.160   118507152.6330   92343235.9880
  88495620.6420
  21555705.700    21555705.780    21555707.620   113276065.1920   88267102.6520
  84589489.0520
  21514853.240    21514851.080                   113061332.1010   88099738.3970

  21480121.800    21480118.240                   112878799.3110   87957495.4170

  24269066.680    24269065.140                   127534999.1470   99378039.2970

  24702394.380    24702391.200                   129811961.5240  101152166.9430

 23  2 11  1 18  0.0000000  0  9G01G03G04G06G09G17G19G21G31
  22381960.420    22381961.500    22381961.440   117618156.8140   91650607.3150
  87831867.6400
  21183500.020    21183500.360    21183501.940   111320205.2960   86743138.5890
  83128969.1940
  20370303.320    20370302.260    20370307.100   107046989.5110   83413346.6320
  79937828.1160
  22534464.740    22534465.560    22534467.880   118419422.9980   92274875.2500
  88430108.2780
  21540742.620    21540742.600    21540744.520   113197433.5080   88205831.2340
  84530770.6160
  21522489.780    21522487.620                   113101462.2190   88131008.5920

  21477322.940    21477319.260                   112864091.1000   87946034.4710

  24285183.740    24285182.080                   127619693.6810   99444034.9630

  24711552.460    24711549.680                   129860088.6260  101189668.5870

 23  2 11  1 18 30.0000000  0  9G01G03G04G06G09G17G19G21G31
  22398535.060    22398535.980    22398536.220   117705256.5210   91718477.1940
  87896909.6010
  21192720.720    21192720.980    21192722.580   111368660.1420   86780895.6080
  83165153.0020
  20367609.040    20367608.000    20367612.760   107032830.9760   83402314.0180
  79927255.1920
  22517800.240    22517801.140    22517803.400   118331850.9090   92206637.2810
  88364713.5610
  21525853.700    21525853.760    21525855.660   113119191.6730   88144863.5960
  84472343.3070
  21530222.040    21530219.980                   113142095.4010   88162670.7910

  21474648.620    21474644.740                   112850036.9810   87935083.2070

  24301330.720    24301329.000                   127704546.1920   99510153.7120

  24720809.660    24720806.820                   129908735.8050  101227575.5130

 23  2 11  1 19  0.0000000  0  9G01G03G04G06G09G17G19G21G31
  22415161.620    22415162.820    22415163.440   117792630.8080   91786561.0110
  87962156.5690
  21201981.300    21201981.520    21201983.060   111417324.5500   86818815.9160
  83201493.2910
  20365019.860    20365018.840    20365023.520   107019224.7360   83391711.7570
  79917094.6970
  22501166.380    22501167.240    22501169.420   118244439.5660   92138524.5690
  88299438.8670
  21511039.440    21511039.640    21511041.560   113041342.4770   88084201.9110
  84414209.1950
  21538050.020    21538047.960                   113183231.6240   88194724.9730

  21472099.100    21472095.140                   112836638.8030   87924643.0660

  24317507.880    24317505.880                   127789557.4000   99576396.1420

  24730165.840    24730162.840                   129957902.5900  101265887.2480

 23  2 11  1 19 30.0000000  0  9G01G03G04G06G09G17G19G21G31
  22431840.160    22431841.720    22431842.620   117880278.4300   91854857.8190
  88027607.6760
  21211281.580    21211281.740    21211283.220   111466197.7750   86856898.9420
  83237989.5230
  20362535.720    20362534.680    20362539.380   107006170.5940   83381539.7090
  79907346.4870
  22484563.500    22484564.300    22484566.340   118157190.9770   92070538.6670
  88234285.7150
  21496300.240    21496300.400    21496302.340   112963887.4350   88023847.3570
  84356369.4280
  21545973.260    21545971.280                   113224868.6470   88227169.3920

  21469674.420    21469670.440                   112823896.9240   87914714.3150

  24333714.780    24333713.060                   127874725.5950   99642760.9160

  24739620.540    24739617.300                   130007587.6570  101304602.9020

 23  2 11  1 20  0.0000000  0  9G01G03G04G06G09G17G19G21G31
  22448570.880    22448572.400    22448573.420   117968198.4950   91923366.9330
  88093262.2380
  21220621.400    21220621.660    21220623.100   111515279.3180   86895144.2810
  83274641.3020
  20360156.640    20360155.600    20360160.320   106993668.6130   83371797.9090
  79898010.5930
  22467992.080    22467992.760    22467994.960   118070107.5190   92002681.4230
  88169255.8760
  21481636.380    21481636.580    21481638.460   112886828.4120   87963801.3940
  84298825.3850
  21553991.600    21553989.640                   113267004.9980   88260002.8900

  21467374.740    21467370.840                   112811811.9970   87905297.4830

  24349951.180    24349950.040                   127960049.9950   99709247.3690

  24749173.600    24749170.600                   130057789.7710  101343721.4210

 23  2 11  1 20 30.0000000  0  9G01G03G04G06G09G17G19G21G31
  22465353.160    22465354.420    22465355.460   118056388.8920   91992086.7000
  88159118.6820
  21230000.640    21230000.920    21230002.220   111564567.4650   86933550.6300
  83311447.3880
  20357882.440    20357881.400    20357886.120   106981717.5950   83362485.4360
  79889086.1440
  22451452.200    22451453.080    22451455.200   117983190.2310   91934953.6850
  88104350.1390
  21467047.980    21467048.120    21467049.980   112810165.9970   87904064.4700
  84241577.5130
  21562104.560    21562102.660                   113309638.8650   88293224.0570

  21465199.960    21465196.040                   112800383.0780   87896391.8220

  24366217.320    24366216.480                   128045529.7390   99775854.9170

  24758824.220    24758821.700                   130108506.1970  101383240.6980

 23  2 11  1 21  0.0000000  0  9G01G03G04G06G09G17G19G21G31
  22482185.940    22482186.840    22482188.180   118144845.4590   92061013.8870
  88225173.8810
  21239418.500    21239418.780    21239420.020   111614058.4660   86972115.0380
  83348404.9380
  20355712.460    20355711.440    20355716.140   106970314.2760   83353599.7430
  79880570.6820
  22434943.780    22434944.880    22434946.840   117896438.1770   91867354.7100
  88039567.7860
  21452534.740    21452534.900    21452536.700   112733898.7080   87844635.4420
  84184624.6930
  21570311.240    21570309.300                   113352765.0200   88326828.8290

  21463149.540    21463145.460                   112789607.4360   87887995.2130

  24382512.300    24382511.300                   128131160.1030   99842579.7970

  24768571.980    24768569.580                   130159732.4800  101423157.2800

 23  2 11  1 21 30.0000000  0  9G01G03G04G06G09G17G19G21G31
  22499069.580    22499070.620    22499072.160   118233570.4660   92130150.2220
  88291429.5210
  21248875.440    21248875.660    21248876.840   111663755.0370   87010839.6330
  83385516.0060
  20353647.280    20353646.260    20353651.000   106959461.8260   83345143.2970
  79872466.5980
  22418467.840    22418469.000    22418470.820   117809856.8930   91799888.8050
  87974912.9680
  21438097.680    21438097.840    21438099.580   112658031.5480   87785518.1970
  84127970.6770
  21578611.960    21578610.020                   113396385.2750   88360818.6140

  21461224.180    21461220.020                   112779489.4560   87880111.0610

  24398836.560    24398835.040                   128216943.2760   99909423.7330

  24778417.400    24778414.760                   130211470.6190  101463472.7480

 23  2 11  1 22  0.0000000  0  9G01G03G04G06G09G17G19G21G31
  22516004.460    22516005.760    22516007.260   118322563.9000   92199495.7260
  88357885.6300
  21258371.620    21258371.740    21258372.940   111713657.5950   87049724.7390
  83422780.8920
  20351687.120    20351686.080    20351690.840   106949161.1560   83337116.8040
  79864774.5480
  22402025.160    22402026.180    22402027.680   117723449.6530   91732558.5090
  87910388.0910
  21423737.260    21423737.400    21423739.160   112582567.1970   87726714.8330
  84071617.4710
  21587006.600    21587004.620                   113440499.2720   88395193.1340

  21459424.020    21459419.820                   112770030.0250   87872740.0610

  24415190.040    24415187.960                   128302879.7800   99976387.1510

  24788360.240    24788357.580                   130263720.1280  101504186.6530

 23  2 11  1 22 30.0000000  0  9G01G03G04G06G09G17G19G21G31
  22532989.880    22532991.400    22532992.660   118411822.2700   92269047.6620
  88424539.5720
  21267906.400    21267906.520    21267907.660   111763763.1600   87088768.0240
  83460197.3810
  20349831.500    20349830.360    20349835.180   106939409.6490   83329518.2340
  79857492.5810
  22385615.560    22385616.360    22385617.800   117637216.2370   91665363.6520
  87845993.0240
  21409453.340    21409453.480    21409455.320   112507504.8830   87668224.7410
  84015564.4690
  21595494.280    21595492.380                   113485102.4700   88429948.8450

  21457748.840    21457744.660                   112761227.2180   87865880.7270

  24431572.040    24431569.860                   128388966.5650  100043467.6910

  24798399.820    24798397.280                   130316477.2080  101545296.0840

 23  2 11  1 23  0.0000000  0  9G01G03G04G06G09G17G19G21G31
  22550025.720    22550027.380    22550028.300   118501345.5250   92338806.0100
  88491391.3260
  21277479.880    21277480.120    21277481.160   111814072.1450   87127969.8200
  83497765.7570
  20348080.500    20348079.320    20348084.180   106930208.1030   83322348.2060
  79850621.3050
  22369239.600    22369240.260    22369241.900   117551159.9020   91598306.7760
  87781730.1880
  21395246.440    21395246.600    21395248.500   112432847.2640   87610050.0040
  83959813.6850
  21604075.020    21604073.100                   113530194.8100   88465085.7090

  21456198.860    21456194.780                   112753082.2960   87859534.0180

  24447982.480    24447980.280                   128475203.4790  100110665.2160

  24808535.780    24808532.740                   130369741.1960  101586800.4930

 23  2 11  1 23 30.0000000  0  9G01G03G04G06G09G17G19G21G31
  22567111.540    22567113.540    22567114.080   118591132.8010   92408770.0800
  88558440.2200
  21287092.020    21287092.300    21287093.420   111864584.1270   87167329.7980
  83535485.7320
  20346434.180    20346432.940    20346437.800   106921556.5170   83315606.7190
  79844160.7130
  22352897.660    22352898.460    22352900.320   117465283.0580   91531389.7810
  87717601.4090
  21381116.920    21381117.020    21381119.020   112358596.1170   87552191.9850
  83904366.4240
  21612748.580    21612746.540                   113575774.5890   88500602.3990

  21454774.200    21454770.220                   112745595.7000   87853700.2960

  24464421.220    24464419.420                   128561589.7800  100177979.1740

  24818767.900    24818765.000                   130423510.9030  101628698.9780

 23  2 11  1 24  0.0000000  0  9G01G03G04G06G09G17G19G21G31
  22584247.040    22584249.220    22584249.720   118681181.5650   92478937.9070
  88625684.3820
  21296742.400    21296742.620    21296743.840   111915297.0610   87206846.3610
  83573355.7720
  20344892.180    20344890.940    20344895.780   106913453.1710   83309292.4300
  79838109.5210
  22336590.120    22336591.080    22336593.100   117379586.4550   91464613.2460
  87653607.2430
  21367064.780    21367064.860    21367066.880   112284751.5940   87494650.8210
  83849222.8180
  21621514.360    21621512.180                   113621838.9580   88536496.6820

  21453474.620    21453470.720                   112738766.5920   87848378.9010

  24480887.880    24480886.280                   128648122.7490  100245407.3940

  24829095.660    24829092.740                   130477783.3460  101670989.2040

 23  2 11  1 24 30.0000000  0  9G01G03G04G06G09G17G19G21G31
  22601432.540    22601434.580    22601435.260   118771491.7930   92549309.4890
  88693123.7930
  21306431.140    21306431.280    21306432.680   111966211.4940   87246519.9400
  83611376.2790
  20343454.640    20343453.420    20343458.260   106905898.9000   83303405.9930
  79832468.3560
  22320317.640    22320318.560    22320320.620   117294073.4830   91397979.7770
  87589750.1790
  21353090.500    21353090.600    21353092.560   112211316.4140   87437428.6300
  83794384.8960
  21630372.220    21630370.060                   113668387.0460   88572767.9000

  21452300.360    21452296.500                   112732595.9220   87843570.5790

  24497382.440    24497381.000                   128734802.7720  100312950.1850

  24839518.920    24839515.760                   130532557.8240  101713670.6060

 23  2 11  1 25  0.0000000  0  9G01G03G04G06G09G17G19G21G31
  22618667.320    22618669.080    22618669.940   118862059.7960   92619881.9360
  88760755.6940
  21316157.600    21316157.740    21316159.140   112017324.2230   87286348.0300
  83649544.8670
  20342121.040    20342119.860    20342124.660   106898890.8080   83297945.1460
  79827235.0430
  22304079.960    22304080.880    22304082.760   117208743.7670   91331489.1020
  87526029.9350
  21339193.880    21339194.040    21339195.920   112138289.4510   87380524.5270
  83739851.8020
  21639321.220    21639319.200                   113715414.4320   88609412.5840

  21451251.080    21451247.180                   112727081.5370   87839273.6490

  24513904.540    24513903.220                   128821626.9120  100380605.2730

  24850037.040    24850033.900                   130587830.5200  101756740.2770

 23  2 11  1 25 30.0000000  0  9G01G03G04G06G09G17G19G21G31
  22635951.240    22635952.920    22635953.840   118952886.0820   92690655.6390
  88828580.4850
  21325922.000    21325922.100    21325923.500   112068636.3180   87326331.4710
  83687862.3250
  20340891.580    20340890.480    20340895.200   106892430.2420   83292910.9420
  79822410.6010
  22287877.800    22287878.660    22287880.520   117123601.1780   91265144.2580
  87462449.4700
  21325375.580    21325375.800    21325377.600   112065674.0020   87323941.0830
  83685626.0090
  21648361.500    21648359.420                   113762921.1870   88646430.8160

  21450327.040    21450323.120                   112722225.2820   87835489.5430

  24530454.080    24530452.960                   128908595.5400  100448372.9490

  24860649.900    24860647.080                   130643601.1630  101800197.8720

 23  2 11  1 26  0.0000000  0  9G01G03G04G06G09G17G19G21G31
  22653284.320    22653286.020    22653286.840   119043971.8170   92761631.4950
  88896599.0180
  21335724.620    21335724.740    21335726.200   112120149.4660   87366471.5770
  83726329.9270
  20339766.680    20339765.660    20339770.360   106886519.1280   83288304.8900
  79817996.4740
  22271712.100    22271712.960    22271714.900   117038650.2870   91198948.7880
  87399012.1490
  21311636.340    21311636.540    21311638.220   111993473.8170   87267681.2190
  83631710.3160
  21657493.100    21657491.080                   113810908.1590   88683823.2410

  21449528.640    21449524.640                   112718029.1870   87832219.8560

  24547031.320    24547030.420                   128995709.7860  100516254.0590

  24871357.680    24871354.780                   130699870.4330  101844044.0640

 23  2 11  1 26 30.0000000  0  9G01G03G04G06G09G17G19G21G31
  22670665.620    22670667.340    22670667.920   119135311.6820   92832805.3790
  88964807.3220
  21345564.560    21345564.760    21345566.260   112171858.8670   87406764.6070
  83764944.0830
  20338745.500    20338744.480    20338749.180   106881152.8750   83284123.4000
  79813989.2110
  22255582.640    22255583.420    22255585.600   116953889.0900   91132901.1160
  87335716.4760
  21297975.600    21297975.780    21297977.520   111921686.1990   87211742.8360
  83578102.7140
  21666714.920    21666712.980                   113859369.0390   88721584.9320

  21448855.040    21448851.060                   112714489.2710   87829461.4700

  24563635.200    24563634.600                   129082964.2090  100584244.4200

  24882159.080    24882156.220                   130756632.4890  101888274.2330

 23  2 11  1 27  0.0000000  0  9G01G03G04G06G09G17G19G21G31
  22688095.760    22688097.320    22688097.820   119226907.9570   92904179.0770
  89033207.1090
  21355442.420    21355442.640    21355444.280   112223767.3830   87447212.7930
  83803706.9220
  20337828.600    20337827.560    20337832.280   106876334.5170   83280368.8400
  79810391.0900
  22239490.420    22239491.200    22239493.420   116869323.2830   91067005.7040
  87272566.7180
  21284394.320    21284394.460    21284396.140   111850316.1110   87156129.8030
  83524806.8990
  21676027.220    21676025.320                   113908305.4190   88759717.1530

  21448306.920    21448303.020                   112711609.1230   87827217.1900

  24580266.740    24580265.800                   129170362.1460  100652346.6170

  24893054.640    24893051.760                   130813889.3560  101932889.9940

 23  2 11  1 27 30.0000000  0  9G01G03G04G06G09G17G19G21G31
  22705574.100    22705575.580    22705575.900   119318756.6070   92975749.4320
  89101795.3660
  21365357.520    21365357.760    21365359.440   112275871.6220   87487813.4900
  83842615.9200
  20337015.340    20337014.240    20337019.040   106872060.8410   83277038.7050
  79807199.7170
  22223435.120    22223436.000    22223438.140   116784952.2910   91001262.1070
  87209562.4470
  21270892.240    21270892.320    21270894.040   111779362.2180   87100841.0780
  83471821.8760
  21685429.120    21685427.100                   113957712.6400   88798216.2700

  21447883.780    21447879.960                   112709386.0510   87825484.9140

  24596924.780    24596923.700                   129257899.3030  100720557.3020

  24904043.500    24904040.800                   130871636.5490  101977887.7970

 23  2 11  1 28  0.0000000  0  9G01G03G04G06G09G17G19G21G31
  22723100.420    22723101.780    22723102.260   119410857.2550   93047516.1390
  89170571.7800
  21375309.920    21375310.200    21375311.740   112328171.7290   87528566.8080
  83881671.1830
  20336305.800    20336304.700    20336309.540   106868332.1520   83274133.2430
  79804415.3140
  22207417.440    22207418.320    22207420.220   116700779.1510   90935672.6760
  87146705.9010
  21257469.760    21257469.800    21257471.560   111708826.6880   87045878.3460
  83419149.2660
  21694920.420    21694918.420                   114007589.5880   88837081.3950

  21447585.820    21447581.960                   112707820.5790   87824265.0550

  24613609.040    24613607.920                   129345575.5150  100788876.3690

  24915125.580    24915122.800                   130929872.8230  102023266.7080

 23  2 11  1 28 30.0000000  0  9G01G03G04G06G09G17G19G21G31
  22740674.620    22740676.100    22740676.700   119503210.6700   93119479.8000
  89239536.9530
  21385299.820    21385300.120    21385301.520   112380669.1070   87569473.8460
  83920873.7630
  20335700.280    20335699.160    20335704.020   106865149.9600   83271653.6210
  79802039.0110
  22191438.280    22191438.960    22191440.760   116616808.0560   90870240.6580
  87084000.2250
  21244127.540    21244127.560    21244129.340   111638712.9540   86991244.2890
  83366791.6410
  21704501.300    21704499.340                   114057937.1710   88876313.2570

  21447413.360    21447409.460                   112706914.5580   87823559.0590

  24630319.640    24630318.680                   129433391.3430  100857304.1870

  24926300.700    24926297.680                   130988598.3750  102069026.9150

 23  2 11  1 29  0.0000000  0 10G01G03G04G06G07G09G17G19G21G31
  22758296.020    22758297.720    22758298.300   119595812.6320   93191637.1320
  89308687.7220
  21395326.560    21395326.840    21395328.260   112433360.0950   87610531.7440
  83960220.9090
  20335198.060    20335196.960    20335201.720   106862510.7050   83269597.0670
  79800068.1470
  22175497.460    22175497.980    22175499.800   116533038.2110   90804965.4660
  87021444.8310
  25311742.960

  21230865.260    21230865.320    21230867.140   111569019.3910   86936937.6380
  83314747.7740
  21714170.580    21714168.600                   114108749.4770   88915907.2420

  21447365.800    21447361.920                   112706665.0200   87823364.6140

  24647056.380    24647055.280                   129521342.7440  100925837.6290

  24937567.780    24937565.040                   131047808.5700  102115164.6990

 23  2 11  1 29 30.0000000  0 10G01G03G04G06G07G09G17G19G21G31
  22775959.960    22775961.660    22775962.000   119688637.1260   93263967.8750
  89378004.6760
  21405385.360    21405385.560    21405387.080   112486219.3400   87651720.7610
  83999693.7050
  20334794.300    20334793.200    20334797.940   106860389.1160   83267943.8890
  79798483.8510
  22159590.600    22159591.180    22159593.120   116449447.0970   90739829.5440
  86959022.9270
  25294550.480    25294563.800                   132923760.6671  103576990.7931

  21217678.520    21217678.580    21217680.440   111499722.6180   86882940.1660
  83263000.2110
  21723923.300    21723921.280                   114160000.1730   88955842.8310

  21447438.460    21447434.600                   112707046.9660   87823662.2240

  24663814.300    24663813.020                   129609404.6790  100994457.2000

  24948922.000    24948919.620

 23  2 11  1 30  0.0000000  0 10G01G03G04G06G07G09G17G19G21G31
  22793676.600    22793678.080    22793678.140   119781737.8120   93336513.8450
  89447527.8980
  21415486.540    21415486.660    21415488.240   112539301.1240   87693083.1810
  84039332.6890
  20334499.420    20334498.300    20334502.960   106858839.5060   83266736.4040
  79797326.6830
  22143728.540    22143729.360    22143731.300   116366091.9190   90674877.5020
  86896777.2220
  25277339.580    25277353.560                   132833321.3310  103506519.4980

  21204577.960    21204578.080    21204579.900   111430878.8810   86829295.7210
  83211590.9590
  21733769.460    21733767.540                   114211742.0370   88996161.1360

  21447641.800    21447638.000                   112708115.2100   87824494.6120

  24680603.300    24680602.240                   129697630.5440  101063204.5110

  24960373.760    24960371.600                   131167647.9331  102208547.2841

 23  2 11  1 30 30.0000000  0 10G01G03G04G06G07G09G17G19G21G31
  22811439.760    22811441.100    22811441.260   119875083.5540   93409250.7600
  89517234.1100
  21425624.200    21425624.360    21425625.900   112592575.0070   87734595.2880
  84079115.1270
  20334307.580    20334306.440    20334311.120   106857831.4010   83265950.8780
  79796573.8910
  22127906.160    22127907.060    22127908.800   116282944.8750   90610087.6200
  86834686.9260
  25260103.780    25260117.100                   132742742.2421  103435960.4391

  21191558.220    21191558.300    21191560.160   111362459.6860   86775982.0830
  83160498.7300
  21743703.060    21743701.180                   114263943.4390   89036837.5370

  21447970.020    21447966.240                   112709839.7290   87825838.3840

  24697417.420    24697416.280                   129785989.0340  101132055.2190

  24971916.820    24971914.540                   131228306.6520  102255813.8120

 23  2 11  1 31  0.0000000  0 10G01G03G04G06G07G09G17G19G21G31
  22829248.680    22829250.160    22829250.580   119968670.3120   93482175.4660
  89587120.2760
  21435797.740    21435797.960    21435799.440   112646037.5180   87776254.3770
  84119038.4180
  20334218.140    20334216.980    20334221.700   106857361.4030   83265584.6530
  79796222.9270
  22112123.380    22112124.120    22112125.680   116200005.5120   90545459.5510
  86772751.6900
  25242843.160    25242855.880                   132652040.8710  103365285.1370

  21178618.980    21178619.040    21178620.920   111294463.5340   86722998.0910
  83109722.4140
  21753723.220    21753721.380                   114316599.4960   89077868.2000

  21448422.580    21448418.700                   112712217.2930   87827691.0200

  24714256.280    24714255.100                   129874476.6550  101201006.4830

  24983550.400    24983547.680                   131289439.9510  102303450.1880

 23  2 11  1 31 30.0000000  0 10G01G03G04G06G07G09G17G19G21G31
  22847103.900    22847105.560    22847106.120   120062500.5080   93555289.8530
  89657188.2380
  21446007.820    21446008.040    21446009.560   112699691.8400   87818062.9330
  84159104.9480
  20334231.700    20334230.540    20334235.300   106857432.6560   83265640.1810
  79796276.1410
  22096381.240    22096381.840    22096383.340   116117279.8030   90480997.9720
  86710976.0180
  25225559.060    25225571.640                   132561208.7151  103294500.6181

  21165761.220    21165761.260    21165763.060   111226895.4780   86670347.6840
  83059265.7840
  21763830.160    21763828.300                   114369711.9010   89119254.4710

  21449000.120    21448996.040                   112715251.7580   87830055.5340

  24731120.240    24731119.000                   129963095.8940  101270060.2880

  24995274.420    24995271.580                   131351049.7590  102351457.8080

 23  2 11  1 32  0.0000000  0 10G01G03G04G06G07G09G17G19G21G31
  22865005.340    22865006.900    22865007.500   120156572.7240   93628592.8440
  89727436.9200
  21456254.280    21456254.500    21456256.060   112753537.1700   87860020.3270
  84199314.1120
  20334348.100    20334346.960    20334351.640   106858044.2740   83266116.7720
  79796732.8780
  22080680.060    22080680.740    22080682.320   116034769.8050   90416704.4750
  86649361.4270
  25208251.340    25208264.160                   132470259.5120  103223632.3490

  21152985.140    21152985.100    21152986.940   111159756.6510   86618031.7290
  83009129.6650
  21774023.540    21774021.660                   114423278.4140   89160994.5920

  21449702.380    21449698.360                   112718942.2200   87832931.2040

  24748008.840    24748007.540                   130051845.7660  101339215.9340

  25007088.620    25007085.700                   131413134.0750  102399835.1970

 23  2 11  1 32 30.0000000  0 10G01G03G04G06G07G09G17G19G21G31
  22882953.120    22882954.440    22882955.260   120250888.3060   93702085.4780
  89797867.3440
  21466537.420    21466537.760    21466539.280   112807575.5640   87902128.1540
  84239667.4450
  20334567.640    20334566.580    20334571.200   106859198.2430   83267015.9710
  79797594.6100
  22065020.760    22065021.800    22065023.440   115952480.3850   90352582.8780
  86587911.5660
  25190920.780    25190934.320                   132379192.1350  103152672.0560

  21140291.440    21140291.400    21140293.240   111093050.9490   86566053.2850
  82959316.9970
  21784303.520    21784301.560                   114477299.7580   89203089.1280

  21450529.980    21450526.060                   112723291.5000   87836320.2490

  24764922.380    24764921.160                   130140727.4210  101408474.2230

  25018993.260    25018990.480                   131475693.6220  102448582.8710

 23  2 11  1 33  0.0000000  0 10G01G03G04G06G07G09G17G19G21G31
  22900945.900    22900947.000    22900948.120   120345440.8660   93775762.7860
  89868474.7460
  21476856.260    21476856.560    21476858.160   112861801.3260   87944381.9830
  84280160.6950
  20334889.320    20334888.260    20334892.940   106860888.7910   83268333.2870
  79798857.0340
  22049403.020    22049404.200    22049405.900   115870408.7540   90288630.9860
  86526624.3330
  25173567.340    25173580.460                   132288003.9590  103081617.6600

  21127679.440    21127679.420    21127681.260   111026774.5810   86514409.3860
  82909824.9290
  21794668.620    21794666.680                   114531768.8210   89245532.5310

  21451481.780    21451477.900                   112728293.2510   87840217.7110

  24781859.980    24781858.840                   130229734.8490  101477830.5150

  25030986.940    25030983.960                   131538721.2560  102497695.3320

 23  2 11  1 33 30.0000000  0 10G01G03G04G06G07G09G17G19G21G31
  22918983.900    22918984.980    22918986.220   120440231.6510   93849625.7020
  89939260.0270
  21487211.120    21487211.300    21487212.980   112916216.4250   87986783.3560
  84320795.3430
  20335313.440    20335312.420    20335317.160   106863117.7350   83270070.1310
  79800521.5170
  22033827.700    22033828.720    22033830.480   115788559.6690   90224852.4830
  86465503.2870
  25156191.760    25156204.240                   132196699.8330  103010472.8900

  21115149.860    21115149.820    21115151.680   110960931.2990   86463102.9570
  82860656.2820
  21805119.000    21805117.100                   114586686.0960   89288325.1840

  21452558.220    21452554.380                   112733950.0920   87844625.6410

  24798821.740    24798820.840                   130318869.6150  101547286.0110

  25043070.040    25043067.280                   131602219.8071  102547173.1541

 23  2 11  1 34  0.0000000  0 10G01G03G04G06G07G09G17G19G21G31
  22937067.200    22937068.380    22937069.420   120535259.8760   93923673.6290
  90010222.6270
  21497602.000    21497602.180    21497603.800   112970820.7790   88029332.1950
  84361571.3140
  20335840.020    20335838.960    20335843.800   106865884.8740   83272226.3510
  79802587.8950
  22018295.120    22018296.040    22018297.760   115706935.9200   90161249.5700
  86404550.4930
  25138794.560    25138806.720                   132105282.3580  102939239.7640

  21102703.020    21102702.980    21102704.800   110895522.8950   86412135.3940
  82811812.3710
  21815654.340    21815652.400                   114642049.6470   89331465.5870

  21453759.300    21453755.480                   112740262.0410   87849544.0290

  24815807.600    24815806.880                   130408131.1410  101616840.3500

  25055241.760    25055239.140

 23  2 11  1 34 30.0000000  0 10G01G03G04G06G07G09G17G19G21G31
  22955195.040    22955196.340    22955197.140   120630521.6640   93997903.5650
  90081359.6470
  21508028.260    21508028.540    21508030.120   113025611.2680   88072026.0730
  84402486.2760
  20336468.420    20336467.320    20336472.200   106869186.9170   83274799.3820
  79805053.7150
  22002805.280    22002806.320    22002808.020   115625537.2500   90097822.0500
  86343765.7850
  25121375.640    25121387.640                   132013751.3640  102867918.2440

  21090338.680    21090338.620    21090340.500   110830548.0230   86361505.6460
  82763292.2080
  21826273.780    21826271.860                   114697854.9920   89374950.2510

  21455084.500    21455080.720                   112747225.9980   87854970.4770

  24832816.980    24832816.060                   130497515.5150  101686490.3840

  25067501.600    25067499.120                   131730609.6801  102647217.2151

 23  2 11  1 35  0.0000000  0 10G01G03G04G06G07G09G17G19G21G31
  22973367.340    22973368.760    22973369.520   120726017.3480   94072315.7640
  90152671.3300
  21518490.140    21518490.560    21518492.100   113080588.9740   88114865.8290
  84443541.0420
  20337198.760    20337197.640    20337202.480   106873024.7090   83277789.8710
  79807919.6000
  21987359.140    21987360.360    21987362.180   115544367.5670   90034572.9800
  86283152.0970
  25103936.120    25103948.100                   131922111.0370  102796511.4620

  21078057.400    21078057.400    21078059.200   110766009.5530   86311215.9560
  82715097.9290
  21836977.220    21836975.300                   114754101.6650   89418778.8040

  21456534.060    21456530.200                   112754843.2770   87860906.0130

  24849849.920    24849848.880                   130587023.3710  101756236.6350

  25079851.300    25079845.460

 23  2 11  1 35 30.0000000  0 10G01G03G04G06G07G09G17G19G21G31
  22991584.120    22991585.660    22991586.580   120821747.1340   94146910.3710
  90224157.8170
  21528987.820    21528988.300    21528989.820   113135754.8490   88157852.2130
  84484736.3290
  20338031.160    20338030.060    20338034.840   106877399.0030   83281198.4180
  79811186.1300
  21971957.460    21971958.600    21971960.640   115463430.6800   89971505.2900
  86222712.2330
  25086476.360    25086488.000                   131830365.0410  102725022.3410

  21065859.660    21065859.680    21065861.500   110701910.2040   86261268.4360
  82667231.5600
  21847764.540    21847762.540                   114810789.1990   89462950.8880

  21458108.220    21458104.200                   112763115.2150   87867351.6750

  24866906.260    24866905.340                   130676655.1050  101826079.3780

  25092285.980    25092282.040                   131860852.3391  102748701.6501

 23  2 11  1 36  0.0000000  0 10G01G03G04G06G07G09G17G19G21G31
  23009844.640    23009846.280    23009847.380   120917706.9560   94221684.2110
  90295816.0690
  21539520.720    21539521.280    21539522.880   113191105.5250   88200982.5980
  84526069.6180
  20338964.960    20338963.880    20338968.580   106882306.2580   83285022.2570
  79814850.6450
  21956599.940    21956600.940    21956603.080   115382726.1000   89908618.6160
  86162445.8430
  25068996.380    25069007.720                   131738512.9330  102653450.5270

  21053745.200    21053745.240    21053747.000   110638248.3660   86211661.8250
  82619691.9070
  21858634.720    21858632.740                   114867912.3570   89507462.4150

  21459806.160    21459802.060                   112772037.8270   87874304.3400

  24883985.660    24883984.620                   130766406.7680  101896015.5740

  25104809.300    25104805.040                   131926660.1371  102799978.4431

 23  2 11  1 36 30.0000000  0 10G01G03G04G06G07G09G17G19G21G31
  23028149.280    23028150.860    23028152.040   121013897.9390   94296638.1830
  90367646.9660
  21550089.180    21550089.720    21550091.480   113246643.0470   88244258.5810
  84567542.4270
  20340000.480    20339999.420    20340004.080   106887748.1840   83289262.7210
  79818914.4180
  21941287.340    21941288.380    21941290.400   115302258.4930   89845916.6070
  86102356.4240
  25051497.380    25051508.680                   131646559.6080  102581799.8380

  21041714.720    21041714.780    21041716.520   110575027.8090   86162399.0700
  82572481.7720
  21869587.920    21869586.060                   114925471.9400   89552314.0100

  21461628.380    21461624.320                   112781613.4210   87881765.8240

  24901088.200    24901087.100                   130856279.7820  101966046.3450

  25117418.940    25117415.380                   131992927.4721  102851615.7121

 23  2 11  1 37  0.0000000  0 10G01G03G04G06G07G09G17G19G21G31
  23046497.440    23046498.900    23046500.060   121110317.3980   94371770.2090
  90439648.4830
  21560692.820    21560693.380    21560695.180   113302365.3990   88287678.5850
  84609153.2590
  20341137.280    20341136.260    20341140.940   106893722.5180   83293918.0520
  79823375.7800
  21926020.200    21926021.180    21926023.080   115222029.0990   89783400.2090
  86042444.8790
  25033979.320    25033990.320

  21029768.140    21029768.280    21029769.840   110512248.2040   86113479.9140
  82525600.9240
  21880623.440    21880621.640                   114983463.8310   89597502.4700

  21463574.420    21463570.460                   112791839.9380   87889734.5260

  24918213.240    24918212.340                   130946271.6000  102036169.6470

  25130114.920    25130111.960                   132059646.9890  102903604.8700

 23  2 11  1 37 30.0000000  0 10G01G03G04G06G07G09G17G19G21G31
  23064887.980    23064889.580    23064890.680   121206960.4670   94447076.4640
  90511816.9870
  21571330.780    21571331.320    21571333.140   113358268.5740   88331239.4880
  84650899.1260
  20342374.640    20342373.640    20342378.300   106900224.9460   83298984.8900
  79828231.5030
  21910798.240    21910799.160    21910801.080   115142036.5550   89721068.3770
  85982710.2110
  25016442.360    25016452.420                   131462294.8501  102438198.7441

  21017905.040    21017905.180    21017906.740   110449907.2800   86064902.5930
  82479047.6660
  21891740.220    21891738.360                   115041882.9150   89643023.8150

  21465643.460    21465639.660                   112802713.2760   87898207.2410

  24935360.000    24935359.000                   131036377.7250  102106382.0730

  25142896.400    25142893.360                   132126814.8740  102955943.5450

 23  2 11  1 38  0.0000000  0 10G01G03G04G06G07G09G17G19G21G31
  23083322.020    23083323.960    23083324.940   121303833.1470   94522561.6170
  90584156.9140
  21582004.520    21582004.920    21582006.740   113414359.3510   88374946.5770
  84692785.0850
  20343713.720    20343712.720    20343717.360   106907261.8720   83304468.2130
  79833486.3500
  21895623.100    21895624.000    21895626.080   115062290.4770   89658928.5990
  85923159.5940
  24998887.780    24998897.100                   131370048.8140  102366319.8990

  21006127.040    21006127.180    21006128.800   110388013.4460   86016673.6540
  82432828.2740
  21902939.160    21902937.220                   115100733.7020   89688881.5350

  21467836.860    21467833.040                   112814240.0130   87907189.0990

  24952529.540    24952528.460                   131126603.8830  102176687.9940

  25155764.440    25155760.580

 23  2 11  1 38 30.0000000  0 10G01G03G04G06G07G09G17G19G21G31
  23101798.460    23101800.400    23101801.340   121400927.7860   94598219.7290
  90656662.5880
  21592712.680    21592712.920    21592714.660   113470630.8910   88418794.5300
  84734806.0380
  20345153.180    20345152.180    20345156.720   106914826.1330   83310362.4460
  79839134.9980
  21880494.040    21880494.860    21880497.060   114982786.8800   89596977.7660
  85863790.0560
  24981314.740    24981324.140                   131277707.2730  102294366.6780

  20994433.140    20994433.200    20994434.900   110326561.5160   85968789.0530
  82386938.8750
  21914218.720    21914216.780                   115160008.0270   89735069.2960

  21470153.360    21470149.480                   112826413.1870   87916674.6710

  24969720.700    24969719.440                   131216942.7930  102247081.7800

  25168717.040    25168712.980                   132262500.3101  103061673.5441

 23  2 11  1 39  0.0000000  0 10G01G03G04G06G07G09G17G19G21G31
  23120317.600    23120319.320    23120320.200   121498246.2840   94674052.2960
  90729335.4380
  21603455.760    21603455.960    21603457.680   113527085.9450   88462785.4790
  84776964.0250
  20346693.500    20346692.440    20346696.920   106922920.1100   83316669.4490
  79845179.2070
  21865412.240    21865412.860    21865415.080   114903531.3780   89535220.2510
  85804605.7750
  24963724.440    24963733.740                   131185275.8730  102222343.3450

  20982824.160    20982824.200    20982825.960   110265555.8800   85921252.2100
  82341382.7420
  21925579.060    21925577.200                   115219706.9930   89781587.9400

  21472593.420    21472589.600                   112839235.5630   87926666.1210

  24986933.620    24986932.340                   131307396.2240  102317564.8430

  25181754.880    25181750.840                   132331014.3560  103115061.1270

 23  2 11  1 39 30.0000000  0 10G01G03G04G06G07G09G17G19G21G31
  23138878.780    23138880.280    23138881.360   121595785.8440   94750057.1370
  90802173.4050
  21614233.360    21614233.480    21614235.280   113583722.5940   88506917.9350
  84819257.6220
  20348334.160    20348333.040    20348337.540   106931541.4680   83323387.3950
  79851617.2410
  21850377.900    21850378.340    21850380.420   114824524.9080   89473656.7750
  85745607.4380
  24946117.620    24946126.800                   131092755.5770  102150250.7760

  20971300.040    20971300.040    20971301.780   110204996.2230   85874062.8900
  82296159.6490
  21937019.520    21937017.640                   115279827.0400   89828434.7030

  21475156.540    21475152.820                   112852704.7990   87937161.6110

  25004168.020    25004166.480                   131397962.3590  102388135.6920

  25194876.960    25194873.340                   132399971.3710  103168793.9080

 23  2 11  1 40  0.0000000  0 10G01G03G04G06G07G09G17G19G21G31
  23157481.840    23157483.260    23157484.400   121693545.5420   94826233.4970
  90875175.7220
  21625045.500    21625045.660    21625047.360   113640540.6730   88551191.7490
  84861686.6900
  20350075.000    20350073.820    20350078.380   106940689.6180   83330515.8290
  79858448.6590
  21835391.280    21835391.800    21835393.760   114745770.0870   89412289.4030
  85686797.0420
  24928494.560    24928503.100                   131000149.4530  102078091.2720

  20959861.040    20959861.060    20959862.720   110144883.9960   85827222.2140
  82251270.6750
  21948539.720    21948537.860                   115340365.6560   89875607.6260

  21477842.640    21477838.960                   112866820.4660   87948160.8170

  25021423.280    25021422.160                   131488640.0740  102458793.4860

  25208082.980    25208079.860

 23  2 11  1 40 30.0000000  0 10G01G03G04G06G07G09G17G19G21G31
  23176126.760    23176128.400    23176129.540   121791526.0120   94902581.8760
  90948342.9330
  21635892.440    21635892.600    21635894.200   113697541.7360   88595608.1610
  84904252.4160
  20351916.220    20351915.080    20351919.640   106950365.6990   83338055.6390
  79865674.3060
  21820453.380    21820454.000    21820455.980   114667271.3980   89351121.6200
  85628177.9160
  24910855.840    24910863.960                   130907461.7550  102005868.1500

  20948507.780    20948507.820    20948509.420   110085222.2830   85780732.5920
  82206718.1330
  21960139.600    21960137.780                   115401322.9710   89923106.7960

  21480652.020    21480648.240                   112881583.7420   87959664.6540

  25038699.980    25038699.060                   131579429.9010  102529538.6520

  25221373.000    25221369.420                   132539209.4761  103277293.0741

 23  2 11  1 41  0.0000000  0 10G01G03G04G06G07G09G17G19G21G31
  23194812.160    23194813.880    23194815.160   121889718.3570   94979095.3450
  91021668.3400
  21646772.680    21646772.860    21646774.300   113754717.7270   88640160.8700
  84946948.7680
  20353856.220    20353855.260    20353859.820   106960561.2170   83346000.1980
  79873287.8520
  21805563.340    21805563.920    21805565.940   114589023.6090   89290149.3380
  85569746.1610
  24893200.440    24893208.640                   130814687.3900  101933577.5170

  20937239.000    20937239.040    20937240.640   110026004.6440   85734588.9960
  82162497.1940
  21971817.280    21971815.320                   115462689.4130   89970924.7740

  21483583.140    21483579.300                   112896986.6210   87971666.8920

  25055996.400    25055995.720                   131670149.4071  102600112.5921

  25234745.440    25234741.140

 23  2 11  1 41 30.0000000  0 10G01G03G04G06G07G09G17G19G21G31
  23213539.500    23213541.060    23213542.400   121988129.7320   95055779.5000
  91095157.3170
  21657687.740    21657687.860    21657689.320   113812076.6840   88684856.1650
  84989781.7550
  20355896.620    20355895.700    20355900.260   106971283.6800   83354355.3710
  79881294.8880
  21790723.120    21790723.600    21790725.620   114511037.6190   89229381.0380
  85511509.8720
  24875530.780    24875539.100                   130721837.2700  101861227.8600

  20926056.580    20926056.600    20926058.160   109967240.6270   85688798.8650
  82118614.9840
  21983573.920    21983571.900                   115524470.7860   90019066.0750

  21486637.300    21486633.520                   112913036.3220   87984173.1260

  25073314.100    25073313.560                   131761154.1090  102671025.1220

  25248197.280

 23  2 11  1 42  0.0000000  0 10G01G03G04G06G07G09G17G19G21G31
  23232307.820    23232309.180    23232310.500   122086756.6190   95132631.5890
  91168807.2150
  21668637.100    21668637.220    21668638.780   113869616.0120   88729691.9980
  85032749.4290
  20358036.780    20358035.780    20358040.340   106982529.9710   83363118.7250
  79889693.1060
  21775932.700    21775933.140    21775935.100   114433313.6130   89168816.8860
  85453469.2380
  24857846.900    24857854.700                   130628911.7370  101788819.2940

  20914960.240    20914960.300    20914961.900   109908929.1220   85643361.3590
  82075070.7210
  21995408.720    21995406.680                   115586663.0690   90067527.5620

  21489814.040    21489810.280                   112929729.8350   87997181.0460

  25090652.400    25090651.980                   131852267.6661  102742024.6541

  25261738.720    25261736.240

 23  2 11  1 42 30.0000000  0 10G01G03G04G06G07G09G17G19G21G31
  23251115.580    23251116.860    23251118.180   122185592.1330   95209646.2410
  91242612.9130
  21679619.540    21679619.780    21679621.480   113927329.6750   88774663.6780
  85075847.2810
  20360275.340    20360274.260    20360278.840   106994293.5600   83372285.1680
  79898477.6140
  21761191.520    21761192.040    21761194.000   114355848.4580   89108454.4390
  85395621.8990
  24840148.120    24840156.040                   130535907.9300  101716349.8190

  20903949.140    20903949.220    20903950.800   109851065.6060   85598272.9280
  82031860.9760
  22007320.160    22007318.280                   115649258.3350   90116303.0590

  21493112.060    21493108.260                   112947060.9870   88010685.8250

  25108010.340    25108009.940                   131943481.2030  102813099.9410

  25275359.460    25275355.400

 23  2 11  1 43  0.0000000  0 10G01G03G04G06G07G09G17G19G21G31
  23269964.560    23269966.000    23269967.240   122284645.4840   95286830.6270
  91316581.2900
  21690637.100    21690637.560    21690639.100   113985227.8510   88819779.1190
  85119082.9200
  20362614.140    20362613.000    20362617.640   107006584.0630   83381862.1930
  79907655.5910
  21746502.100    21746502.760    21746504.740   114278655.1400   89048303.8280
  85337977.5620
  24822436.840    24822444.200                   130442838.4690  101643829.0640

  20893025.520    20893025.600    20893027.240   109793661.7480   85553542.6650
  81988994.4820
  22019309.840    22019308.080                   115712264.7020   90165398.9000

  21496533.240    21496529.380                   112965039.3650   88024694.9400

  25125388.920    25125388.400                   132034805.0730  102884261.1520

  25289058.760    25289056.760                   132894901.5411  103554459.9651

 23  2 11  1 43 30.0000000  0 10G01G03G04G06G07G09G17G19G21G31
  23288852.820    23288854.500    23288855.360   122383904.8960   95364175.5620
  91390703.5250
  21701687.820    21701688.220    21701689.760   114043299.6060   88865029.8310
  85162448.1830
  20365051.040    20365049.860    20365054.520   107019389.9910   83391840.8470
  79917218.4670
  21731862.960    21731863.600    21731865.640   114201725.5980   88988358.7370
  85280530.1960
  24804711.760    24804718.740                   130349696.1520  101571251.5300

  20882187.580    20882187.680    20882189.300   109736708.0620   85509163.1930
  81946464.1640
  22031375.380    22031373.580                   115775669.2200   90214804.9950

  21500075.380    21500071.580                   112983653.5310   88039199.4690

  25142786.200    25142785.540                   132126227.7180  102955499.3770

  25302840.920    25302839.340                   132967324.5171  103610895.9111

 23  2 11  1 44  0.0000000  0 10G01G03G04G06G07G09G17G19G21G31
  23307781.200    23307782.700    23307783.500   122483372.9610   95441683.1310
  91464981.6020
  21712772.300    21712772.620    21712774.160   114101548.5710   88910418.6290
  85205945.7790
  20367586.600    20367585.400    20367590.080   107032714.3720   83402223.4900
  79927168.5080
  21717275.120    21717275.840    21717277.860   114125066.2890   88928624.2210
  85223284.6240
  24786973.900    24786980.880                   130256487.0310  101498622.0150

  20871436.300    20871436.320    20871438.020   109680209.6310   85465138.4650
  81904273.8110
  22043517.040    22043515.220                   115839474.1840   90264523.1250

  21503739.140    21503735.280                   113002906.5540   88054201.8120

  25160202.800    25160202.360                   132217751.8990  103026816.7440

  25316703.760    25316701.520                   133040173.9601  103667660.8461

 23  2 11  1 44 30.0000000  0 10G01G03G04G06G07G09G17G19G21G31
  23326749.140    23326750.460    23326751.420   122583048.6420   95519352.4660
  91539414.7010
  21723890.420    21723890.680    21723892.200   114159974.5570   88955945.3650
  85249575.5640
  20370220.640    20370219.460    20370224.160   107046556.4040   83413009.4960
  79937505.1000
  21702739.180    21702739.980    21702741.900   114048679.8630   88869102.3390
  85166242.8220
  24769224.040    24769230.320                   130163214.0480  101425942.6570

  20860771.860    20860771.840    20860773.540   109624167.6550   85421469.4110
  81862424.3060
  22055734.460    22055732.700                   115903677.0310   90314551.2820

  21507524.360    21507520.420                   113022797.9590   88069701.5860

  25177638.580    25177638.160                   132309377.0500  103098212.7590

  25330646.780    25330644.100

 23  2 11  1 45  0.0000000  0 10G01G03G04G06G07G09G17G19G21G31
  23345756.000    23345757.180    23345758.480   122682929.6590   95597181.8030
  91614001.1410
  21735041.900    21735042.220    21735043.800   114218576.2820   89001609.0290
  85293336.5730
  20372952.840    20372951.640    20372956.360   107060914.1750   83424197.3740
  79948226.8200
  21688255.580    21688256.420    21688258.200   113972567.8710   88809794.3030
  85109405.9590
  24751462.360    24751468.340                   130069878.9380  101353214.8690

  20850194.260    20850194.200    20850196.000   109568582.2330   85378156.1140
  81820915.7420
  22068026.980    22068025.140                   115968274.2700   90364886.7820

  21511430.620    21511426.680                   113043325.6880   88085697.2070

  25195093.100    25195092.640                   132401100.7120  103169685.4660

  25344669.140    25344667.200                   133187134.3061  103782173.8641

 23  2 11  1 45 30.0000000  0 10G01G03G04G06G07G09G17G19G21G31
  23364801.140    23364802.400    23364803.920   122783013.0730   95675168.8510
  91688738.6850
  21746226.520    21746226.820    21746228.420   114277351.6730   89047408.0300
  85337227.2750
  20375782.640    20375781.420    20375786.160   107075784.9610   83435785.0060
  79959331.6340
  21673824.340    21673825.200    21673827.000   113896731.1140   88750700.7410
  85052774.6220
  24733688.880    24733695.100                   129976482.2960  101280439.1420

  20839703.460    20839703.400    20839705.180   109513452.8470   85335198.1750
  81779747.7170
  22080393.860    22080391.960                   116033262.6320   90415527.0390

  21515457.500    21515453.580                   113064486.8150   88102186.3900

  25212565.820    25212565.260                   132492920.0940  103241232.7700

  25358771.980    25358767.780                   133261242.5321  103839910.7221

 23  2 11  1 46  0.0000000  0 10G01G03G04G06G07G09G17G19G21G31
  23383885.300    23383886.680    23383888.240   122883301.4290   95753315.5840
  91763629.2950
  21757444.940    21757445.180    21757446.880   114336304.3710   89093345.1940
  85381250.3860
  20378710.620    20378709.440    20378714.140   107091171.7290   83447774.6990
  79970821.7540
  21659446.600    21659447.520    21659449.460   113821176.0330   88691826.6660
  84996353.6450
  24715905.140    24715910.440                   129883031.0250  101207620.8070

  20829300.320    20829300.280    20829302.080   109458784.2190   85292599.2670
  81738923.7770
  22092835.440    22092833.660                   116098643.7360   90466473.3090

  21519605.520    21519601.640                   113086284.5470   88119171.6320

  25230057.040    25230057.200                   132584838.0790  103312856.9490

  25372951.860    25372949.560                   133335762.6160  103897978.2530

 23  2 11  1 46 30.0000000  0 10G01G03G04G06G07G09G17G19G21G31
  23403007.760    23403009.380    23403010.980   122983790.7030   95831618.8900
  91838669.9500
  21768696.460    21768696.660    21768698.480   114395431.2850   89139418.0990
  85425403.5890
  20381736.040    20381734.920    20381739.620   107107070.6750   83460163.4930
  79982694.3520
  21645122.460    21645123.300    21645125.320   113745902.3580   88633171.8600
  84940142.7920
  24698110.900    24698115.700                   129789524.4800  101134759.3950

  20818984.580    20818984.560    20818986.320   109404574.7440   85250358.1360
  81698442.6970
  22105350.860    22105349.020                   116164412.1870   90517721.4250

  21523873.900    21523870.140                   113108715.1850   88136650.0290

  25247567.000    25247567.340                   132676851.2310  103384555.2280

  25387211.340    25387208.100                   133410688.2361  103956370.4911

 23  2 11  1 47  0.0000000  0 10G01G03G04G06G07G09G17G19G21G31
  23422168.000    23422169.820    23422171.240   123084478.5200   95910076.8720
  91913858.8590
  21779980.860    21779981.000    21779982.780   114454730.9860   89185625.6570
  85469685.8220
  20384858.540    20384857.440    20384862.140   107123479.6920   83472949.7450
  79994947.8460
  21630852.240    21630852.960    21630854.940   113670911.4910   88574737.4270
  84884143.1250
  24680306.300    24680311.260                   129695964.6270  101061856.4200

  20808756.220    20808756.140    20808757.940   109350824.2840   85208474.6850
  81658304.4020
  22117939.260    22117937.460                   116230564.6700   90569268.7920

  21528262.280    21528258.460                   113131776.1430   88154619.5980

  25265094.680    25265094.860                   132768956.9310  103456325.6000

  25401548.080    25401545.460                   133486035.0791  104015080.9511

 23  2 11  1 47 30.0000000  0  9G01G03G04G06G07G09G17G19G21
  23441365.980    23441367.960    23441369.400   123185365.2190   95988689.8370
  91989196.2820
  21791298.380    21791298.500    21791300.200   114514204.8870   89231968.9440
  85514098.1450
  20388078.280    20388077.100    20388081.800   107140399.4270   83486133.9540
  80007582.7170
  21616636.580    21616637.300    21616639.300   113596207.6860   88516526.6790
  84828357.8290
  24662492.600    24662496.980                   129602355.9680  100988915.3680

  20798615.720    20798615.600    20798617.400   109297535.5520   85166951.0190
  81618510.9000
  22130600.640    22130598.760                   116297100.5760   90621114.9290

  21532770.780    21532766.960                   113155468.3600   88173081.0520

  25282639.760    25282639.620                   132861155.9530  103528168.7360

 23  2 11  1 48  0.0000000  0  9G01G03G04G06G07G09G17G19G21
  23460601.180    23460603.380    23460604.620   123286447.4810   96067455.1610
  92064679.7250
  21802648.580    21802648.800    21802650.520   114573850.5880   89278446.1030
  85558638.7400
  20391394.600    20391393.340    20391398.100   107157826.7170   83499713.6710
  80020596.6120
  21602475.640    21602476.380    21602478.460   113521791.3700   88458539.9540
  84772787.2200
  24644669.760    24644674.000                   129508698.7260  100915936.4850

  20788562.860    20788562.680    20788564.480   109244707.4060   85125786.2480
  81579061.3330
  22143334.180    22143332.280                   116364015.4450   90673256.3620

  21537398.800    21537395.000                   113179788.8250   88192032.0530

  25300202.100    25300201.900                   132953444.9360  103600081.9530

 23  2 11  1 48 30.0000000  0  9G01G03G04G06G07G09G17G19G21
  23479874.100    23479876.160    23479877.480   123387726.8810   96146374.1390
  92140310.3850
  21814032.040    21814032.260    21814033.880   114633670.7160   89325059.1760
  85603309.6020
  20394807.840    20394806.580    20394811.340   107175763.4720   83513690.3670
  80033990.9440
  21588370.480    21588371.200    21588373.360   113447668.0310   88400781.5250
  84717435.3930
  24626838.580    24626842.900                   129414998.5670  100842924.1270

  20778598.360    20778598.220    20778599.980   109192343.8040   85084983.4580
  81539958.6680
  22156139.920    22156138.080                   116431309.9760   90725693.6300

  21542146.660    21542142.940                   113204739.3100   88211473.9650

  25317781.960    25317781.900                   133045825.7340  103672066.6510

 23  2 11  1 49  0.0000000  0 10G01G03G04G06G07G09G17G19G21G31
  23499184.220    23499186.100    23499187.320   123489201.1850   96225444.9950
  92216086.6030
  21825448.340    21825448.640    21825450.200   114693664.0980   89371807.2550
  85648109.8370
  20398317.700    20398316.440    20398321.120   107194207.6560   83528062.4630
  80047764.2060
  21574321.400    21574322.000    21574324.180   113373839.2810   88343252.6450
  84662303.5540
  24608999.420    24609003.480                   129321256.9270  100769879.3570

  20768722.300    20768722.140    20768723.920   109140444.7380   85044542.6530
  81501202.9070
  22169017.240    22169015.500                   116498980.7670   90778424.0860

  21547013.940    21547010.260                   113230317.0970   88231404.6940

  25335378.660    25335378.500                   133138296.0690  103744121.1700

  25459665.020    25459664.300

 23  2 11  1 49 30.0000000  0 10G01G03G04G06G07G09G17G19G21G31
  23518530.240    23518531.980    23518532.980   123590864.4340   96304663.0860
  92292003.9470
  21836896.740    21836897.120    21836898.600   114753825.7910   89418686.4820
  85693035.7600
  20401923.020    20401921.700    20401926.400   107213153.5820   83542825.5310
  80061912.1470
  21560327.900    21560328.440    21560330.600   113300303.0180   88285951.6650
  84607390.1250
  24591152.320    24591156.180                   129227472.4660  100696801.2400

  20758933.900    20758933.760    20758935.520   109089006.5540   85004460.9640
  81462791.2990
  22181965.000    22181963.140                   116567021.0380   90831442.4670

  21551999.680    21551995.880                   113256517.2480   88251820.3900

  25352991.420    25352991.260                   133230850.8350  103816241.4770

  25474386.820    25474382.460                   133868801.5601  104313348.4791

 23  2 11  1 50  0.0000000  0 10G01G03G04G06G07G09G17G19G21G31
  23537912.280    23537914.060    23537914.880   123692717.4790   96384029.0600
  92368062.9900
  21848377.520    21848377.900    21848379.480   114814157.6400   89465698.2980
  85738088.7540
  20405623.980    20405622.660    20405627.380   107232602.2060   83557980.3090
  80076435.4730
  21546390.900    21546391.460    21546393.560   113227063.8520   88228882.2050
  84552698.5570
  24573298.180    24573301.680                   129133649.8350  100623693.3620

  20749233.800    20749233.640    20749235.400   109038032.2180   84964740.7250
  81424726.0740
  22194982.920    22194981.060                   116635430.6170   90884748.6060

  21557104.020    21557100.200                   113283340.5440   88272721.6490

  25370619.800    25370620.420                   133323506.6981  103888446.9791

  25489180.740    25489177.820                   133946547.7600  104373929.8310

 23  2 11  1 50 30.0000000  0 10G01G03G04G06G07G09G17G19G21G31
  23557330.720    23557332.520    23557333.280   123794761.8050   96463544.0720
  92444264.8820
  21859891.160    21859891.540    21859893.100   114874662.2340   89512844.7250
  85783270.7430
  20409420.860    20409419.620    20409424.400   107252555.2730   83573528.1580
  80091335.4970
  21532511.460    21532512.120    21532514.120   113154127.2280   88172048.4910
  84498232.9140
  24555437.660    24555441.020                   129039794.4730  100550559.9280

  20739622.680    20739622.520    20739624.260   108987525.5260   84925384.8770
  81387010.0630
  22208071.180    22208069.480                   116704209.9950   90938342.8940

  21562327.160    21562323.400                   113310788.3040   88294109.4890

  25388265.580    25388265.440                   133416233.2180  103960701.0550

  25504049.980    25504046.880                   134024689.0420  104434819.0350

 23  2 11  1 51  0.0000000  0 10G01G03G04G06G07G09G11G17G19G21
  23576784.780    23576786.660    23576787.220   123896993.5410   96543205.1360
  92520606.7250
  21871437.140    21871437.480    21871439.200   114935336.7420   89560123.5460
  85828579.6130
  20413313.060    20413311.820    20413316.720   107273009.1200   83589466.2190
  80106609.4730
  21518689.620    21518690.280    21518692.260   113081493.1390   88115450.5040
  84443993.1840
  24537570.740    24537574.080                   128945906.1390  100477400.8280

  20730100.260    20730100.080    20730101.780   108937484.8390   84886392.1490
  81349642.0420
  25038726.740    25038724.900    25038730.400   131579403.5521  102529389.8131
  98257354.9481
  22221228.840    22221227.220                   116773353.8260   90992221.1770

  21567668.420    21567664.660                   113338856.7540   88315980.9930

  25405927.060    25405926.920                   133509042.8720  104033019.9140

 23  2 11  1 51 30.0000000  0 11G01G03G04G06G07G09G11G17G19G21G31
  23596274.680    23596276.560    23596277.040   123999413.3280   96623012.7110
  92597088.9710
  21883015.820    21883016.100    21883017.960   114996182.8850   89607536.1040
  85874016.6480
  20417300.700    20417299.520    20417304.400   107293964.5270   83605795.1110
  80122257.9980
  21504926.180    21504926.860    21504928.780   113009166.1080   88059091.7860
  84389982.7560
  24519698.660    24519701.760                   128851989.9840  100404220.0190

  20720667.020    20720666.840    20720668.520   108887912.9730   84847764.7410
  81312624.1150
  25018846.380    25018845.540    25018850.100   131474931.8050  102447983.2550
  98179340.3200
  22234455.740    22234454.100                   116842861.6050   91046383.0510

  21573127.920    21573124.100                   113367546.4970   88338336.6260

  25423604.480    25423604.860                   133601936.4390  104105404.1370

  25534012.620    25534008.440

 23  2 11  1 52  0.0000000  0 11G01G03G04G06G07G09G11G17G19G21G31
  23615798.840    23615800.640    23615801.360   124102014.0330   96702961.2840
  92673706.3140
  21894625.900    21894626.160    21894628.120   115057194.5930   89655077.6890
  85919577.3200
  20421382.500    20421381.340    20421386.140   107315414.5440   83622509.4140
  80138275.8640
  21491220.560    21491221.260    21491223.080   112937142.8220   88002969.7640
  84336199.1460
  24501820.600    24501823.540                   128758042.7620  100331014.9640

  20711322.060    20711321.900    20711323.520   108838805.0190   84809498.8170
  81275952.6020
  24998968.040    24998966.360    24998971.680   131370468.6940  102366583.4140
  98101332.1230
  22247750.400    22247748.840                   116912725.8190   91100822.6640

  21578704.260    21578700.460                   113396850.5290   88361170.9190

  25441296.660    25441297.020                   133694907.2500  104177848.5790

  25549103.640    25549101.700                   134261444.9641  104619302.4561

 23  2 11  1 52 30.0000000  0 10G01G03G04G06G07G09G11G17G19G21
  23635358.420    23635360.260    23635361.340   124204800.2620   96783054.4070
  92750462.2250
  21906268.640    21906268.980    21906270.820   115118377.5940   89702752.7400
  85965265.9130
  20425559.380    20425558.240    20425562.980   107337363.9940   83639612.8830
  80154666.6930
  21477574.420    21477575.160    21477576.860   112865431.8860   87947091.1220
  84282648.7870
  24483938.480    24483941.360                   128664073.4110  100257792.6870

  20702066.700    20702066.540    20702068.080   108790167.7710   84771599.6770
  81239632.6090
  24979092.440    24979091.460    24979096.660   131266022.3050  102285196.6170
  98023336.4470
  22261113.620    22261111.980                   116982949.6520   91155542.5090

  21584398.480    21584394.580                   113426773.5710   88384487.5640

  25459004.360    25459004.540                   133787959.9340  104250356.6800

 23  2 11  1 53  0.0000000  0 11G01G03G04G06G07G09G11G17G19G21G31
  23654952.260    23654954.080    23654955.440   124307766.4180   96863287.7520
  92827352.4850
  21917943.120    21917943.480    21917945.080   115179727.3320   89750557.7390
  86011079.0330
  20429830.220    20429829.120    20429833.860   107359807.3650   83657101.2260
  80171426.3570
  21463987.420    21463988.120    21463989.840   112794031.5010   87891454.4710
  84229330.3370
  24466051.880    24466054.500                   128570080.0170  100184551.6040

  20692900.200    20692900.080    20692901.640   108741997.7590   84734064.6190
  81203661.5260
  24959219.560    24959218.640    24959224.200   131161590.2590  102203820.9930
  97945351.4740
  22274543.940    22274542.280                   117053526.4600   91210537.3900

  21590209.400    21590205.580                   113457310.0430   88408282.2060

  25476726.440    25476726.720                   133881088.6950  104322924.0360

  25579506.000    25579505.360

 23  2 11  1 53 30.0000000  0 10G01G03G04G06G07G09G11G17G19G21
  23674580.200    23674582.400    23674583.660   124410911.7680   96943660.7130
  92904376.5500
  21929649.320    21929649.820    21929651.300   115241244.2040   89798492.9460
  86057016.9410
  20434194.940    20434193.840    20434198.620   107382744.0980   83674974.0070
  80188554.4360
  21450460.100    21450460.780    21450462.540   112722944.8730   87836062.3060
  84176246.1810
  24448161.200    24448163.520                   128476066.0110  100111294.4710

  20683822.940    20683822.820    20683824.400   108694296.4880   84696894.8160
  81168040.4690
  24939349.920    24939349.200    24939354.760   131057175.1850  102122458.5910
  97867379.1740
  22288041.140    22288039.440                   117124454.4560   91265805.9300

  21596136.920    21596133.120                   113488459.3530   88432554.3850

  25494462.660    25494463.520                   133974293.3150  104395550.5810

 23  2 11  1 54  0.0000000  0 11G01G03G04G06G07G09G11G17G19G21G31
  23694242.360    23694244.760    23694245.700   124514236.4960   97024173.4290
  92981534.5730
  21941387.600    21941388.220    21941389.600   115302929.5290   89846559.4200
  86103080.6320
  20438653.620    20438652.440    20438657.300   107406174.4560   83693231.4310
  80206051.1300
  21436993.260    21436993.840    21436995.740   112652176.0880   87780917.8140
  84123399.3810
  24430267.500    24430269.700                   128382035.6650  100038024.5750

  20674835.320    20674835.160    20674836.840   108647066.2260   84660092.0350
  81132771.1390
  24919484.260    24919483.560    24919489.260   130952780.6420  102041112.1960
  97789422.1950
  22301604.980    22301603.200                   117195732.5220   91321347.2600

  21602180.980    21602177.240                   113520221.2760   88457303.9150

  25512213.960    25512214.680                   134067574.4640  104468236.7750

  25610194.420

 23  2 11  1 54 30.0000000  0 10G01G03G04G06G07G09G11G17G19G21
  23713937.800    23713939.980    23713941.160   124617735.9910   97104822.3390
  93058823.1230
  21953157.380    21953157.940    21953159.500   115364779.8280   89894754.4440
  86149267.5260
  20443205.380    20443204.200    20443209.060   107430094.0800   83711870.0990
  80223913.1890
  21423586.840    21423587.340    21423589.220   112581724.5020   87726020.4810
  84070789.4380
  24412370.360    24412372.700                   128287988.4370   99964741.5140

  20665936.880    20665936.720    20665938.480   108600304.6090   84623654.4300
  81097851.7760
  24899622.420    24899621.300    24899627.320   130848405.3930  101959780.8390
  97711479.6760
  22315234.260    22315232.600                   117267355.0560   91377156.9890

  21608340.780    21608337.140                   113552591.2800   88482527.2740

  25529979.000    25529979.320                   134160927.8100  104540979.0990

 23  2 11  1 55  0.0000000  0 10G01G03G04G06G07G09G11G17G19G21
  23733666.880    23733668.840    23733670.180   124721413.0110   97185609.5700
  93136244.2080
  21964959.240    21964959.780    21964961.440   115426798.8710   89943080.9550
  86195580.4400
  20447850.760    20447849.560    20447854.400   107454505.6980   83730892.1370
  80242142.6480
  21410241.960    21410242.480    21410244.260   112511596.6690   87671375.4320
  84018421.2700
  24394471.480    24394473.680                   128193931.0580   99891450.5000

  20657128.500    20657128.420    20657130.160   108554016.3960   84587585.7110
  81063285.9290
  24879765.460    24879764.300    24879770.200   130744055.5650  101878469.2750
  97633556.0820
  22328929.620    22328927.820                   117339324.1310   91433236.7550

  21614616.820    21614613.120                   113585571.8300   88508226.3860

  25547758.280    25547758.600                   134254355.8530  104613779.4880

 23  2 11  1 55 30.0000000  0 10G01G03G04G06G07G09G11G17G19G21
  23753428.540    23753430.440    23753431.500   124825261.3220   97266530.2850
  93213793.2130
  21976792.340    21976792.780    21976794.500   115488981.6790   89991535.0770
  86242015.6340
  20452588.600    20452587.420    20452592.260   107479403.2810   83750292.8530
  80260735.0010
  21396958.220    21396958.780    21396960.580   112441790.4090   87616980.9460
  83966293.2210
  24376570.440    24376572.540                   128099861.6960   99818150.1430

  20648409.460    20648409.380    20648411.220   108508197.5320   84551882.7160
  81029070.5700
  24859912.840    24859911.660    24859917.200   130639728.3470  101797175.3720
  97555649.4140
  22342689.360    22342687.520                   117411631.9260   91489580.4730

  21621007.840    21621004.220                   113619156.7360   88534396.4190

  25565550.680    25565550.760                   134347852.7590  104686633.7180

 23  2 11  1 56  0.0000000  0 10G01G03G04G06G07G09G11G17G19G21
  23773222.980    23773225.140    23773225.720   124929282.0690   97347585.3640
  93291471.0330
  21988657.000    21988657.460    21988659.080   115551330.5710   90040118.6140
  86288574.8590
  20457419.140    20457418.020    20457422.860   107504788.1080   83770073.2400
  80279691.2030
  21383736.620    21383737.160    21383739.180   112372310.7790   87562840.9910
  83914409.1020
  24358667.980    24358669.840                   128005785.3600   99744844.3430

  20639780.380    20639780.280    20639782.260   108462851.3290   84516548.0270
  80995208.1560
  24840065.260    24840064.160    24840069.320   130535428.4310  101715902.6710
  97477763.0770
  22356513.500    22356511.820                   117484278.7110   91546188.3250

  21627514.020    21627510.460                   113653346.9900   88561038.1570

  25583356.360    25583356.280                   134441420.2100  104759542.8700

 23  2 11  1 56 30.0000000  0 10G01G03G04G06G07G09G11G17G19G21
  23793049.980    23793052.520    23793052.840   125033474.2910   97428774.0710
  93369276.8410
  22000553.200    22000553.640    22000555.360   115613845.5940   90088831.6180
  86335258.1440
  20462342.220    20462341.140    20462345.920   107530659.1340   83790232.4810
  80299010.4720
  21370577.700    21370578.220    21370580.440   112303160.5900   87508957.7370
  83862770.9970
  24340764.780    24340766.380                   127911705.1400   99671535.4580

  20631241.440    20631241.300    20631243.460   108417978.7540   84481582.3990
  80961699.4350
  24820223.280    24820222.200    24820227.140   130431158.0860  101634652.9960
  97399898.8160
  22370401.780    22370400.160                   117557262.0630   91603058.4420

  21634135.240    21634131.540                   113688141.3860   88588150.6640

  25601175.520    25601174.980                   134535057.0670  104832506.1080

 23  2 11  1 57  0.0000000  0 10G01G03G04G06G07G09G11G17G19G21
  23812909.160    23812911.860    23812912.440   125137835.2540   97510094.2550
  93447208.6780
  22012480.780    22012481.260    22012482.960   115676525.2930   90137672.9180
  86382064.3930
  20467357.360    20467356.240    20467361.040   107557013.8490   83810768.6260
  80318690.9480
  21357481.780    21357482.280    21357484.520   112234341.2230   87455332.2730
  83811379.9210
  24322861.140    24322862.440                   127817622.5850   99598224.7630

  20622792.500    20622792.300    20622794.640   108373579.3220   84446985.4530
  80928544.0310
  24800387.100    24800386.020    24800390.920   130326918.1380  101553427.0440
  97322057.2890
  22384353.500    22384351.920                   117630578.6380   91660188.2030

  21640870.840    21640867.100                   113723537.0320   88615731.6700

  25619007.160    25619006.960                   134628760.9690  104905521.4430

 23  2 11  1 57 30.0000000  0 10G01G03G04G06G07G09G11G17G19G21
  23832800.380    23832802.860    23832803.700   125242363.8690   97591545.0910
  93525265.7310
  22024439.700    22024440.060    22024441.820   115739369.7810   90186642.6430
  86428993.7030
  20472464.360    20472463.260    20472468.040   107583851.2600   83831680.8970
  80338731.8740
  21344449.340    21344449.900    21344452.060   112165855.5020   87401966.7860
  83760237.9980
  24304957.700    24304958.920                   127723540.7200   99524914.6000

  20614433.780    20614433.560    20614435.880   108329654.0360   84412757.9760
  80895742.7000
  24780557.020    24780555.920    24780560.960   130222711.0480  101472226.7160
  97244240.2800
  22398368.080    22398366.520                   117704226.1630   91717575.8470

  21647720.700    21647716.920                   113759533.0350   88643780.4850

  25636851.620    25636851.240                   134722531.4560  104978588.8070

 23  2 11  1 58  0.0000000  0 10G01G03G04G06G07G09G11G17G19G21
  23852723.200    23852725.280    23852726.500   125347057.9350   97673124.8240
  93603446.2730
  22036429.800    22036430.040    22036431.760   115802377.8980   90235739.8750
  86476045.2070
  20477662.780    20477661.700    20477666.480   107611169.0940   83852967.5190
  80359131.5530
  21331480.780    21331481.320    21331483.440   112097705.0540   87348862.5490
  83709346.4360
  24287054.640    24287055.680                   127629461.5260   99451606.5210

  20606165.220    20606165.020    20606167.060   108286202.5780   84378899.7150
  80863295.2110
  24760733.320    24760732.200    24760737.800   130118537.8440  101391052.8160
  97166448.6240
  22412445.160    22412443.540                   117778201.3240   91775218.7970

  21654684.200    21654680.540                   113796126.2740   88672294.6770

  25654708.360    25654707.680                   134816366.2790  105051739.1341

 23  2 11  1 58 30.0000000  0 10G01G03G04G06G07G09G11G17G19G21
  23872677.180    23872679.140    23872680.520   125451915.9440   97754832.3230
  93681749.2720
  22048450.940    22048451.120    22048452.820   115865549.4330   90284964.4460
  86523218.7470
  20482952.340    20482951.280    20482956.080   107638966.0190   83874627.4620
  80379889.0000
  21318576.520    21318577.020    21318579.180   112029892.4370   87296021.5570
  83658707.1630
  24269152.740    24269153.440                   127535387.7780   99378302.6440

  20597986.960    20597986.760    20597988.400   108243225.6470   84345411.2140
  80831202.0700
  24740916.620    24740915.700    24740921.580   130014400.6980  101309906.9960
  97088683.9090
  22426584.040    22426582.360                   117852501.3030   91833114.8540

  21661761.020    21661757.300                   113833315.3040   88701273.1210

  25672577.040    25672576.240                   134910263.7990  105124905.3060

 23  2 11  1 59  0.0000000  0  9G01G03G04G06G07G09G11G17G19
  23892662.820    23892664.600    23892666.160   125556940.1320   97836669.3160
  93760176.3670
  22060503.780    22060504.080    22060505.400   115928887.8110   90334319.0080
  86570516.8780
  20488333.520    20488332.500    20488337.280   107667244.2690   83896662.4640
  80401005.8780
  21305737.700    21305738.220    21305740.300   111962423.8010   87243448.6040
  83608324.7560
  24251252.920    24251253.740                   127441325.4520   99305007.6650

  20589899.780    20589899.600    20589900.680   108200727.4530   84312295.7590
  80799466.4400
  24721107.960    24721107.020    24721113.000   129910305.3660  101228793.7500
  97010950.3630
  22440785.040    22440783.340                   117927127.3970   91891265.0310

  21668951.600    21668947.880                   113871102.2010   88730717.4450

 23  2 11  1 59 30.0000000  0  9G01G03G04G06G07G09G11G17G19
  23912678.040    23912679.880    23912681.240   125662120.4680   97918627.9650
  93838720.0670
  22072586.700    22072587.040    22072588.340   115992384.1210   90383796.6400
  86617932.9450
  20493804.360    20493803.380    20493808.120   107695993.8430   83919064.7300
  80422474.7160
  21292963.180    21292963.760    21292965.600   111895293.0560   87191138.9430
  83558194.6660
  24233354.280    24233355.180                   127347269.0770   99231717.3010

  20581902.200    20581901.980    20581902.760   108158699.9970   84279547.1060
  80768082.3300
  24701306.040    24701304.960    24701310.800   129806245.2140  101147707.9050
  96933243.1100
  22455045.860    22455044.120                   118002068.2340   91949660.4610

  21676254.060    21676250.220                   113909476.5380   88760619.5090

 23  2 11  2  0  0.0000000  0  9G01G03G04G06G07G09G11G17G19
  23932723.120    23932724.940    23932726.300   125767458.1320   98000709.1920
  93917381.2410
  22084700.120    22084700.560    22084701.780   116056040.8220   90433399.2440
  86665468.7760
  20499365.120    20499364.180    20499368.940   107725215.9470   83941835.2000
  80444296.4190
  21280253.920    21280254.500    21280256.320   111828505.3210   87139096.5580
  83508320.7200
  24215457.880    24215458.980                   127253223.8480   99158435.6240

  20573994.820    20573994.580    20573995.420   108117146.4580   84247167.7330
  80737052.1140
  24681511.600    24681510.520    24681516.080   129702225.0270  101066653.2260
  96855565.6820
  22469366.600    22469364.840                   118077324.0520   92008301.3290

  21683668.400    21683664.600                   113948439.1950   88790979.9940

 23  2 11  2  0 30.0000000  0  9G01G03G04G06G07G09G11G17G19
  23952797.960    23952799.820    23952801.080   125872952.2310   98082912.3370
  93996159.2410
  22096844.180    22096844.740    22096845.940   116119858.2650   90483127.1020
  86713124.6410
  20505015.660    20505014.660    20505019.520   107754909.7800   83964973.2520
  80466470.3830
  21267610.500    21267611.100    21267613.100   111762063.7050   87087323.8790
  83458705.2410
  24197564.100    24197565.340                   127159193.2600   99085165.3380

  20566177.840    20566177.620    20566178.840   108076068.0060   84215158.5660
  80706376.6680
  24661725.420    24661723.960    24661729.440   129598247.4500  100985631.7420
  96777920.0890
  22483746.820    22483745.160                   118152892.6200   92067185.8900

  21691194.460    21691190.680                   113987988.9960   88821797.9950

 23  2 11  2  1  0.0000000  0  9G01G03G04G06G07G09G11G17G19
  23972902.980    23972904.780    23972905.620   125978604.8770   98165239.0320
  94075055.6560
  22109019.440    22109019.980    22109021.200   116183839.6900   90532982.7470
  86760902.9610
  20510756.340    20510755.280    20510760.200   107785077.3930   83988480.4830
  80488998.1460
  21255034.040    21255034.740    21255036.820   111695974.2460   87035825.6050
  83409352.7350
  24179674.320    24179675.420                   127065183.3210   99011911.1340

  20558452.020    20558451.780    20558453.620   108035468.6320   84183522.7020
  80676058.9670
  24641948.420    24641946.780    24641952.180   129494318.1560  100904647.8890
  96700310.5590
  22498186.720    22498185.060                   118228774.9330   92126314.9440

  21698832.560    21698828.920                   114028127.6850   88853074.8760

 23  2 11  2  1 30.0000000  0  9G01G03G04G06G07G09G11G17G19
  23993037.480    23993039.460    23993039.880   126084412.8190   98247686.7290
  94154068.0280
  22121225.560    22121226.100    22121227.400   116247983.1370   90582964.6410
  86808802.2700
  20516586.580    20516585.480    20516590.420   107815715.5510   84012354.3800
  80511877.3000
  21242524.740    21242525.520    21242527.460   111630237.6720   86984602.3070
  83360263.7390
  24161788.800    24161789.900                   126971195.1070   98938673.8590

  20550817.160    20550816.880    20550819.220   107995347.1330   84152259.2090
  80646098.1230
  24622180.540    24622179.160    24622184.420   129390437.4110  100823701.8930
  96622737.3150
  22512685.420    22512684.120                   118304966.5500   92185684.9900

  21706582.080    21706578.380                   114068851.5480   88884807.7470

 23  2 11  2  2  0.0000000  0  9G01G03G04G06G07G09G11G17G19
  24013200.900    24013203.160    24013202.960   126190372.9900   98330253.0150
  94233194.0550
  22133462.180    22133462.600    22133464.140   116312286.7360   90633071.3270
  86856821.1620
  20522505.840    20522504.700    20522509.520   107846821.2140   84036592.5620
  80535105.5510
  21230082.760    21230083.560    21230085.440   111564854.8520   86933654.6670
  83311438.9020
  24143907.540    24143908.360                   126877229.5340   98865454.1750

  20543273.020    20543272.680    20543275.300   107955702.4040   84121367.2290
  80616493.2990
  24602421.980    24602420.940    24602426.080   129286605.7300  100742794.1030
  96545200.6830
  22527242.280    22527241.040                   118381463.4890   92245292.9590

  21714442.280    21714438.620                   114110157.1520   88916993.9050

 23  2 11  2  2 30.0000000  0  9G01G03G04G06G07G09G11G17G19
  24033393.280    24033395.760    24033395.580   126296485.1380   98412937.7470
  94312433.5560
  22145729.500    22145729.760    22145731.380   116376751.5220   90683303.6240
  86904960.4420
  20528513.980    20528512.840    20528517.580   107878394.0900   84061194.8010
  80558682.7010
  21217708.820    21217709.560    21217711.580   111499829.5160   86882985.5800
  83262881.0310
  24126031.440    24126032.200                   126783290.7380   98792255.3550

  20535819.940    20535819.580    20535822.180   107916536.1330   84090848.0730
  80587245.7730
  24582673.580    24582672.640    24582677.740   129182826.5180  100661927.2070
  96467703.2570
  22541857.040    22541855.800                   118458264.3840   92305137.7740

  21722413.080    21722409.480                   114152043.9230   88949632.9260

 23  2 11  2  3  0.0000000  0  9G01G03G04G06G07G09G11G17G19
  24053613.940    24053616.420    24053616.320   126402745.5790   98495738.0390
  94391783.8200
  22158026.960    22158027.340    22158029.080   116441375.0610   90733659.6070
  86953218.2680
  20534610.320    20534609.140    20534613.880   107910430.5230   84086158.2530
  80582606.0170
  21205403.000    21205403.700    21205405.760   111435161.9670   86832595.2880
  83214590.3480
  24108160.480    24108161.060                   126689379.2080   98719077.7950

  20528457.540    20528457.160    20528459.520   107877846.5780   84060700.3860
  80558354.2500
  24562935.060    24562933.900    24562939.320   129079099.6930  100581101.1120
  96390244.9290
  22556528.680    22556527.280                   118535364.0260   92365215.3900

  21730493.700    21730490.020                   114194507.6470   88982721.5260

 23  2 11  2  3 30.0000000  0  9G01G03G04G06G07G09G11G17G19
  24073862.840    24073865.160    24073865.180   126509152.9710   98578652.8390
  94471243.8130
  22170354.640    22170355.020    22170356.720   116506157.2990   90784139.2590
  87001594.5950
  20540794.620    20540793.380    20540798.200   107942929.1630   84111481.8680
  80606874.4800
  21193165.800    21193166.460    21193168.300   111370854.8490   86782485.8540
  83166568.8030
  24090295.320    24090295.720                   126595498.0990   98645923.9060

  20521185.980    20521185.520    20521187.660   107839634.3540   84030924.6460
  80529819.1690
  24543206.820    24543205.660    24543211.140   128975427.5250  100500317.6210
  96312827.4230
  22571256.700    22571255.280                   118612760.1310   92425524.0040

  21738683.800    21738680.060                   114237546.5840   89016258.3460

 23  2 11  2  4  0.0000000  0  9G01G03G04G06G07G09G11G17G19
  24094139.300    24094141.380    24094141.980   126615705.6340   98661680.8430
  94550812.2970
  22182712.380    22182712.920    22182714.660   116571097.7760   90834742.2040
  87050089.0820
  20547066.540    20547065.240    20547070.120   107975888.2640   84137164.2890
  80631486.7900
  21180997.600    21180998.220    21180999.780   111306910.4380   86732659.0480
  83118818.1040
  24072436.220    24072436.820                   126501649.5220   98572795.3780

  20514005.320    20514004.860    20514006.740   107801899.6790   84001521.0150
  80501640.6850
  24523489.460    24523488.200    24523493.960   128871811.9910  100419578.2480
  96235452.2280
  22586040.640    22586039.060                   118690449.7450   92486061.3390

  21746982.940    21746979.200                   114281158.7120   89050241.7980

 23  2 11  2  4 30.0000000  0  9G01G03G04G06G07G09G11G17G19
  24114443.700    24114445.620    24114446.560   126722404.8460   98744823.0230
  94630490.2080
  22195100.720    22195101.300    22195103.160   116636199.0550   90885470.4470
  87098703.6380
  20553426.360    20553424.980    20553429.780   108009309.0420   84163206.4580
  80656443.8760
  21168899.420    21168899.940    21168901.500   111243333.9600   86683118.9330
  83071342.1710
  24054584.500    24054584.940                   126407839.2320   98499696.6660

  20506916.100    20506915.780    20506917.420   107764645.6840   83972491.9400
  80473821.1730
  24503783.900    24503782.360    24503788.340   128768257.9990  100338886.8090
  96158122.9400
  22600880.480    22600879.040                   118768433.2390   92546827.6640

  21755391.280    21755387.560                   114325344.6110   89084672.3440

 23  2 11  2  5  0.0000000  0  9G01G03G04G06G07G09G11G17G19
  24134774.840    24134776.780    24134778.160   126829245.9100   98828075.7330
  94710274.0370
  22207519.000    22207519.560    22207521.580   116701457.7040   90936321.3280
  87147435.7260
  20559873.080    20559871.720    20559876.380   108043186.7740   84189604.6940
  80681742.1840
  21156871.060    21156871.600    21156873.260   111180124.7010   86633864.9720
  83024140.4650
  24036739.940    24036740.200                   126314066.7080   98426627.3770

  20499917.820    20499917.680    20499919.200   107727869.6060   83943835.2680
  80446358.5370
  24484089.700    24484088.240    24484094.120   128664764.4740  100258242.5390
  96080838.8320
  22615775.020    22615773.540                   118846704.5220   92607818.2450

  21763907.780    21763904.080                   114370099.0080   89119545.8730

 23  2 11  2  5 30.0000000  0  9G01G03G04G06G07G09G11G17G19
  24155133.040    24155135.040    24155136.480   126936228.7630   98911438.9070
  94790163.7590
  22219967.540    22219967.900    22219970.140   116766874.9740   90987295.8050
  87196286.2570
  20566406.700    20566405.440    20566410.000   108077521.3650   84216358.9190
  80707381.6560
  21144913.340    21144913.960    21144915.580   111117286.5890   86584900.2140
  82977215.9110
  24018903.320    24018903.780                   126220336.1540   98353590.8050

  20493010.840    20493010.900    20493012.240   107691573.2650   83915552.4150
  80419254.1460
  24464407.720    24464406.400    24464412.000   128561335.0680  100177648.2540
  96003602.6170
  22630724.100    22630722.700                   118925262.3500   92669032.0960

  21772532.340    21772528.660                   114415421.3920   89154861.9900

 23  2 11  2  6  0.0000000  0  9G01G03G04G06G07G09G11G17G19
  24175518.000    24175520.000    24175520.960   127043351.9150   98994911.4150
  94870158.2380
  22232446.180    22232446.380    22232448.740   116832450.6720   91038393.7400
  87245255.1050
  20573026.960    20573025.780    20573030.320   108112311.2710   84243467.9370
  80733361.1290
  21133026.760    21133027.340    21133028.920   111054822.0950   86536226.5800
  82930570.3460
  24001075.460    24001075.780                   126126650.5110   98280589.1790

  20486195.220    20486195.380    20486196.580   107655757.0210   83887643.6600
  80392508.2680
  24444738.280    24444737.000    24444742.620   128457971.9520  100097105.6210
  95926415.9160
  22645727.200    22645725.840                   119004104.3460   92730467.3930

  21781264.660    21781260.900                   114461309.8310   89190619.1990

 23  2 11  2  6 30.0000000  0  9G01G03G04G06G07G09G11G17G19
  24195929.120    24195931.300    24195931.760   127150613.5550   99078491.8440
  94950256.1200
  22244954.880    22244955.020    22244957.440   116898184.2370   91089614.6810
  87294341.8330
  20579733.580    20579732.380    20579736.960   108147554.5920   84270930.2690
  80759679.1930
  21121211.640    21121212.180    21121213.940   110992733.3810   86487845.7720
  82884205.4080
  23983256.460    23983256.880                   126033012.0590   98207624.3380

  20479470.960    20479471.040    20479472.260   107620420.9120   83860109.0400
  80366120.9350
  24425081.800    24425080.520    24425086.200   128354676.9750  100016616.0620
  95849280.1060
  22660783.740    22660782.540                   119083227.2520   92792121.5670

  21790104.240    21790100.500                   114507762.0820   89226815.7320

 23  2 11  2  7  0.0000000  0  9G01G03G04G06G07G09G11G17G19
  24216365.760    24216368.020    24216367.960   127258008.3580   99162176.0570
  95030453.4770
  22257492.880    22257493.160    22257495.160   116964071.7700   91140955.5820
  87343543.5340
  20586525.420    20586524.180    20586528.880   108183245.9970   84298741.7550
  80786331.8680
  21109467.800    21109468.320    21109470.320   110931019.1670   86439756.7730
  82838120.1260
  23965446.160    23965446.480                   125939419.4460   98134695.2160

  20472837.440    20472837.180    20472838.660   107585561.4930   83832945.8700
  80340089.5680
  24405438.000    24405436.720    24405442.280   128251448.5830   99936178.3510
  95772193.9970
  22675892.640    22675891.520                   119162624.8950   92853989.8150

  21799049.920    21799046.300                   114554772.0320   89263446.8330

 23  2 11  2  7 30.0000000  0  9G01G03G04G06G07G09G11G17G19
  24236828.300    24236830.460    24236830.460   127365538.0820   99245965.3920
  95110751.5690
  22270060.760    22270061.120    22270062.900   117030116.2440   91192418.7940
  87392862.4320
  20593402.820    20593401.600    20593406.260   108219387.0860   84326903.6450
  80813320.3470
  21097796.340    21097796.840    21097798.900   110869685.1070   86391964.0060
  82792318.7200
  23947645.820    23947645.820                   125845879.1630   98061806.8390

  20466295.280    20466294.600    20466296.560   107551182.3020   83806156.9090
  80314416.8150
  24385808.060    24385806.720    24385812.180   128148292.2630   99855796.8500
  95695161.7060
  22691053.880    22691052.760                   119242297.5330   92916072.3470

  21808101.920    21808098.340                   114602340.7940   89300513.3740

 23  2 11  2  8  0.0000000  0  9G01G03G04G06G07G09G11G17G19
  24257316.400    24257318.320    24257318.860   127473202.4730   99329859.6540
  95191150.2120
  22282658.600    22282659.140    22282660.820   117096318.7490   91244005.1520
  87442299.3430
  20600365.760    20600364.560    20600369.220   108255977.5740   84355415.7080
  80840644.4150
  21086197.880    21086198.400    21086200.380   110808734.9460   86344470.3860
  82746803.9990
  23929856.300    23929856.220                   125752395.2170   97988962.3590

  20459844.800    20459843.800    20459846.180   107517284.9110   83779743.3820
  80289103.8420
  24366192.400    24366191.080    24366196.520   128045211.4840   99775474.1760
  95618185.8270
  22706267.300    22706266.020                   119322243.7880   92978368.0940

  21817260.100    21817256.540                   114650467.4210   89338014.6290

 23  2 11  2  8 30.0000000  0  9G01G03G04G06G07G09G11G17G19
  24277828.640    24277830.800    24277831.840   127580995.6000   99413854.2220
  95271645.0070
  22295285.680    22295286.520    22295287.720   117162674.6760   91295711.0470
  87491850.8500
  20607413.060    20607411.900    20607416.600   108293011.4280   84384273.2540
  80868299.5620
  21074672.120    21074672.640    21074674.580   110748166.7370   86297274.3770
  82701574.4960
  23912077.340    23912077.260                   125658965.7490   97916160.3300

  20453485.240    20453484.180    20453486.700   107483865.1950   83753702.0570
  80264147.5750
  24346590.760    24346589.220    24346594.820   127942203.9920   99695208.5970
  95541264.6890
  22721531.320    22721530.020                   119402456.7650   93040871.6710

  21826523.200    21826519.620                   114699145.3340   89375945.4460

 23  2 11  2  9  0.0000000  0  9G01G03G04G06G07G09G11G17G19
  24298365.840    24298368.000    24298369.440   127688920.1180   99497951.1840
  95352237.8860
  22307942.660    22307943.400    22307944.860   117229188.0410   91347539.6270
  87541519.8840
  20614545.240    20614544.080    20614548.860   108330491.1740   84413478.2550
  80896287.6810
  21063220.340    21063220.900    21063222.820   110687987.0770   86250381.1500
  82656635.1520
  23894309.940    23894309.620                   125565597.7270   97843406.1600

  20447217.400    20447216.620    20447218.940   107450927.5920   83728036.4090
  80239551.3280
  24327004.020    24327002.720    24327008.400   127839276.2660   99615005.2140
  95464403.0990
  22736846.240    22736844.900                   119482937.3810   93103583.8020

  21835891.680    21835888.040                   114748376.7530   89414307.5660

 23  2 11  2  9 30.0000000  0  9G01G03G04G06G07G09G11G17G19
  24318927.200    24318929.380    24318930.800   127796970.7310   99582146.3810
  95432924.9670
  22320629.100    22320629.700    22320631.060   117295854.8950   91399487.8180
  87591303.5740
  20621761.260    20621760.040    20621764.860   108368411.5150   84443026.5660
  80924604.8250
  21051842.220    21051842.880    21051844.680   110628194.7290   86203789.7180
  82611985.0350
  23876553.980    23876553.560                   125472290.3620   97770699.2270

  20441040.680    20441040.240    20441042.180   107418468.6430   83702743.7260
  80215312.5170
  24307432.480    24307431.320    24307436.880   127736426.8210   99534862.8000
  95387599.9610
  22752211.120    22752209.600                   119563679.9500   93166500.0610

  21845364.360    21845360.760                   114798155.7830   89453096.3950

 23  2 11  2 10  0.0000000  0  9G01G03G04G06G07G09G11G17G19
  24339512.680    24339515.120    24339516.360   127905148.1670   99666440.3990
  95513706.6990
  22333345.000    22333345.540    22333346.860   117362677.1980   91451557.1130
  87641203.3260
  20629061.200    20629059.940    20629064.780   108406772.9240   84472918.5760
  80953251.3280
  21040538.680    21040539.360    21040541.060   110568794.2540   86157503.6420
  82567627.5440
  23858810.600    23858810.280                   125379048.3530   97698043.2390

  20434955.480    20434955.320    20434957.000   107386490.6960   83677825.8470
  80191432.8890
  24287876.560    24287875.500    24287881.240   127633660.0630   99454784.8510
  95310858.5990
  22767625.560    22767624.200                   119644683.5970   93229619.7350

  21854941.180    21854937.480                   114848482.1700   89492311.7430

 23  2 11  2 10 30.0000000  0  9G01G03G04G06G07G09G11G17G19
  24360121.740    24360124.280    24360125.200   128013449.1530   99750830.7120
  95594580.7730
  22346090.300    22346090.500    22346092.260   117429653.1670   91503746.1830
  87691217.8260
  20636444.440    20636443.200    20636448.060   108445572.1830   84503151.7650
  80982224.7990
  21029309.920    21029310.540    21029312.280   110509786.5170   86111523.5790
  82523563.3270
  23841079.940    23841079.700                   125285872.8480   97625439.0760

  20428961.560    20428961.500    20428963.120   107354992.4230   83653281.7490
  80167911.4730
  24268336.540    24268335.180    24268340.680   127530976.6300   99374771.7760
  95234179.4120
  22783088.860    22783087.420                   119725943.5590   93292939.1610

  21864621.480    21864617.780                   114899352.2170   89531950.7190

 23  2 11  2 11  0.0000000  0  9G01G03G04G06G07G09G11G17G19
  24380754.540    24380756.960    24380757.940   128121874.1900   99835317.6780
  95675547.4050
  22358864.920    22358865.420    22358866.680   117496784.5810   91556056.3230
  87741348.3970
  20643911.040    20643909.860    20643914.620   108484809.5050   84533726.2970
  81011525.3880
  21018156.660    21018157.360    21018159.140   110451175.8350   86065852.9300
  82479795.6190
  23823362.960    23823362.380                   125192768.3970   97552890.2540

  20423059.300    20423059.200    20423060.880   107323975.8850   83629113.0280
  80144749.7860
  24248813.280    24248811.860    24248817.240   127428380.7410   99294826.9540
  95157565.5660
  22798600.820    22798599.500                   119807459.6270   93356458.1320

  21874405.120    21874401.560                   114950765.5970   89572013.0630

 23  2 11  2 11 30.0000000  0  9G01G03G04G06G07G09G11G17G19
  24401410.120    24401412.620    24401413.460   128230419.4340   99919898.3090
  95756603.8180
  22371668.800    22371669.020    22371670.660   117564068.9200   91608485.6780
  87791593.1800
  20651460.280    20651459.100    20651463.760   108524481.0470   84564639.1830
  81041150.2390
  21007079.040    21007079.700    21007081.480   110392962.3780   86020491.7960
  82436324.5390
  23805659.660    23805658.860                   125099735.9470   97480397.5610

  20417248.340    20417248.160    20417249.920   107293439.0400   83605318.1020
  80121946.3150
  24229306.460    24229305.380    24229310.800   127325872.3570   99214950.3140
  95081017.1520
  22814160.480    22814159.100                   119889226.4700   93420172.5150

  21884291.180    21884287.760                   115002717.2800   89612494.8670

 23  2 11  2 12  0.0000000  0  9G01G03G04G06G07G09G11G17G19
  24422088.060    24422090.380    24422091.720   128339083.3510  100004571.4140
  95837748.8240
  22384501.520    22384501.880    22384503.640   117631506.1760   91661034.1560
  87841952.1090
  20659091.820    20659090.680    20659095.380   108564585.1550   84595889.1350
  81071098.1060
  20996077.500    20996078.000    20996079.760   110335148.6640   85975442.1490
  82393151.9530
  23787970.580    23787969.440                   125006778.2370   97407963.0840

  20411528.700    20411528.420    20411530.220   107263382.1150   83581897.1380
  80099501.2310
  24209816.800    24209815.780    24209821.380   127223453.8540   99135143.7050
  95004535.8530
  22829767.540    22829766.100                   119971241.5720   93484080.3580

  21894279.360    21894275.880                   115055205.4280   89653394.6980

 23  2 11  2 12 30.0000000  0  9G01G03G04G06G07G09G11G17G19
  24442788.620    24442790.940    24442792.520   128447866.0040  100089337.0230
  95918982.5210
  22397363.800    22397364.240    22397365.720   117699097.6690   91713702.8300
  87892426.2830
  20666805.640    20666804.500    20666809.260   108605121.6970   84627476.0510
  81101368.9030
  20985152.720    20985153.140    20985154.980   110277738.6390   85930707.0650
  82350280.8400
  23770296.480    23770295.040                   124913899.5500   97335590.1980

  20405900.660    20405900.360    20405902.140   107233806.8260   83558851.4720
  80077415.8090
  24190344.880    24190343.980    24190349.360   127121129.0700   99055410.1860
  94928124.5100
  22845421.580    22845420.260                   120053503.5850   93548180.5800

  21904369.520    21904365.940                   115108229.4190   89694712.0750

 23  2 11  2 13  0.0000000  0  9G01G03G04G06G07G09G11G17G19
  24463511.120    24463513.700    24463515.340   128556763.6290  100174192.2150
  96000302.0540
  22410254.900    22410255.060    22410257.000   117766841.0560   91766489.8730
  87943013.8290
  20674601.080    20674599.880    20674604.660   108646086.7720   84659396.8900
  81131959.7070
  20974304.780    20974305.240    20974307.120   110220732.5400   85886286.7360
  82307711.3520
  23752637.500    23752635.920                   124821100.2190   97263279.1130

  20400363.920    20400363.600    20400365.320   107204711.0920   83536179.4880
  80055688.4950
  24170891.020    24170889.840    24170895.720   127018898.1720   98975749.7670
  94851783.2950
  22861121.740    22861120.460                   120136007.7100   93612469.4800

  21914560.640    21914557.120                   115161784.1740   89736443.0270

 23  2 11  2 13 30.0000000  0  9G01G03G04G06G07G09G11G17G19
  24484255.260    24484258.320    24484259.760   128665774.6920  100259135.8120
  96081706.2820
  22423175.020    22423175.220    22423177.040   117834736.1310   91819395.0960
  87993714.6660
  20682477.720    20682476.520    20682481.320   108687478.7550   84691650.3800
  81162869.3010
  20963534.200    20963534.640    20963536.520   110164132.7540   85842183.0130
  82265445.2870
  23734994.060    23734992.620                   124728383.4560   97191032.3990

  20394918.440    20394918.080    20394919.840   107176095.0620   83513881.2990
  80034319.4010
  24151455.260    24151454.040    24151460.380   126916763.4000   98896164.2260
  94775513.8820
  22876867.340    22876866.220                   120218751.3440   93676944.9900

  21924852.420    21924849.060                   115215867.9980   89778586.2270

 23  2 11  2 14  0.0000000  0  9G01G03G04G06G07G09G11G17G19
  24505021.000    24505024.420    24505025.400   128774899.5490  100344168.0650
  96163195.5470
  22436124.120    22436124.380    22436126.120   117902784.7650   91872419.9710
  88044530.1790
  20690435.640    20690434.420    20690439.120   108729297.8230   84724236.6620
  81194097.8240
  20952841.740    20952842.100    20952844.020   110107943.6450   85798399.2980
  82223485.8930
  23717367.260    23717365.540                   124635753.7940   97118853.5340

  20389564.660    20389564.240    20389566.080   107147960.7710   83491958.4920
  80013310.0500
  24132038.940    24132037.520    24132043.780   126814729.0560   98816656.9840
  94699319.4300
  22892658.300    22892657.180                   120301733.3620   93741606.2600

  21935244.840    21935241.420                   115270480.3030   89821141.2450

 23  2 11  2 14 30.0000000  0  9G01G03G04G06G07G09G11G17G19
  24525807.800    24525810.580    24525812.040   128884133.1020  100429285.0350
  96244765.9440
  22449101.860    22449101.960    22449104.020   117970983.1430   91925561.5710
  88095457.5070
  20698473.860    20698472.620    20698477.180   108771538.7120   84757151.6330
  81225641.3410
  20942227.180    20942227.580    20942229.540   110052164.0370   85754934.6660
  82181832.2930
  23699756.740    23699754.920                   124543210.1520   97046741.7320

  20384301.860    20384301.420    20384303.300   107120304.7330   83470408.3430
  79992657.8240
  24112641.360    24112640.280    24112646.380   126712793.9120   98737227.0080
  94623199.0380
  22908493.420    22908492.260                   120384947.6190   93806448.4950

  21945736.580    21945732.960                   115325614.5110   89864102.9450

 23  2 11  2 15  0.0000000  0  9G01G03G04G06G07G09G11G17G19
  24546615.360    24546617.700    24546619.060   128993475.9340  100514487.1060
  96326417.9540
  22462108.460    22462108.960    22462110.480   118039333.2560   91978821.3520
  88146498.1520
  20706592.400    20706591.040    20706595.740   108814201.8470   84790395.6330
  81257500.1730
  20931691.480    20931691.960    20931693.900   109996798.4490   85711792.6580
  82140487.8710
  23682163.440    23682161.860                   124450757.6070   96974700.8810

  20379130.500    20379130.020    20379131.940   107093129.1640   83449232.5940
  79972364.4040
  24093263.420    24093262.340    24093268.460   126610962.3970   98657877.8140
  94547156.0830
  22924372.680    22924371.380                   120468393.3810   93871471.1290

  21956327.640    21956323.940                   115381270.8020   89907471.4630

 23  2 11  2 15 30.0000000  0  9G01G03G04G06G07G09G11G17G19
  24567443.380    24567445.840    24567447.020   129102927.2000  100599773.7380
  96408150.9530
  22475144.140    22475144.500    22475145.940   118107835.7680   92032199.9220
  88197652.6230
  20714791.080    20714789.720    20714794.600   108857286.3010   84823967.9330
  81289673.6250
  20921235.160    20921235.660    20921237.560   109941850.0780   85668975.7430
  82099454.9950
  23664588.040    23664586.540                   124358399.9380   96902733.9710

  20374050.760    20374050.280    20374052.140   107066434.9130   83428431.8920
  79952430.4000
  24073905.880    24073904.760    24073910.740   126509237.7030   98578611.8280
  94471192.8460
  22940295.600    22940294.260                   120552068.8220   93936672.7210

  21967017.820    21967014.120                   115437447.4800   89951245.4780

 23  2 11  2 16  0.0000000  0  9G01G03G04G06G07G09G11G17G19
  24588291.080    24588293.840    24588294.800   129212483.0320  100685141.8100
  96489962.0110
  22488208.360    22488208.700    22488210.420   118176488.0480   92085695.1890
  88248918.8870
  20723069.140    20723067.780    20723072.700   108900787.8890   84857865.2730
  81322158.5780
  20910858.240    20910858.660    20910860.480   109887318.8320   85626483.8750
  82058733.6300
  23647030.660    23647029.440                   124266137.6640   96830841.4010

  20369062.120    20369061.660    20369063.480   107040219.5880   83408004.3740
  79932854.0360
  24054568.380    24054567.700    24054573.460   126407619.6320   98499428.9600
  94395309.2720
  22956261.280    22956259.840                   120635968.5370   94002049.0960

  21977806.080    21977802.400                   115494139.7300   89995421.2350

 23  2 11  2 16 30.0000000  0  9G01G03G04G06G07G09G11G17G19
  24609158.720    24609161.780    24609162.960   129322143.0650  100770591.0860
  96571850.8460
  22501301.020    22501301.740    22501303.080   118245291.2730   92139308.0190
  88300297.8620
  20731426.500    20731425.120    20731430.140   108944706.1780   84892087.3180
  81354954.6990
  20900561.380    20900561.780    20900563.600   109833208.4040   85584319.9040
  82018326.4890
  23629492.180    23629491.240                   124173974.5100   96759026.0360

  20364164.920    20364164.440    20364166.240   107014484.5280   83387951.0910
  79913636.3070
  24035252.080    24035251.580    24035257.020   126306111.9380   98420332.1020
  94319508.0740
  22972269.380    22972267.920                   120720091.4020   94067599.3290

  21988692.180    21988688.480                   115551346.5220   90039997.9250

 23  2 11  2 17  0.0000000  0  9G01G03G04G06G07G09G11G17G19
  24630045.880    24630048.900    24630050.200   129431905.0910  100856119.8220
  96653815.8540
  22514422.500    22514422.840    22514424.340   118314244.6300   92193037.9230
  88351789.0050
  20739862.700    20739861.400    20739866.260   108989038.8000   84926632.2060
  81388060.2200
  20890344.880    20890345.360    20890347.200   109779520.4900   85542485.1770
  81978234.8800
  23611972.860    23611972.220                   124081912.5470   96687289.5460

  20359358.980    20359358.480    20359360.340   106989229.0910   83368271.5400
  79894776.7380
  24015957.060    24015956.640    24015962.260   126204716.2780   98341322.5440
  94243790.5980
  22988319.260    22988317.840                   120804433.9390   94133320.7530

  21999675.560    21999671.840                   115609064.5320   90084972.9810

 23  2 11  2 17 30.0000000  0  9G01G03G04G06G07G09G11G17G19
  24650951.880    24650954.760    24650955.840   129541765.7900  100941725.4350
  96735854.5060
  22527571.920    22527572.720    22527574.180   118383346.2550   92246883.3020
  88403390.8070
  20748377.060    20748375.800    20748380.600   109033782.1790   84961497.1710
  81421472.4760
  20880208.920    20880209.380    20880211.240   109726255.6760   85500980.1340
  81938459.2100
  23594473.440    23594472.780                   123989953.1710   96615632.9530

  20354643.940    20354643.480    20354645.320   106964451.4770   83348964.3150
  79876273.9810
  23996683.640    23996682.940    23996688.400   126103433.3120   98262400.7730
  94168157.2230
  23004409.960    23004408.600                   120888991.4060   94199209.6310

  22010755.320    22010751.860                   115667289.1340   90130342.7700

 23  2 11  2 18  0.0000000  0  9G01G03G04G06G07G09G11G17G19
  24671876.940    24671879.920    24671881.300   129651727.7700  101027409.9290
  96817968.7890
  22540750.700    22540751.520    22540752.640   118452600.1420   92300847.3470
  88455106.3850
  20756970.080    20756968.800    20756973.620   109078938.8200   84996684.1660
  81455193.3480
  20870154.740    20870155.120    20870157.020   109673420.5270   85459809.8900
  81899004.4010
  23576994.840    23576994.140                   123898103.0650   96544061.5440

  20350020.660    20350020.200    20350022.000   106940155.9300   83330032.7310
  79858131.2200
  23977432.980    23977432.300    23977437.780   126002269.6550   98183571.9780
  94092612.9740
  23020542.040    23020540.540                   120973765.6560   94265267.4400

  22021931.940    22021928.560                   115726022.6270   90176109.1020

 23  2 11  2 18 30.0000000  0  9G01G03G04G06G07G09G11G17G19
  24692819.980    24692823.040    24692824.860   129761784.9240  101113168.6400
  96900154.2080
  22553957.300    22553957.840    22553959.600   118522001.7160   92354926.4860
  88506932.2010
  20765640.580    20765639.280    20765644.200   109124502.4390   85032188.2790
  81489218.1210
  20860181.900    20860182.280    20860184.260   109621012.9310   85418972.8020
  81859868.8640
  23559536.800    23559535.920                   123806360.2350   96472573.6860

  20345488.260    20345487.800    20345489.520   106916337.9120   83311473.2390
  79840345.0500
  23958204.580    23958203.720    23958209.580   125901223.1370   98104834.4440
  94017156.2080
  23036713.820    23036712.380                   121058748.9920   94331488.1800

  22033203.900    22033200.380                   115785257.2580   90222265.9260

 23  2 11  2 19  0.0000000  0  9G01G03G04G06G07G09G11G17G19
  24713781.120    24713784.120    24713786.280   129871936.0510  101199000.5450
  96982409.7530
  22567192.380    22567192.760    22567194.980   118591551.0260   92409120.7390
  88558868.3480
  20774388.240    20774387.000    20774391.780   109170471.5660   85068008.3710
  81523545.7120
  20850290.920    20850291.320    20850293.380   109569035.4830   85378470.8990
  81821054.5410
  23542099.920    23542098.800                   123714728.5840   96401172.4790

  20341046.760    20341046.280    20341047.960   106892997.6540   83293286.0330
  79822915.6460
  23938998.900    23938997.760    23939003.680   125800296.5050   98026190.3190
  93941788.9490
  23052924.920    23052923.560                   121143938.7180   94397869.7440

  22044570.960    22044567.260                   115844991.1750   90268811.8240

 23  2 11  2 19 30.0000000  0  9G01G03G04G06G07G09G11G17G19
  24734760.620    24734763.720    24734765.600   129982183.7940  101284907.7220
  97064737.4250
  22580456.020    22580456.380    22580458.480   118661252.3970   92463433.4490
  88610918.0340
  20783213.540    20783212.300    20783217.020   109216848.7050   85104146.3990
  81558177.9810
  20840483.060    20840483.460    20840485.500   109517494.7960   85338309.3310
  81782566.3680
  23524685.440    23524684.300                   123623214.7980   96329863.1400

  20336696.980    20336696.480    20336698.220   106870139.3770   83275474.3970
  79805846.1550
  23919817.300    23919816.020    23919821.740   125699496.5110   97947644.8690
  93866516.2340
  23069175.600    23069174.340                   121229336.7180   94464413.5890

  22056033.300    22056029.560                   115905226.1280   90315748.1220

 23  2 11  2 20  0.0000000  0  9G01G03G04G06G07G09G11G17G19
  24755756.920    24755759.720    24755761.340   130092519.2070  101370883.2380
  97147130.6010
  22593747.420    22593747.400    22593749.740   118731098.1300   92517858.7030
  88663075.5430
  20792114.720    20792113.520    20792118.140   109263624.6870   85140595.2110
  81593108.0960
  20830757.340    20830757.760    20830759.700   109466385.8380   85298484.1680
  81744400.5880
  23507292.520    23507291.280                   123531814.1940   96258641.9440

  20332437.480    20332437.000    20332438.780   106847755.6220   83258032.5220
  79789131.0310
  23900658.680    23900657.720    23900663.020   125598818.0610   97869194.1540
  93791334.3010
  23085463.940    23085462.800                   121314932.5750   94531111.6000

  22067589.000    22067585.460                   115965952.1100   90363067.0380

 23  2 11  2 20 30.0000000  0  9G01G03G04G06G07G09G11G17G19
  24776771.000    24776773.700    24776775.880   130202948.3280  101456931.7170
  97229593.6820
  22607067.360    22607067.680    22607069.960   118801095.7510   92572402.2350
  88715346.4250
  20801092.920    20801091.740    20801096.340   109310805.2790   85177359.3040
  81628340.3530
  20821115.640    20821116.140    20821118.000   109415718.4380   85259003.0800
  81706564.5480
  23489923.120    23489921.680                   123440536.9980   96187516.9110

  20328269.700    20328269.220    20328271.020   106825853.8560   83240966.2130
  79772775.8200
  23881525.000    23881524.360    23881529.520   125498271.1290   97790845.9360
  93716250.6110
  23101790.960    23101789.740                   121400731.1270   94597967.5750

  22079239.120    22079235.660                   116027174.0350   90410772.3970

 23  2 11  2 21  0.0000000  0  9G01G03G04G06G07G09G11G17G19
  24797801.260    24797803.980    24797805.920   130313461.8340  101543045.9330
  97312119.8350
  22620415.020    22620415.140    22620417.480   118871237.4820   92627058.1160
  88767724.9840
  20810146.320    20810145.120    20810149.700   109358381.0850   85214431.3550
  81663867.7400
  20811556.980    20811557.460    20811559.360   109365487.3280   85219861.9570
  81669054.3150
  23472576.100    23472574.660                   123349378.3070   96116484.2260

  20324192.160    20324191.680    20324193.460   106804426.3640   83224269.4730
  79756774.7810
  23862415.600    23862414.940    23862419.900   125397850.6330   97712596.2260
  93641261.2680
  23118154.600    23118153.420                   121486722.3750   94664973.7000

  22090981.760    22090978.040                   116088881.6090   90458856.2150

 23  2 11  2 21 30.0000000  0  9G01G03G04G06G07G09G11G17G19
  24818848.400    24818850.980    24818852.860   130424064.0660  101629229.3690
  97394712.2560
  22633791.120    22633791.100    22633793.640   118941529.1170   92681830.8010
  88820215.4480
  20819275.680    20819274.460    20819279.140   109406356.2250   85251814.5760
  81699693.3230
  20802082.880    20802083.340    20802085.240   109315700.6750   85181067.1690
  81631875.9730
  23455253.440    23455252.040                   123258347.3300   96045551.0300

  20320205.980    20320205.520    20320207.260   106783478.9180   83207946.7950
  79741132.2150
  23843331.800    23843331.200    23843336.080   125297564.8760   97634451.5130
  93566372.5630
  23134555.360    23134554.160                   121572908.7850   94732131.8980

  22102817.320    22102813.740                   116151077.9760   90507320.8780

 23  2 11  2 22  0.0000000  0  9G01G03G04G06G07G09G11G17G19
  24839910.880    24839913.660    24839915.460   130534747.6340  101715476.1310
  97477365.3500
  22647194.560    22647194.740    22647196.960   119011964.7020   92736715.6330
  88872813.3980
  20828479.600    20828478.360    20828483.140   109454723.0540   85289503.0100
  81735811.3980
  20792692.720    20792693.100    20792695.040   109266354.9620   85142615.9620
  81595026.9050
  23437954.420    23437953.120                   123167440.6420   95974714.7050

  20316310.020    20316309.580    20316311.340   106763005.5600   83191993.5330
  79725843.6780
  23824273.140    23824272.520    23824277.240   125197410.4610   97556409.1400
  93491581.9460
  23150991.580    23150990.340                   121659281.7440   94799435.4470

  22114744.320    22114740.820                   116213754.5000   90556159.6990

 23  2 11  2 22 30.0000000  0  9G01G03G04G06G07G09G11G17G19
  24860989.540    24860991.980    24860993.500   130645516.0140  101801789.0030
  97560081.7820
  22660626.360    22660626.340    22660628.340   119082549.1710   92791716.5180
  88925522.5800
  20837758.620    20837757.360    20837762.200   109503484.8220   85327499.1870
  81772224.4050
  20783387.820    20783388.220    20783390.200   109217457.5480   85104514.0910
  81558512.6140
  23420680.540    23420679.360                   123076666.4730   95903981.6440

  20312505.220    20312504.800    20312506.600   106743011.2190   83176413.5360
  79710912.8500
  23805240.980    23805240.260    23805245.140   125097394.9890   97478475.0160
  93416895.0880
  23167463.960    23167462.520                   121745843.9730   94866886.4960

  22126763.280    22126759.720                   116276913.9880   90605374.8580

 23  2 11  2 23  0.0000000  0  9G01G03G04G06G07G09G11G17G19
  24882083.580    24882085.780    24882087.680   130756364.4080  101888164.2110
  97642857.9560
  22674085.620    22674085.760    22674087.680   119153279.2530   92846830.8370
  88978340.4650
  20847111.860    20847110.620    20847115.480   109552636.5820   85365799.2580
  81808928.6350
  20774168.060    20774168.460    20774170.480   109169007.5270   85066760.8340
  81522332.4080
  23403431.660    23403430.480                   122986023.7170   95833350.9820

  20308790.940    20308790.500    20308792.320   106723492.5730   83161204.2110
  79696337.2500
  23786234.940    23786234.120    23786239.440   124997517.6880   97400648.6030
  93342311.4280
  23183971.100    23183969.740                   121832589.9490   94934480.7390

  22138872.880    22138869.280                   116340550.4710   90654961.7050

 23  2 11  2 23 30.0000000  0  9G01G03G04G06G07G09G11G17G19
  24903192.880    24903195.160    24903197.200   130867293.4640  101974602.2160
  97725694.3240
  22687573.360    22687573.640    22687575.240   119224156.9670   92902060.2020
  89031268.5920
  20856539.380    20856538.240    20856543.000   109602178.6740   85404403.4810
  81845924.3490
  20765034.320    20765034.680    20765036.700   109121009.3520   85029359.6560
  81486489.6170
  23386208.900    23386207.960                   122895518.1200   95762827.2380

  20305167.560    20305167.040    20305168.920   106704451.5770   83146367.0820
  79682118.3350
  23767256.160    23767254.680    23767260.840   124897783.2290   97322933.4150
  93267834.4440
  23200512.960    23200511.880                   121919518.6070   95002217.3100

  22151073.140    22151069.600                   116404663.3200   90704919.7470

 23  2 11  2 24  0.0000000  0  9G01G03G04G06G07G09G11G17G19
  24924317.040    24924319.480    24924321.280   130978300.1690  102061100.7750
  97808588.6840
  22701088.600    22701088.980    22701090.460   119295180.8710   92957403.4730
  89084305.9090
  20866040.600    20866039.440    20866044.200   109652107.9320   85443309.3910
  81883209.1770
  20755986.740    20755987.100    20755989.040   109073463.9030   84992311.2550
  81450984.9010
  23369012.580    23369011.480                   122805150.7960   95692411.1930

  20301634.780    20301634.240    20301636.080   106685886.6820   83131900.9360
  79668254.9470
  23748304.520    23748303.200    23748309.260   124798192.7000   97245330.4570
  93193464.9380
  23217088.780    23217087.980                   122006625.4340   95070092.6960

  22163363.240    22163359.920                   116469248.5860   90755245.8970

 23  2 11  2 24 30.0000000  0  9G01G03G04G06G07G09G11G17G19
  24945455.440    24945458.380    24945459.980   131089382.8270  102147658.4460
  97891539.7740
  22714631.840    22714632.260    22714633.600   119366350.7150   93012860.4940
  89137452.1840
  20875615.080    20875613.860    20875618.720   109702422.3430   85482515.4250
  81920781.6230
  20747025.680    20747026.120    20747028.000   109026373.2600   84955617.2550
  81415819.8160
  23351843.060    23351841.960                   122714924.3670   95622104.9420

  20298192.520    20298192.020    20298193.800   106667797.5360   83117805.5040
  79654746.8290
  23729380.880    23729379.440    23729385.380   124698748.4350   97167841.4270
  93119204.6730
  23233698.020    23233697.480                   122093907.3870   95138104.5420

  22175742.800    22175739.500                   116534303.4530   90805937.9660

 23  2 11  2 25  0.0000000  0  9G01G03G04G06G07G09G11G17G19
  24966607.520    24966610.340    24966612.100   131200536.8980  102234271.7730
  97974544.1910
  22728202.120    22728202.860    22728204.120   119437663.5400   93068428.8600
  89190705.2040
  20885261.980    20885260.760    20885265.660   109753117.3020   85522017.9850
  81958638.2400
  20738151.100    20738151.540    20738153.420   108979736.8670   84919277.2070
  81380993.9420
  23334700.440    23334699.220                   122624838.8130   95551908.4610

  20294840.200    20294839.740    20294841.540   106650181.0810   83104078.4020
  79641591.6870
  23710485.020    23710483.840    23710489.520   124599450.1150   97090466.1500
  93045053.3700
  23250339.680    23250338.900                   122181359.2330   95206248.8030

  22188210.600    22188207.380                   116599822.3860   90856991.6520

 23  2 11  2 25 30.0000000  0  9G01G03G04G06G07G09G11G17G19
  24987773.500    24987776.360    24987778.400   131311764.9240  102320942.7180
  98057603.8330
  22741800.660    22741801.180    22741802.240   119509123.2810   93124111.7670
  89244067.9950
  20894981.740    20894980.560    20894985.460   109804195.0250   85561818.8080
  81996780.6920
  20729364.140    20729364.580    20729366.480   108933561.0330   84883296.0440
  81346511.9940
  23317585.880    23317584.480                   122534901.0060   95481827.0990

  20291578.580    20291578.120    20291579.940   106633041.1760   83090722.6360
  79628792.4170
  23691618.360    23691616.860    23691622.540   124500304.3560   97013209.7230
  92971015.9760
  23267013.960    23267013.140                   122268982.3750   95274526.5270

  22200766.960    22200763.680                   116665806.2430   90908407.6180

 23  2 11  2 26  0.0000000  0  9G01G03G04G06G07G09G11G17G19
  25008952.800    25008955.820    25008957.820   131423062.7780  102407668.0590
  98140715.5650
  22755426.560    22755427.160    22755428.220   119580727.2960   93179907.0680
  89297538.5000
  20904773.560    20904772.320    20904777.280   109855651.1080   85601914.4550
  82035205.6890
  20720664.720    20720665.180    20720667.120   108887845.3880   84847673.4690
  81312373.6970
  23300499.560    23300498.060                   122445111.1870   95411861.0470

  20288407.120    20288406.620    20288408.480   106616375.0170   83077736.0290
  79616346.9210
  23672780.640    23672779.320    23672784.280   124401311.0890   96936072.1820
  92897092.4380
  23283719.820    23283718.920                   122356771.2660   95342933.4060

  22213410.860    22213407.600                   116732249.9450   90960181.9080

 23  2 11  2 26 30.0000000  0  9G01G03G04G06G07G09G11G17G19
  25030145.260    25030148.280    25030149.860   131534428.4990  102494446.3050
  98223878.0000
  22769079.700    22769080.580    22769081.660   119652475.2220   93235814.4990
  89351116.4520
  20914636.960    20914635.720    20914640.520   109907483.4170   85642303.2590
  82073911.6300
  20712053.280    20712053.720    20712055.740   108842591.8630   84812410.9860
  81278580.4840
  23283441.760    23283440.220                   122355471.8750   95342012.2770

  20285325.720    20285325.180    20285327.000   106600182.0250   83065118.1210
  79604254.7590
  23653972.360    23653971.020    23653975.900   124302472.5320   96859055.1410
  92823284.4170
  23300456.440    23300455.440                   122444722.7430   95411466.9620

  22226141.620    22226138.340                   116799150.3590   91012312.0660

 23  2 11  2 27  0.0000000  0  9G01G03G04G06G07G09G11G17G19
  25051350.720    25051353.780    25051355.800   131645862.4090  102581277.6880
  98307091.3570
  22782760.720    22782761.380    22782762.620   119724368.8210   93291835.4660
  89404803.2210
  20924571.900    20924570.700    20924575.460   109959692.0870   85682985.3330
  82112898.6120
  20703530.540    20703531.020    20703533.060   108797804.5910   84777511.8190
  81245135.4470
  23266413.480    23266411.900                   122265987.7410   95272284.4190

  20282334.660    20282334.140    20282335.900   106584463.8620   83052870.2120
  79592517.1820
  23635194.220    23635192.900    23635197.800   124203793.0820   96782162.1120
  92749595.2680
  23317223.760    23317222.920                   122532836.0400   95480126.6030

  22238959.140    22238955.860                   116866506.6680   91064797.4630

 23  2 11  2 27 30.0000000  0  9G01G03G04G06G07G09G11G17G19
  25072568.240    25072571.620    25072573.620   131757360.9870  102668159.4140
  98390352.9720
  22796468.920    22796469.540    22796471.120   119796406.0850   93347968.3620
  89458597.2400
  20934577.760    20934576.620    20934581.360   110012273.2490   85723957.6630
  82152163.7630
  20695096.560    20695097.060    20695099.040   108753483.7640   84742976.1080
  81212038.7350
  23249414.800    23249413.160                   122176659.7100   95202678.2070

  20279433.500    20279432.980    20279434.800   106569218.2230   83040990.5020
  79581132.4660
  23616446.480    23616445.020    23616450.380   124105273.3530   96705393.5000
  92676025.3840
  23334021.080    23334019.920                   122621106.1430   95548908.4680

  22251862.480    22251859.040                   116934314.0280   91117634.3490

 23  2 11  2 28  0.0000000  0  9G01G03G04G06G07G09G11G17G19
  25093798.140    25093801.520    25093803.140   131868923.4430  102755090.9490
  98473662.2630
  22810204.800    22810205.320    22810207.240   119868587.6550   93404213.7110
  89512499.0240
  20944654.340    20944653.220    20944657.920   110065225.8950   85765219.4630
  82191706.3260
  20686751.940    20686752.460    20686754.360   108709632.4320   84708806.2390
  81179292.6050
  23232446.620    23232444.940                   122087491.2360   95133196.3180

  20276622.360    20276621.840    20276623.680   106554445.6830   83029479.4460
  79570101.0370
  23597729.660    23597728.380    23597733.720   124006916.7140   96628752.0050
  92602577.2800
  23350847.840    23350846.560                   122709531.7050   95617811.4400

  22264851.360    22264847.780                   117002570.6980   91170821.3480

 23  2 11  2 28 30.0000000  0  9G01G03G04G06G07G09G11G17G19
  25115039.480    25115042.560    25115044.760   131980545.8330  102842069.1170
  98557016.2330
  22823967.400    22823967.960    22823970.040   119940911.2080   93460569.7070
  89566506.8550
  20954800.820    20954799.700    20954804.380   110118545.8840   85806767.5000
  82231523.1970
  20678496.620    20678497.160    20678499.040   108666250.4110   84675002.0710
  81146896.9520
  23215508.800    23215507.120                   121998482.9320   95063839.2330

  20273900.740    20273900.220    20273902.040   106540143.5810   83018334.9550
  79559420.9080
  23579043.980    23579042.580    23579048.520   123908723.3600   96552237.7440
  92529251.1430
  23367703.360    23367702.160                   122798107.4030   95686831.4000

  22277924.620    22277921.320                   117071271.1670   91224354.1400

 23  2 11  2 29  0.0000000  0  9G01G03G04G06G07G09G11G17G19
  25136291.980    25136295.300    25136297.760   132092228.6980  102929094.3880
  98640415.3720
  22837757.440    22837757.940    22837760.280   120013378.7040   93517037.8860
  89620622.1790
  20965017.260    20965016.140    20965020.860   110172233.4840   85848601.9890
  82271614.5800
  20670331.400    20670331.960    20670333.880   108623342.0590   84641566.9910
  81114854.9970
  23198602.500    23198601.020                   121909639.6530   94994610.7420

  20271268.980    20271268.500    20271270.320   106526313.7260   83007558.4500
  79549093.4200
  23560390.360    23560388.780    23560394.880   123810698.0040   96475854.3370
  92456050.4330
  23384587.280    23384585.980                   122886832.4740   95755967.7380

  22291082.260    22291079.060                   117140414.9110   91278232.3430

 23  2 11  2 29 30.0000000  0 10G01G03G04G06G07G09G11G17G19G20
  25157555.540    25157559.220    25157561.640   132203968.8370  103016164.3390
  98723857.3740
  22851574.620    22851575.200    22851577.680   120085988.6270   93573617.0120
  89674843.8180
  20975302.960    20975301.820    20975306.620   110226285.3390   85890720.3120
  82311977.9740
  20662256.440    20662256.980    20662258.920   108580907.9550   84608501.4580
  81083167.2000
  23181727.720    23181726.220                   121820962.4690   94925511.6790

  20268726.740    20268726.320    20268728.080   106512954.2670   82997148.4910
  79539117.2100
  23541769.060    23541767.620    23541773.140   123712841.7320   96399602.7330
  92382975.9440
  23401498.700    23401497.280                   122975702.0000   95825216.6640

  22304323.380    22304320.260                   117209997.4270   91332452.4480

  25237053.200    25237052.520                   132621606.0961  103341499.3551

 23  2 11  2 30  0.0000000  0 10G01G03G04G06G07G09G11G17G19G20
  25178830.000    25178833.720    25178836.380   132315765.5470  103103278.3470
  98807341.5500
  22865418.740    22865419.560    22865422.040   120158741.7110   93630307.6880
  89729172.3630
  20985657.780    20985656.620    20985661.460   110280700.4110   85933121.6670
  82352612.6020
  20654272.320    20654272.840    20654274.700   108538951.0870   84575807.7960
  81051835.7720
  23164885.500    23164883.960                   121732455.9000   94856545.5640

  20266274.120    20266273.700    20266275.440   106500065.6720   82987105.4400
  79529492.6220
  23523180.440    23523178.980    23523184.620   123615157.8720   96323485.4700
  92310030.2570
  23418437.540    23418435.960                   123064714.9200   95894577.3360

  22317647.680    22317644.300                   117280016.5910   91387012.8220

  25220059.300    25220059.440                   132532308.4270  103271916.8180

 23  2 11  2 30 30.0000000  0 10G01G03G04G06G07G09G11G17G19G20
  25200115.280    25200118.960    25200121.360   132427618.7690  103190436.3220
  98890867.8490
  22879290.800    22879291.360    22879293.680   120231639.2030   93687110.9200
  89783608.7660
  20996081.700    20996080.480    20996085.380   110335478.2780   85975805.7170
  82393518.1500
  20646379.640    20646380.240    20646382.060   108497475.0310   84543488.7960
  81020863.3950
  23148076.300    23148074.880                   121644123.2780   94787715.0030

  20263911.300    20263910.860    20263912.640   106487649.0090   82977430.1240
  79520220.4460
  23504625.360    23504623.880    23504629.500   123517650.4650   96247505.7160
  92237216.3200
  23435403.200    23435401.680                   123153869.7160   95964048.5400

  22331054.740    22331051.360                   117350471.3750   91441912.6120

  25203058.960    25203058.220                   132442971.5230  103202303.6300

 23  2 11  2 31  0.0000000  0 10G01G03G04G06G07G09G11G17G19G20
  25221410.080    25221413.580    25221415.720   132539521.8720  103277633.2050
  98974431.5020
  22893189.360    22893190.040    22893191.920   120304676.2950   93744022.8930
  89838149.4220
  21006573.380    21006572.120    21006577.020   110390612.3000   86018767.2900
  82434689.6520
  20638577.980    20638578.520    20638580.440   108456477.0890   84511542.3490
  80990248.0560
  23131299.900    23131298.460                   121555962.5360   94719018.3560

  20261637.280    20261636.820    20261638.600   106475699.0710   82968118.4950
  79511296.8020
  23486103.520    23486102.140    23486107.460   123420317.3000   96171661.7240
  92164532.4690
  23452394.360    23452392.860                   123243158.1860   96033623.9160

  22344543.140    22344539.860                   117421353.6260   91497145.5070

  25186050.280    25186049.480                   132353591.1340  103132656.6460

 23  2 11  2 31 30.0000000  0 10G01G03G04G06G07G09G11G17G19G20
  25242714.440    25242718.280    25242720.440   132651476.4060  103364870.0970
  99058033.4270
  22907115.080    22907115.620    22907117.420   120377855.8410   93801045.8990
  89892796.4580
  21017132.960    21017131.760    21017136.620   110446103.5350   86062007.2120
  82476127.9150
  20630868.300    20630868.740    20630870.720   108415962.3210   84479972.3920
  80959993.5180
  23114557.260    23114556.060                   121467979.7470   94650460.3980

  20259452.580    20259452.120    20259453.920   106464218.4790   82959172.5850
  79502723.6400
  23467615.820    23467614.220    23467619.740   123323163.9410   96095957.8200
  92091982.9240
  23469410.960    23469409.640                   123332581.2410   96103304.1510

  22358112.980    22358109.780                   117492663.6640   91552711.7370

  25169034.140    25169033.520                   132264170.7810  103062978.4690

 23  2 11  2 32  0.0000000  0 10G01G03G04G06G07G09G11G17G19G20
  25264028.100    25264032.000    25264034.320   132763479.4660  103452144.8440
  99141671.6710
  22921067.700    22921068.120    22921069.700   120451176.6860   93858179.0110
  89947549.0040
  21027759.980    21027758.760    21027763.680   110501949.0650   86105523.2070
  82517830.7380
  20623250.740    20623251.140    20623253.080   108375931.7470   84448779.7370
  80930100.5610
  23097848.860    23097847.860                   121380176.6470   94582042.4340

  20257356.900    20257356.480    20257358.240   106453205.6410   82950591.1610
  79494499.7750
  23449162.680    23449161.100    23449166.540   123226191.8440   96020395.1760
  92019568.7310
  23486452.540    23486451.300                   123422134.7250   96173086.0070

  22371763.360    22371760.100                   117564397.2600   91608608.0220

  25152010.440    25152009.680

 23  2 11  2 32 30.0000000  0 10G01G03G04G06G07G09G11G17G19G20
  25285351.260    25285354.880    25285356.880   132875530.1560  103539456.6750
  99225345.4210
  22935047.140    22935047.900    22935049.300   120524639.2780   93915422.5320
  90002407.4020
  21038454.220    21038453.020    21038457.840   110558147.5470   86149314.2280
  82559797.1380
  20615725.840    20615726.260    20615728.080   108336387.9960   84417966.4290
  80900571.1370
  23081175.300    23081174.280                   121292556.5420   94513767.0650

  20255350.280    20255349.840    20255351.580   106442660.7160   82942374.3400
  79486625.3280
  23430744.540    23430742.860    23430748.280   123129404.1830   95944976.2540
  91947292.2660
  23503518.360    23503517.200                   123511816.0230   96242967.4870

  22385494.040    22385490.800                   117636552.2340   91664832.6340

  25134979.040    25134978.040                   132085206.0441  102923533.6951

 23  2 11  2 33  0.0000000  0 10G01G03G04G06G07G09G11G17G19G20
  25306682.520    25306686.440    25306688.320   132987624.4850  103626802.5220
  99309051.7800
  22949053.360    22949054.060    22949055.540   120598241.2950   93972774.7390
  90057369.9310
  21049214.840    21049213.560    21049218.420   110614694.8710   86193377.0800
  82602024.0360
  20608293.520    20608293.940    20608295.780   108297330.8860   84387532.3130
  80871405.1090
  23064536.560    23064535.480                   121205119.7940   94445634.5870

  20253432.180    20253431.720    20253433.440   106432581.0320   82934520.0510
  79479098.2970
  23412361.540    23412359.920    23412365.060   123032801.3500   95869701.3330
  91875153.7870
  23520607.680    23520606.420                   123601620.8300   96312945.2050

  22399303.920    22399300.520                   117709123.2260   91721381.4380

  25117940.000    25117939.300                   131995664.1651  102853761.6071

 23  2 11  2 33 30.0000000  0 10G01G03G04G06G07G09G11G17G19G20
  25328022.540    25328026.480    25328028.360
  99392791.6000
  22963086.400    22963087.000    22963088.720   120671985.3780   94030237.6340
  90112438.5320
  21060042.000    21060040.680    21060045.620   110671591.9020   86237712.4230
  82644512.0710
  20600954.740    20600955.140    20600957.000   108258765.1870   84357481.1170
  80842606.0520
  23047933.860    23047932.580                   121117871.9720   94377649.2980

  20251603.040    20251602.520    20251604.260   106422968.8360   82927030.0370
  79471920.3730
  23394014.760    23394013.160    23394018.340   122936388.6300   95794574.5590
  91803157.3010
  23537720.380    23537719.320                   123691548.5170   96383018.6360

  22413192.860    22413189.500                   117782109.9270   91778254.1610

  25100893.900    25100893.000                   131906085.5850  102783960.2080

 23  2 11  2 34  0.0000000  0 10G01G03G04G06G07G09G11G17G19G20
  25349370.020    25349373.780    25349375.860
  99476562.1080
  22977146.140    22977146.660    22977148.540   120745869.3220   94087809.5240
  90167611.5830
  21070934.900    21070933.640    21070938.580   110728834.6440   86282317.1580
  82687258.2740
  20593709.420    20593709.860    20593711.720   108220690.8810   84327812.8250
  80814173.9320
  23031367.060    23031365.800                   121030813.7250   94309811.7500

  20249862.400    20249861.840    20249863.560   106413821.5720   82919902.3090
  79465089.6300
  23375704.300    23375702.800    23375707.820   122840166.5400   95719596.3560
  91731303.1780
  23554855.400    23554854.640                   123781594.6200   96453184.3430

  22427160.040    22427156.660                   117855507.6120   91835447.1300

  25083840.560    25083839.640                   131816468.1840  102714128.5130

 23  2 11  2 34 30.0000000  0 10G01G03G04G06G07G09G11G17G19G20
  25370724.700    25370727.780    25370731.020
  99560362.6900
  22991232.720    22991233.160    22991235.260   120819893.9220   94145491.0080
  90222889.6700
  21081893.420    21081892.200    21081897.060   110786422.1310   86327190.5210
  82730261.9150
  20586558.180    20586558.620    20586560.500   108183110.8220   84298529.6630
  80786110.9070
  23014837.140    23014835.800                   120943948.8060   94242124.8330

  20248210.300    20248209.740    20248211.440   106405139.6570   82913137.1880
  79458606.3870
  23357430.800    23357429.140    23357434.340   122744138.6250   95644769.4280
  91659594.0560
  23572012.700    23572011.880                   123871757.0920   96523440.7500

  22441205.020    22441201.640                   117929313.9990   91892958.5610

  25066779.960    25066779.320                   131726813.6400  102644267.8300

 23  2 11  2 35  0.0000000  0 10G01G03G04G06G07G09G11G17G19G20
  25392087.080    25392092.100    25392093.660
  99644192.6160
  23005345.780    23005346.360    23005348.540   120894059.6850   94203282.4650
  90278273.1510
  21092917.300    21092916.100    21092920.880   110844353.0040   86372331.4570
  82773521.9780
  20579501.460    20579501.920    20579503.820   108146027.6210   84269633.6630
  80758418.9080
  22998344.500    22998343.200                   120857279.8440   94174590.6280

  20246646.740    20246646.180    20246647.880   106396923.1100   82906734.6900
  79452470.6640
  23339194.860    23339193.000    23339198.320   122648308.0220   95570096.2450
  91588032.2770
  23589191.900    23589190.880                   123962033.6060   96593786.0160

  22455327.280    22455323.900                   118003526.6870   91950786.6060

  25049712.200    25049711.600                   131637122.5410  102574378.7420

 23  2 11  2 35 30.0000000  0 10G01G03G04G06G07G09G11G17G19G20
  25413457.100    25413461.620    25413462.960   133548617.2891  104063875.2841
  99728047.8380
  23019485.160    23019485.740    23019487.880   120968362.7760   94261180.9600
  90333759.2020
  21104005.520    21104004.240    21104009.120   110902621.6460   86417735.6000
  82817034.2820
  20572538.940    20572539.360    20572541.360   108109439.5020   84241123.4420
  80731096.6180
  22981889.300    22981887.860                   120770807.0140   94107209.2310

  20245170.940    20245170.360    20245172.120   106389167.6970   82900691.5170
  79446679.2900
  23320996.160    23320994.380    23321000.060   122552673.6360   95495575.9650
  91516617.0190
  23606391.400    23606390.280                   124052417.3730   96664214.8400

  22469525.540    22469522.360                   118078138.8110   92008925.8750

  25032636.960    25032636.240                   131547392.1380  102504459.0170

 23  2 11  2 36  0.0000000  0 10G01G03G04G06G07G09G11G17G19G20
  25434833.480    25434837.520    25434839.660
  99811931.7540
  23033651.760    23033652.400    23033654.480   121042809.2450   94319191.1630
  90389352.3190
  21115158.760    21115157.520    21115162.440   110961232.3360   86463406.2590
  82860801.9960
  20565672.240    20565672.620    20565674.640   108073354.6110   84213005.3410
  80704150.1080
  22965472.980    22965471.560                   120684538.7960   94039987.2880

  20243783.920    20243783.400    20243785.120   106381879.0680   82895012.0680
  79441236.4860
  23302836.360    23302834.800    23302840.380   122457244.2420   95421215.4060
  91445354.8340
  23623612.140    23623611.100                   124142912.3210   96734730.3040

  22483800.420    22483797.140                   118153153.5670   92067378.9020

  25015555.840    25015554.520                   131457629.4530  102434514.0780

 23  2 11  2 36 30.0000000  0 10G01G03G04G06G07G09G11G17G19G20
  25456215.540    25456221.360    25456222.560   133773310.5581  104238965.5701
  99895838.5820
  23047844.500    23047845.040    23047847.240   121117392.8960   94377308.2490
  90445047.8320
  21126375.600    21126374.300    21126379.280   111020177.0360   86509337.1970
  82904819.1440
  20558900.480    20558900.880    20558902.860   108037768.8060   84185276.1490
  80677576.2920
  22949094.920    22949093.500                   120598471.6120   93972921.9870

  20242484.480    20242484.000    20242485.660   106375050.5010   82889691.1150
  79436137.2420
  23284714.960    23284713.620    23284719.140   122362016.3640   95347011.8940
  91374243.1310
  23640852.120    23640851.080                   124233509.1560   96805325.1480

  22498150.100    22498146.880                   118228561.5970   92126138.3580

  24998467.440    24998465.860                   131367829.0260  102364539.7150

 23  2 11  2 37  0.0000000  0 10G01G03G04G06G07G09G11G17G19G20
  25477604.260    25477609.220    25477611.320   133885705.9791  104326551.5081
  99979767.3440
  23062063.720    23062063.740    23062065.980   121192113.9640   94435532.4750
  90500846.0260
  21137655.700    21137654.440    21137659.340   111079454.2410   86555527.2200
  82949084.5890
  20552224.120    20552224.540    20552226.540   108002684.3500   84157937.6140
  80651376.8610
  22932755.640    22932754.320                   120512608.5870   93906015.7600

  20241272.520    20241272.060    20241273.740   106368681.8240   82884728.5220
  79431381.4230
  23266632.500    23266631.460    23266636.680   122266992.9210   95272967.6980
  91303284.1050
  23658111.160    23658109.940                   124324205.3690   96875997.4600

  22512574.140    22512570.800                   118304360.5280   92185202.4400

  24981371.920    24981370.140                   131277991.3990  102294536.4430

 23  2 11  2 37 30.0000000  0 10G01G03G04G06G07G09G11G17G19G20
  25498997.960    25499002.960    25499005.140   133998135.5771  104414151.9611
 100063718.5580
  23076309.300    23076309.380    23076311.220   121266974.7880   94493865.5590
  90556748.5770
  21148999.180    21148997.860    21149002.820   111139064.3790   86601976.6780
  82993598.6510
  20545643.980    20545644.400    20545646.480   107968105.5670   84130993.1140
  80625555.0550
  22916456.220    22916454.920                   120426954.6800   93839272.4930

  20240148.440    20240147.980    20240149.740   106362774.8330   82880125.6820
  79426970.3660
  23248590.040    23248588.840    23248594.060   122172178.9960   95199086.7290
  91232481.5380
  23675388.980    23675387.960                   124415000.8190   96946747.0730

  22527072.460    22527069.080                   118380549.6140   92244570.5300

  24964269.860    24964268.200                   131188120.0460  102224506.8700

 23  2 11  2 38  0.0000000  0 10G01G03G04G06G07G09G11G17G19G20
  25520396.600    25520401.760    25520403.320   134110585.2770  104501774.4840
 100147690.0360
  23090581.060    23090581.540    23090583.140   121341973.7190   94552306.2390
  90612754.2310
  21160405.340    21160404.020    21160408.960   111199004.0590   86648682.9210
  83038358.8040
  20539160.160    20539160.580    20539162.660   107934032.8760   84104442.9650
  80600111.1640
  22900196.920    22900195.420                   120341511.4530   93772693.3810

  20239111.820    20239111.360    20239113.160   106357327.4110   82875880.9460
  79422902.4920
  23230587.660    23230586.560    23230591.660   122077575.7560   95125369.9500
  91161836.2480
  23692684.960    23692683.700                   124505891.2130   97017570.6810

  22541644.160    22541640.840                   118457124.2990   92304239.0850

  24947161.180    24947159.840                   131098213.8770  102154450.1570

 23  2 11  2 38 30.0000000  0 10G01G03G04G06G07G09G11G17G19G20
  25541800.300    25541805.800    25541807.860   134223061.8250  104589417.9440
 100231681.5970
  23104879.460    23104880.000    23104881.720   121417112.2310   94610855.7110
  90668864.1140
  21171874.100    21171872.820    21171877.840   111259273.0050   86695645.7210
  83083364.8130
  20532773.300    20532773.720    20532775.780   107900469.7740   84078289.9050
  80575047.8160
  22883978.400    22883976.800                   120256283.0940   93706281.7010

  20238162.840    20238162.380    20238164.180   106352340.5820   82871995.1070
  79419178.5690
  23212626.200    23212624.880    23212630.080   121983187.2840   95051820.5030
  91091351.4050
  23709998.620    23709997.700                   124596875.2180   97088467.1980

  22556288.920    22556285.720                   118534083.0320   92364206.8840

  24930046.400    24930044.880                   131008275.4170  102084368.2800

 23  2 11  2 39  0.0000000  0 10G01G03G04G06G07G09G11G17G19G20
  25563208.860    25563214.320    25563217.380   134335562.1060  104677079.8220
 100315690.7020
  23119203.940    23119204.860    23119206.340   121492388.6120   94669512.5920
  90725076.9470
  21183404.860    21183403.500    21183408.600   111319867.5470   86742862.2490
  83128613.9800
  20526483.420    20526483.900    20526485.880   107867416.4080   84052534.0430
  80550365.1180
  22867801.020    22867799.360                   120171270.6560   93640038.2970

  20237301.060    20237300.640    20237302.400   106347811.9660   82868466.3250
  79415796.8180
  23194705.780    23194704.460    23194709.780   121889014.6580   94978439.2730
  91021027.7140
  23727329.260    23727328.460                   124687948.4040   97159433.2350

  22571005.880    22571002.620                   118611421.1480   92424470.3320

  24912925.260    24912923.460                   130918303.3210  102014260.2010

 23  2 11  2 39 30.0000000  0 10G01G03G04G06G07G09G11G17G19G20
  25584621.560    25584627.080    25584630.000   134448084.6430  104764759.0640
 100399716.5940
  23133554.860    23133555.920    23133557.360   121567803.0610   94728277.0860
  90781392.9200
  21194997.300    21194995.920    21195001.000   111380786.1830   86790331.3170
  83174105.1750
  20520291.000    20520291.480    20520293.460   107834875.0050   84027177.1100
  80526064.7310
  22851665.320    22851663.500                   120086477.0430   93573965.3620

  20236526.480    20236526.000    20236527.780   106343741.3340   82865294.4090
  79412757.0720
  23176827.040    23176825.580    23176830.940   121795060.8640   94905228.5390
  90950867.4230
  23744676.380    23744675.440                   124779108.1510   97230466.7300

  22585794.440    22585791.060                   118689135.5970   92485027.0190

  24895797.980    24895796.220                   130828299.0910  101944127.0920

 23  2 11  2 40  0.0000000  0 10G01G03G04G06G07G09G11G17G19G20
  25606038.360    25606043.660    25606046.480   134560627.3760  104852454.0540
 100483757.3880
  23147931.960    23147932.880    23147934.400   121643354.8220   94787148.5750
  90837811.4230
  21206650.880    21206649.600    21206654.600   111442026.3570   86838050.9280
  83219836.4660
  20514196.220    20514196.680    20514198.720   107802846.8020   84002220.0760
  80502147.5720
  22835571.560    22835569.720                   120001904.0480   93508064.3650

  20235838.800    20235838.260    20235840.060   106340127.3880   82862478.3530
  79410058.3520
  23158990.240    23158988.700    23158994.240   121701327.8630   94832189.8630
  90880872.0530
  23762039.460    23762038.840                   124870351.0160   97301564.9580

  22600653.960    22600650.780                   118767222.9090   92545874.2370

  24878664.580    24878662.880                   130738262.5980  101873968.8690

 23  2 11  2 40 30.0000000  0 10G01G03G04G06G07G09G11G17G19G20
  25627458.140    25627463.920    25627466.540   134673186.9750  104940162.0270
 100567810.8120
  23162334.780    23162335.540    23162337.260   121719042.2700   94846125.7810
  90894331.2450
  21218364.980    21218363.700    21218368.640   111503584.5880   86886018.3770
  83265805.2690
  20508199.160    20508199.580    20508201.660   107771332.1070   83977663.1760
  80478613.8790
  22819520.220    22819518.400                   119917553.5710   93442336.7480

  20235237.600    20235237.040    20235238.840   106336967.9530   82860016.4640
  79407699.0400
  23141195.780    23141194.160    23141199.620   121607816.8480   94759324.1560
  90811042.4050
  23779417.520    23779416.800                   124961672.9330   97372724.7950

  22615583.580    22615580.440                   118845678.2850   92607008.2770

  24861524.820    24861523.320                   130648193.7261  101803780.5641

 23  2 11  2 41  0.0000000  0 10G01G03G04G06G07G09G11G17G19G20
  25648882.340    25648888.000    25648890.620   134785768.4770  105027887.2240
 100651880.5270
  23176764.760    23176765.400    23176767.300   121794871.9110   94905213.7930
  90950957.2430
  21230140.540    21230139.220    21230143.920   111565465.5790   86934237.3290
  83312015.1000
  20502301.420    20502301.840    20502303.880   107740339.2690   83953512.9200
  80455469.8870
  22803512.920    22803511.100                   119833434.5310   93376789.4830

  20234723.980    20234723.380    20234725.200   106334268.8980   82857913.3110
  79405683.5200
  23123445.160    23123443.600    23123449.120   121514536.9810   94686638.5940
  90741385.4150
  23796811.380    23796810.640                   125053078.2450   97443949.6320

  22630583.920    22630581.020                   118924505.4770   92668432.0230

  24844380.200    24844378.780                   130558098.1290  101733576.2710

 23  2 11  2 41 30.0000000  0 11G01G03G04G06G07G09G11G17G19G20G30
  25670308.020    25670313.760    25670316.580   134898357.6310  105115618.2640
 100735955.9480
  23191219.400    23191220.000    23191221.680   121870831.0290   94964402.6890
  91007679.9550
  21241974.780    21241973.420    21241978.140   111627654.8090   86982696.4670
  83358455.1060
  20496500.940    20496501.360    20496503.380   107709857.5410   83929760.9330
  80432707.5730
  22787547.780    22787546.000                   119749537.0120   93311414.8260

  20234295.440    20234294.860    20234296.640   106332016.9530   82856158.5540
  79404001.8840
  23105736.700    23105734.940    23105740.640   121421478.4190   94614125.4230
  90671893.6410
  23814218.240    23814217.700                   125144550.7030   97515226.7450

  22645651.900    22645649.000                   119003688.3520   92730132.9330

  24827228.540    24827227.020                   130467964.9640  101663342.6600

  25385593.980    25385603.880    25385607.060   133402209.0551  103949791.6861
  99618583.7171
 23  2 11  2 42  0.0000000  0 11G01G03G04G06G07G09G11G17G19G20G30
  25691735.700    25691741.580    25691744.540   135010956.8710  105203357.1170
 100820038.8740
  23205699.340    23205700.040    23205701.780   121946923.6540   95023695.6090
  91064502.3160
  21253868.080    21253866.720    21253871.440   111690154.4520   87031397.4850
  83405126.9130
  20490798.860    20490799.240    20490801.260   107679892.7530   83906411.7550
  80410331.2780
  22771626.140    22771624.320                   119665867.9220   93246218.1670

  20233952.580    20233952.060    20233953.820   106330215.5130   82854754.8470
  79402656.6570
  23088071.520    23088069.900    23088075.380   121328647.8000   94541789.9270
  90602572.1140
  23831638.020    23831637.400                   125236091.9000   97586557.4570

  22660787.780    22660784.840                   119083227.9140   92792111.7720

  24810070.260    24810068.820                   130377798.7450  101593083.3460

  25365596.260    25365605.880    25365608.580   133297125.9500  103867910.0800
  99540114.1360
 23  2 11  2 42 30.0000000  0 11G01G03G04G06G07G09G11G17G19G20G30
  25713166.680    25713172.600    25713175.700   135123573.1510  105291109.2640
 100904134.4580
  23220206.340    23220207.000    23220208.700   122023158.2320   95083099.1750
  91121430.7040
  21265821.660    21265820.400    21265825.020   111752971.1750   87080345.5770
  83452035.5030
  20485197.060    20485197.460    20485199.500   107650455.2820   83883473.4700
  80388348.7570
  22755750.120    22755747.980                   119582438.3350   93181208.1280

  20233696.940    20233696.480    20233698.240   106328872.4660   82853708.3210
  79401653.7420
  23070452.000    23070450.160    23070455.880   121236056.4210   94469640.8110
  90533429.2510
  23849072.040    23849071.320                   125327707.3890   97657946.0620

  22675992.600    22675989.660                   119163129.7540   92854372.9190

  24792907.300    24792907.220

  25345583.740    25345593.020    25345595.700   133191966.0660  103785968.6340
  99461587.1960
 23  2 11  2 43  0.0000000  0 11G01G03G04G06G07G09G11G17G19G20G30
  25734599.900    25734605.780    25734608.260   135236200.3900  105378869.8660
 100988238.1980
  23234739.400    23234740.260    23234741.480   122099530.0810   95142609.6440
  91178461.6060
  21277834.420    21277833.220    21277837.700   111816098.5080   87129535.6980
  83499176.0430
  20479695.120    20479695.500    20479697.540   107621542.3160   83860943.8950
  80366757.9180
  22739919.240    22739917.020                   119499246.3840   93116383.2790

  20233527.520    20233527.100    20233528.900   106327982.5330   82853014.8690
  79400989.1860
  23052877.620    23052875.880    23052881.440   121143702.4730   94397676.7200
  90464463.6520
  23866518.340    23866518.360                   125419390.0780   97729386.9750

  22691265.000    22691261.920                   119243386.1660   92916910.3650

  24775740.040    24775738.620

  25325556.060    25325565.520    25325567.760   133086727.2760  103703965.6490
  99383001.2670
 23  2 11  2 43 30.0000000  0 11G01G03G04G06G07G09G11G17G19G20G30
  25756034.100    25756040.200    25756042.460   135348834.3900  105466635.7490
 101072346.9490
  23249298.020    23249298.960    23249300.080   122176036.7150   95202225.1730
  91235593.1720
  21289905.420    21289904.300    21289908.800   111879532.1140   87178964.4750
  83546545.2870
  20474292.820    20474293.200    20474295.260   107593153.1300   83838822.4510
  80345558.2030
  22724133.620    22724131.300                   119416292.3590   93051743.8250

  20233443.760    20233443.380    20233445.160   106327542.5030   82852671.9920
  79400660.5960
  23035348.400    23035346.680    23035352.240   121051586.0920   94325897.7420
  90395675.4730
  23883977.020    23883976.600                   125511134.8750   97800876.3210

  22706603.740    22706600.540                   119323991.5890   92979719.7530

  24758566.440    24758565.200                   130107144.3701  101382186.8271

  25305513.540    25305523.280    25305524.980   132981409.4700  103621901.1100
  99304356.3900
 23  2 11  2 44  0.0000000  0 11G01G03G04G06G07G09G11G17G19G20G30
  25777469.180    25777475.500    25777478.000   135461473.1480  105554405.3110
 101156459.2700
  23263882.400    23263883.200    23263884.440   122252677.5790   95261945.3080
  91292824.9330
  21302034.280    21302033.140    21302037.660   111943269.5880   87228630.0390
  83594141.4470
  20468990.460    20468990.860    20468992.860   107565288.9950   83817110.1440
  80324750.5720
  22708393.640    22708391.300                   119333578.3530   92987291.3690

  20233445.460    20233445.040    20233446.780   106327551.1760   82852678.7610
  79400667.0820
  23017864.680    23017863.320    23017868.620   120959709.5090   94254305.6300
  90327066.3630
  23901446.780    23901446.400                   125602938.2820   97872411.2940

  22722008.180    22722004.900                   119404942.2730   93042798.1940

  24741387.720    24741386.460                   130016869.0881  101311839.4601

  25285456.600    25285466.760    25285468.160   132876014.6940  103539776.5880
  99225653.9780
