     2.11           OBSERVATION DATA    M (MIXED)           RINEX VERSION / TYPE
NetR9 5.50          Receiver Operator   20230402 184940 UTC PGM / RUN BY / DATE
Map of observations from RINEX 3 to RINEX 2.11              COMMENT
 G: C1C->C1 C2W->P2 C5X->C5 L1C->L1 L2W->L2 L5X->L5         COMMENT
BADJ                                                        MARKER NAME
Area de Geodesia    Instituto Geografico Nacional           OBSERVER / AGENCY
5811R52252          TRIMBLE NETR9       5.50                REC # / TYPE / VERS
5814338184          TRM159900.00    SCIS                    ANT # / TYPE
  4934001.4533  -604880.2623  3983295.1750                  APPROX POSITION XYZ
        0.0771        0.0000        0.0000                  ANTENNA: DELTA H/E/N
     6    C1    P2    C5    L1    L2    L5                  # / TYPES OF OBSERV
    30.000                                                  INTERVAL
  2022    05    02    00    00   00.0000000     GPS         TIME OF FIRST OBS
  2022    05    02    23    59   30.0000000     GPS         TIME OF LAST OBS
    31                                                      # OF SATELLITES
   G01   917   889   917   914   888   917                  PRN / # OF OBS
   G02  1125  1082        1116  1081                        PRN / # OF OBS
   G03   863   831   863   852   827   863                  PRN / # OF OBS
   G04  1014   904  1014   999   901  1014                  PRN / # OF OBS
   G05   974   964         965   959                        PRN / # OF OBS
   G06   986   983   986   971   970   986                  PRN / # OF OBS
   G07  1052  1018        1033  1004                        PRN / # OF OBS
   G08   857   848   856   851   842   856                  PRN / # OF OBS
   G09   806   806   806   802   802   806                  PRN / # OF OBS
   G10  1123  1110  1123  1121  1109  1123                  PRN / # OF OBS
   G11  1089  1059  1089  1080  1053  1089                  PRN / # OF OBS
   G12   816   814         815   814                        PRN / # OF OBS
   G13   928   878         917   878                        PRN / # OF OBS
   G14  1098  1047  1098  1088  1043  1098                  PRN / # OF OBS
   G15   846   838         841   834                        PRN / # OF OBS
   G16   814   747         798   747                        PRN / # OF OBS
   G17  1100  1092        1090  1082                        PRN / # OF OBS
   G18  1070  1031  1069  1059  1026  1069                  PRN / # OF OBS
   G19  1088  1062        1077  1056                        PRN / # OF OBS
   G20   800   770         798   769                        PRN / # OF OBS
   G21   949   894         941   891                        PRN / # OF OBS
   G22  1109   978        1094   975                        PRN / # OF OBS
   G23  1117  1064  1117  1105  1061  1117                  PRN / # OF OBS
   G24   909   902   909   904   897   909                  PRN / # OF OBS
   G25   896   880   896   891   876   896                  PRN / # OF OBS
   G26   857   844   857   851   839   857                  PRN / # OF OBS
   G27   907   902   907   905   901   907                  PRN / # OF OBS
   G29   920   806         906   799                        PRN / # OF OBS
   G30   939   915   938   921   904   938                  PRN / # OF OBS
   G31   999   987         993   984                        PRN / # OF OBS
   G32  1113  1096  1113  1111  1094  1113                  PRN / # OF OBS
                                                            END OF HEADER
 22  5  2  0  0  0.0000000  0 11G02G04G05G06G07G09G11G13G20G29G30
  21718418.172    21718420.699                   114131312.7850   88933402.9100

  25388038.938    25388045.488    25388050.148   133415042.3301  103959800.1041
  99628520.0970
  23359962.695    23359968.484                   122757605.1520   95655213.2510

  21536896.031    21536903.992    21536904.809   113177227.1200   88190116.7120
  84515521.3910
  20984712.984    20984717.332                   110275532.8070   85929112.2280

  22419184.406    22419191.004    22419191.629   117813826.3390   91803189.6880
  87978087.1750
  20768404.477    20768409.152    20768412.930   109138966.0100   85043281.0450
  81499813.4340
  23721344.508    23721349.867                   124656575.4860   97134992.5160

  21158623.422    21158627.410                   111189576.2030   86641145.5660

  25398163.109                                   133468193.0781

  21199382.930    21199389.973    21199389.961   111403649.5440   86808108.3450
  83191099.5880
 22  5  2  0  0 30.0000000  0 11G02G04G05G06G07G09G11G13G20G29G30
  21722638.289    21722640.570                   114153488.1990   88950682.4430

  25411146.992    25411153.465    25411157.285   133536470.1841  104054419.1691
  99719196.7580
  23348139.109    23348145.980                   122695477.0340   95606801.7910

  21558411.375    21558419.367    21558420.188   113290290.9370   88278218.3650
  84599952.1310
  20990514.563    20990518.613                   110306017.5680   85952866.5950

  22439488.375    22439494.848    22439495.949   117920526.3540   91886332.5470
  88057765.7410
  20773571.953    20773577.035    20773580.582   109166122.6230   85064442.0370
  81520092.7170
  23709772.586    23709779.160                   124595769.2290   97087611.0510

  21151124.109    21151128.598                   111150168.5490   86610438.3250

  25401683.984                                   133486690.6781

  21194408.891    21194415.965    21194416.219   111377511.3220   86787740.9180
  83171580.8130
 22  5  2  0  1  0.0000000  0 11G02G04G05G06G07G09G11G13G20G29G30
  21726957.109    21726959.840                   114176186.1530   88968369.1580

  25434241.070    25434249.926    25434252.930   133657842.8210  104148995.2610
  99809832.1420
  23336328.617    23336334.527                   122633410.1440   95558438.0730

  21580000.695    21580008.379    21580009.188   113403742.2970   88366621.9940
  84684672.2750
  20996411.641    20996416.434                   110337011.1600   85977017.4520

  22459813.469    22459820.379    22459821.168   118027335.0870   91969560.1210
  88137525.4710
  20778854.633    20778859.480    20778862.770   109193881.2440   85086072.1270
  81540821.5540
  23698236.453    23698241.680                   124535139.3490   97040367.1050

  21143670.859    21143675.051                   111111000.2960   86579917.6230

  25405303.852                                   133505712.9351

  21189523.664    21189530.668    21189530.746   111351838.3080   86767735.9990
  83152409.4290
 22  5  2  0  1 30.0000000  0 11G02G04G05G06G07G09G11G13G20G29G30
  21731377.047    21731379.348                   114199411.2710   88986466.6460

  25457330.984    25457336.652    25457340.039   133779163.2111  104243530.7181
  99900428.5600
  23324530.688    23324536.613                   122571409.9530   95510126.2910

  21601663.250    21601671.527    21601672.508   113517582.9620   88455328.9710
  84769683.1250
  21002407.984    21002411.871                   110368517.5150   86001567.8610

  22480159.867    22480166.750    22480166.918   118134255.6580   92052874.8180
  88217368.7160
  20784252.508    20784257.285    20784260.559   109222246.4680   85108174.8950
  81562003.3790
  23686732.031    23686738.332                   124474690.8640   96993264.4570

  21136264.180    21136268.250                   111072077.5620   86549588.2350

  25409022.656                                   133525264.6780

  21184727.305    21184734.684    21184734.898   111326636.4380   86748098.1990
  83133589.8830
 22  5  2  0  2  0.0000000  0 11G02G04G05G06G07G09G11G13G20G29G30
  21735897.391    21735899.574                   114223165.4250   89004976.3710

  25480406.773    25480413.887    25480416.672   133900432.7571  104338034.4281
  99990987.0070
  23312746.406    23312751.355                   122509479.4740   95461868.8260

  21623400.906    21623408.855    21623409.645   113631812.1090   88544338.6800
  84854984.0770
  21008500.531    21008505.168                   110400537.6460   86026518.6190

  22500527.492    22500534.809    22500534.660   118241288.5370   92136277.0260
  88297295.8540
  20789765.938    20789770.617    20789774.117   109251220.1660   85130751.7950
  81583639.5690
  23675263.641    23675270.551                   124414426.1520   96946305.0230

  21128904.477    21128908.895                   111033404.0950   86519453.0790

  25412844.984                                   133545346.7440

  21180022.039    21180029.199    21180029.137   111301908.9380   86728830.0390
  83115124.5670
 22  5  2  0  2 30.0000000  0 11G02G04G05G06G07G09G11G13G20G29G30
  21740517.719    21740520.156                   114247446.5940   89023896.7520

  25503473.273                    25503483.223   134021648.5471
 100081505.3280
  23300973.836    23300979.773                   122447618.2660   95413665.3540

  21645211.180    21645218.844    21645219.906   113746424.8690   88633647.3050
  84940571.5250
  21014691.242    21014695.672                   110433069.2010   86051867.8720

  22520916.188    22520922.969    22520923.254   118348430.3230   92219764.0970
  88377304.2830
  20795394.766    20795399.465    20795402.957   109280800.2590   85153801.2110
  81605728.5980
  23663830.102    23663837.188                   124354343.5330   96899487.4670

  21121592.664    21121596.676                   110994979.4400   86489511.8020

  25416766.633                                   133565956.8870

  21175406.695    21175413.691    21175413.715   111277655.0510   86709930.9290
  83097012.9250
 22  5  2  0  3  0.0000000  0 11G02G04G05G06G07G09G11G13G20G29G30
  21745237.594    21745240.199                   114272250.8050   89043224.6960

  25526527.688                    25526539.613   134142805.9801
 100171979.9950
  23289214.898    23289220.852                   122385823.1940   95365513.4140

  21667092.273    21667100.707    21667101.566   113861414.3010   88723249.4440
  85026440.2420
  21020978.594    21020982.531                   110466107.4330   86077611.9530

  22541323.859    22541330.816    22541331.266   118455675.4280   92303331.6970
  88457389.8870
  20801137.773    20801143.074    20801146.387   109310982.5590   85177319.8870
  81628267.3210
  23652432.117    23652437.750                   124294439.5900   96852809.1480

  21114327.398    21114331.859                   110956801.2360   86459762.5690

  25420789.531                                   133587091.2921

  21170880.852    21170887.891    21170887.941   111253871.9060   86691398.6250
  83079252.8010
 22  5  2  0  3 30.0000000  0 10G02G05G06G07G09G11G13G20G29G30
  21750057.719    21750060.582                   114297580.9480   89062962.4650

  23277468.906    23277474.898                   122324098.4970   95317416.3030

  21689045.844    21689053.969    21689055.219   113976780.5530   88813145.1970
  85112590.3430
  21027362.383    21027366.430                   110499654.7170   86103752.7020

  22561751.953    22561758.992    22561759.730   118563025.4380   92386981.0330
  88537553.8260
  20806996.820    20807001.480    20807005.020   109341769.8980   85201310.0130
  81651257.8550
  23641066.430    23641073.207                   124234717.3670   96806272.4200

  21107110.164    21107114.547                   110918874.2960   86430209.1170

  25424909.125

  21166445.922    21166452.492    21166452.598   111230563.6910   86673236.4060
  83061847.3460
 22  5  2  0  4  0.0000000  0 10G02G05G06G07G09G11G13G20G29G30
  21754978.703    21754981.180                   114323439.3480   89083111.8630

  23265737.586    23265742.621                   122262447.5450   95269376.6420

  21711070.875    21711078.961    21711080.258   114092523.1630   88903334.2330
  85199021.4880
  21033843.578    21033847.539                   110533712.4990   86130291.2370

  22582200.570    22582206.930    22582207.816   118670481.2870   92470712.8400
  88617796.7970
  20812970.727    20812975.867    20812979.375   109373164.5790   85225773.3920
  81674701.9350
  23629737.117    23629743.391                   124175179.8030   96759879.6180

  21099941.711    21099945.863                   110881202.8060   86400854.7220

  25429132.109                                   133630939.6771

  21162101.289    21162108.145    21162108.332   111207734.0870   86655447.1270
  83044799.2950
 22  5  2  0  4 30.0000000  0 10G02G05G06G07G09G11G13G20G29G30
  21759999.422    21760001.676                   114349823.5310   89103670.9550

  23254019.039    23254024.484                   122200869.6490   95221393.9260

  21733166.867    21733174.504    21733175.715   114208636.7970   88993812.3680
  85285729.6960
  21040420.625    21040425.055                   110568277.5910   86157225.1020

  22602668.445    22602674.727    22602675.035   118778039.1270   92554524.1260
  88698115.9460
  20819060.367    20819065.145    20819068.598   109405163.8810   85250707.9070
  81698597.5130
  23618442.148    23618448.680                   124115824.8150   96713629.0450

  21092821.398    21092825.777                   110843785.8510   86371698.6690

  25433453.398                                   133653653.0091

  21157847.961    21157854.809    21157854.762   111185381.7900   86638029.7730
  83028107.6740
 22  5  2  0  5  0.0000000  0 10G02G05G06G07G09G11G13G20G29G30
  21765120.031    21765122.551                   114376731.6570   89124638.3210

  23242314.805    23242320.453                   122139363.6130   95173467.1960

  21755332.055    21755340.266    21755341.168   114325117.0520   89084576.1800
  85372711.6830
  21047094.523    21047098.680                   110603347.6900   86184552.4510

  22623154.445    22623161.344    22623161.605   118885696.0160   92638412.5910
  88778509.0700
  20825263.922    20825269.094    20825272.543   109437766.1130   85276112.2410
  81722943.3280
  23607180.945    23607187.953                   124056651.3100   96667519.8980

  21085749.523    21085753.945                   110806623.7650   86342741.2040

  25437875.750    25437884.215                   133676889.0861  104163882.4111

  21153684.664    21153691.895    21153691.855   111163506.4570   86620984.0770
  83011772.2050
 22  5  2  0  5 30.0000000  0 10G02G05G06G07G09G11G13G20G29G30
  21770340.375    21770342.961                   114404166.0000   89146015.7250

  23230624.938    23230630.367                   122077932.6370   95125598.9660

  21777567.648    21777575.438    21777576.383   114441963.1260   89175625.0490
  85459966.8370
  21053863.945    21053868.590                   110638924.1240   86212274.3540

  22643659.000    22643666.359    22643667.090   118993452.6240   92722378.7700
  88858976.6520
  20831583.086    20831587.902    20831591.637   109470973.1680   85301987.8540
  81747740.7980
  23595957.070    23595962.426                   123997662.0230   96621554.2920

  21078727.148    21078731.359                   110769720.2430   86313985.2250

  25442397.992    25442405.293                   133700649.0051  104182396.7191

  21149613.680    21149620.594    21149620.523   111142111.3200   86604312.5570
  82995795.3480
 22  5  2  0  6  0.0000000  0 10G02G05G06G07G09G11G13G20G29G30
  21775660.813    21775663.590                   114432126.4890   89167803.1170

  23218949.766    23218955.172                   122016579.0640   95077791.0200

  21799872.008    21799879.641    21799880.531   114559172.4110   89266956.9280
  85547493.2150
  21060729.789    21060734.742                   110675006.1310   86240390.2070

  22664183.664    22664190.852    22664191.340   119101307.8830   92806421.8000
  88939517.8760
  20838017.711    20838022.496    20838025.770   109504785.0390   85328334.7760
  81772989.9140
  23584765.734    23584771.934                   123938857.0790   96575732.3250

  21071753.945    21071758.238                   110733077.3590   86285432.3250

  25447018.555    25447026.766                   133724933.3940  104201319.6101

  21145633.852    21145640.891    21145640.902   111121197.8570   86588016.3810
  82980178.1820
 22  5  2  0  6 30.0000000  0 10G02G05G06G07G09G11G13G20G29G30
  21781081.813    21781084.461                   114460612.9220   89190000.3150

  23207289.688    23207294.699                   121955303.1840   95030043.5980

  21822244.297    21822252.398    21822253.457   114676742.0140   89358569.5750
  85635288.6700
  21067692.820    21067697.145                   110711593.6890   86268899.9930

  22684726.375    22684733.559    22684734.449   119209260.3500   92890540.5790
  89020131.7020
  20844566.656    20844571.715    20844574.875   109539201.4350   85355152.7380
  81798690.4680
  23573610.883    23573617.590                   123880237.2650   96530054.6050

  21064831.086    21064835.238                   110696696.8100   86257083.8490

  25451737.500    25451746.695                   133749741.0210  104220650.3610

  21141746.078    21141753.086    21141753.020   111100767.1460   86572096.3640
  82964921.4980
 22  5  2  0  7  0.0000000  0 10G02G05G06G07G09G11G13G20G29G30
  21786602.711    21786605.414                   114489625.8490   89212607.7760

  23195643.766    23195649.023                   121894107.2090   94982358.4500

  21844685.273    21844693.188    21844694.137   114794669.5390   89450461.1190
  85723351.3920
  21074751.008    21074755.398                   110748686.0990   86297803.1780

  22705286.734    22705294.613    22705294.844   119317309.1600   92974734.4370
  89100817.4670
  20851231.148    20851236.004    20851239.320   109574222.6010   85382441.9560
  81824842.6310
  23562492.000    23562498.020                   123821803.4240   96484521.8180

  21057958.914    21057962.844                   110660580.6440   86228941.3880

  25456559.531                                   133775071.7891

  21137949.883    21137957.266    21137957.332   111080820.8070   86556553.7780
  82950026.5240
 22  5  2  0  7 30.0000000  0 10G02G05G06G07G09G11G13G20G29G30
  21792224.500    21792227.027                   114519168.2870   89235627.8570

  23184014.539    23184019.918                   121832995.7140   94934739.1460

  21867194.602    21867202.309    21867203.270   114912955.4600   89542631.9380
  85811681.7600
  21081906.125    21081910.461                   110786285.7720   86327101.6300

  22725867.867    22725874.516    22725874.836   119425456.3520   93059004.9610
  89181576.7260
  20858011.102    20858015.746    20858019.441   109609851.5760   85410204.7850
  81851448.6680
  23551407.688    23551414.848                   123763559.1670   96439136.7690

  21051137.391    21051141.238                   110624734.1060   86201009.0250

  25461480.195                                   133800928.5551

  21134247.797    21134254.641    21134254.664   111061363.3510   86541392.1470
  82935496.6380
 22  5  2  0  8  0.0000000  0 10G02G05G06G07G09G11G13G20G29G30
  21797946.867    21797949.152                   114549237.0070   89259058.0150

  23172401.570    23172407.020                   121771966.5060   94887183.9430

  21889769.938    21889778.367    21889779.684   115031593.7490   89635077.3360
  85900275.2460
  21089156.852    21089161.301                   110824388.7560   86356792.2730

  22746464.945    22746471.824    22746472.383   119533697.5060   93143348.6880
  89262406.1380
  20864906.070    20864910.941    20864914.336   109646084.9440   85438438.5720
  81878506.0460
  23540359.617    23540366.074                   123705501.9490   96393897.4410

  21044367.289    21044370.980                   110589156.1650   86173285.9510

  25466500.031                                   133827307.4691

  21130637.555    21130644.730    21130644.703   111042392.8060   86526609.9240
  82921330.3470
 22  5  2  0  8 30.0000000  0 10G02G05G06G07G09G11G13G20G29G30
  21803768.469    21803771.410                   114579831.9960   89282898.2570

  23160804.508    23160809.328                   121711021.8060   94839694.5990

  21912413.078    21912421.168    21912422.078   115150581.6650   89727795.1550
  85989129.8220
  21096503.117    21096507.672                   110862994.3390   86386874.5560

  22767081.258    22767086.766    22767087.191   119642031.4710   93227764.7350
  89343304.8260
  20871915.891    20871921.055    20871924.094   109682922.4930   85467143.1460
  81906014.6020
  23529347.313    23529353.703                   123647632.1250   96348804.1390

  21037648.352    21037652.176                   110553848.4620   86145773.4520

  25471618.164                                   133854208.1361

  21127120.516    21127127.492    21127127.574   111023910.3420   86512208.0290
  82907528.5370
 22  5  2  0  9  0.0000000  0 10G02G05G06G07G09G11G13G20G29G30
  21809690.734    21809693.969                   114610955.6180   89307150.4110

  23149222.563    23149228.820                   121650165.0010   94792273.7380

  21935122.156    21935130.258    21935131.133   115269919.0680   89820785.3030
  86078245.3670
  21103945.836    21103950.027                   110902104.6850   86417350.1530

  22787714.078    22787720.141    22787720.715   119750459.6140   93312254.1550
  89424273.8590
  20879041.117    20879046.352    20879049.664   109720366.6080   85496320.3770
  81933976.1140
  23518371.789    23518377.348                   123589953.0100   96303859.4340

  21030982.070    21030985.656                   110518815.6040   86118475.1200

  25476836.391                                   133881632.4221

  21123696.977    21123704.043    21123703.875   111005919.8300   86498189.4680
  82894094.0800
 22  5  2  0  9 30.0000000  0 10G02G05G06G07G09G11G13G20G29G30
  21815713.094    21815716.164                   114642603.7330   89331811.2740

  23137659.320    23137663.773                   121589393.5370   94744919.3810

  21957897.367    21957904.809    21957905.719   115389599.1030   89914042.4380
  86167616.7990
  21111483.344    21111487.691                   110941714.9930   86448215.3360

  22808363.508    22808370.480    22808371.184   119858976.7440   93396812.9460
  89505309.3680
  20886281.211    20886286.168    20886289.750   109758412.9910   85525966.9050
  81962387.3660
  23507431.625    23507436.520                   123532460.9620   96259060.5190

  21024367.195    21024371.078                   110484055.3400   86091389.2040

  25482154.203                                   133909575.6240

  21120366.516    21120373.703    21120373.543   110988418.3980   86484552.0110
  82881024.8500
 22  5  2  0 10  0.0000000  0 10G02G05G06G07G09G11G13G20G29G30
  21821837.430    21821839.820                   114674783.1090   89356886.1010

  23126112.180    23126118.035                   121528715.3310   94697637.7070

  21980737.148    21980744.902    21980745.980   115509625.6350   90007569.5740
  86257246.9630
  21119117.367    21119121.563                   110981830.9280   86479474.5040

  22829033.367    22829038.586    22829039.398   119967588.3800   93481445.3500
  89586415.4090
  20893636.844    20893641.914    20893645.621   109797067.9590   85556087.6540
  81991253.0960
  23496528.172    23496533.766                   123475163.1790   96214412.9660

  21017805.773    21017809.754                   110449576.4780   86064522.5590

  25487570.813    25487577.031                   133938043.8670  104367356.9411

  21117130.602    21117137.848    21117137.703   110971413.8980   86471301.7610
  82868326.7030
 22  5  2  0 10 30.0000000  0 10G02G05G06G07G09G11G13G20G29G30
  21828061.727    21828063.957                   114707490.7410   89382372.5630

  23114582.938    23114588.758                   121468129.6680   94650428.1230

  22003642.641    22003650.285    22003651.172   115629993.4300   90101362.6320
  86347131.9600
  21126846.656    21126850.977                   111022449.8360   86511125.6080

  22849717.844    22849724.172    22849725.070   120076290.9120   93566148.6010
  89667589.3470
  20901107.727    20901113.258    20901116.578   109836328.8080   85586680.5180
  82020571.2540
  23485661.523    23485666.930                   123418057.8830   96169915.4010

  21011297.938    21011302.320                   110415378.5310   86037874.8180

  25493086.844    25493095.336

  21113989.148    21113996.250    21113996.160   110954905.0190   86458437.7190
  82855998.6640
 22  5  2  0 11  0.0000000  0 10G02G05G06G07G09G11G13G20G29G30
  21834385.406    21834388.164                   114740724.6940   89408269.1410

  23103071.469    23103077.223                   121407635.5480   94603289.8980

  22026610.813    22026619.488    22026620.594   115750697.5320   90195417.7450
  86437268.1160
  21134671.297    21134675.547                   111063568.1180   86543165.8280

  22870419.125    22870426.805    22870426.707   120185081.0900   93650920.1380
  89748828.7180
  20908694.297    20908699.152    20908702.340   109876193.0630   85617743.5700
  82050339.9920
  23474830.195    23474836.027                   123361143.0120   96125566.1950

  21004843.719    21004847.953                   110381461.1520   86011445.6870

  25498704.414    25498711.223                   133996543.0491  104412940.7731

  21110941.641    21110948.750    21110948.793   110938890.7750   86445959.1030
  82844040.0020
 22  5  2  0 11 30.0000000  0 10G02G05G06G07G09G11G13G20G29G30
  21840808.328    21840811.012                   114774477.9690   89434570.3900

  23091576.984    23091582.020                   121347228.8450   94556219.7700

  22049642.727    22049650.992    22049652.027   115871728.5430   90289727.5900
  86527648.3730
  21142589.508    21142593.719                   111105178.2800   86575589.3350

  22891136.789    22891143.777    22891143.438   120293951.1290   93735753.9140
  89830127.7640
  20916393.516    20916398.363    20916401.910   109916653.6920   85649271.3310
  82080554.0980
  23464035.008    23464041.266                   123304412.9160   96081360.9880

  20998441.602    20998446.078                   110347819.4530   85985231.3930

  25504416.609                                   134026563.6901

  21107987.203    21107994.469    21107994.523   110923365.6920   86433861.6590
  82832446.6210
 22  5  2  0 12  0.0000000  0 10G02G05G06G07G09G11G13G20G29G30
  21847331.391    21847334.313                   114808757.0890   89461281.3910

  23080099.281    23080104.848                   121286916.3710   94509223.0850

  22072737.258    22072745.355    22072746.813   115993090.3190   90384295.1760
  86618275.6430
  21150602.523    21150606.672                   111147286.7680   86608401.1570

  22911869.461    22911877.172    22911877.125   120402906.6330   93820654.2790
  89911490.5980
  20924207.617    20924212.379    20924216.207   109957717.0440   85681268.7390
  82111218.2760
  23453275.977    23453281.738                   123247874.6240   96037305.2310

  20992094.297    20992098.504                   110314462.3360   85959238.8500

  25510228.117                                   134057102.5270

  21105127.531    21105134.793    21105134.656   110908337.5490   86422151.4370
  82821224.3310
 22  5  2  0 12 30.0000000  0 10G02G05G06G07G09G11G13G20G29G30
  21853954.891    21853957.902                   114843563.8160   89488403.5010

  23068640.203    23068645.996                   121226702.8320   94462303.4710

  22095894.711    22095902.629    22095903.660   116114782.1340   90479119.9340
  86709149.3530
  21158710.273    21158714.691                   111189894.4420   86641601.9380

  22932620.766    22932626.887    22932627.582   120511948.5070   93905621.9530
  89992917.9320
  20932136.656    20932141.664    20932145.176   109999384.7770   85713737.0980
  82142333.7960
  23442553.555    23442559.539                   123191530.5920   95993400.8500

  20985801.758    20985805.805                   110281393.8540   85933471.2100

  25516138.477                                   134088160.1070

  21102363.211    21102370.098    21102370.012   110893809.5400   86410830.9250
  82810375.5160
 22  5  2  0 13  0.0000000  0 10G02G05G06G07G09G11G13G20G29G30
  21860678.898    21860681.938                   114878898.4670   89515936.9850

  23057201.406    23057206.910                   121166588.9890   94415461.5540

  22119114.430    22119122.332    22119123.293   116236801.6470   90574200.0320
  86800267.7930
  21166913.234    21166917.543                   111233000.9930   86675191.4670

  22953386.695    22953393.453    22953393.852   120621076.1610   93990656.4590
  90074409.3330
  20940180.984    20940186.012    20940189.172   110041656.9630   85746676.4510
  82173900.6790
  23431868.570    23431875.438                   123135382.0100   95949648.7490

  20979564.281    20979568.695                   110248616.2870   85907930.2470

  25522147.727                                   134119736.4811

  21099693.961    21099701.105    21099700.910   110879783.2240   86399901.3520
  82799901.3380
 22  5  2  0 13 30.0000000  0 10G02G05G06G07G09G11G13G20G29G30
  21867503.492    21867506.070                   114914760.2460   89543881.2070

  23045781.203    23045786.797                   121106576.3570   94368698.5220

  22142395.203    22142403.750    22142404.793   116359145.4390   90669532.8220
  86891628.3590
  21175210.758    21175215.164                   111276604.9210   86709168.5600

  22974168.477    22974176.098    22974176.020   120730287.9510   94075756.5280
  90155963.5610
  20948339.789    20948344.840    20948348.035   110084532.5680   85780086.0040
  82205918.1570
  23421221.258    23421227.090                   123079428.5490   95906048.7050

  20973382.492    20973386.910                   110216131.1930   85882617.1980

  25528254.805                                   134151830.4551

  21097119.977    21097127.410    21097127.398   110866259.0690   86389363.0680
  82789802.1480
 22  5  2  0 14  0.0000000  0 10G02G05G06G07G09G11G13G20G29G30
  21874426.727    21874430.074                   114951146.1890   89572233.8830

  23034380.609    23034385.621                   121046664.0800   94322013.6630

  22165737.242    22165745.484    22165746.688   116481808.1990   90765114.1510
  86983227.1360
  21183603.008    21183606.684                   111320703.2170   86743530.8690

  22994966.297    22994973.387    22994973.938   120839580.3430   94160919.3920
  90237577.9710
  20956613.148    20956617.797    20956621.453   110128008.6400   85813963.4590
  82238384.0570
  23410611.563    23410616.613                   123023668.5050   95862599.4120

  20967256.438    20967260.625                   110183937.9320   85857531.5480

  25534458.766                                   134184438.9331

  21094642.234    21094649.098    21094649.113   110853235.6240   86379214.9430
  82780076.8810
 22  5  2  0 14 30.0000000  0 10G02G05G06G07G09G11G13G20G29G30
  21881451.953    21881454.375                   114988059.1690   89600997.2190

  23022999.836    23023004.840                   120986857.2530   94275410.9780

  22189139.992    22189148.199    22189149.285   116604790.1400   90860944.1990
  87075064.2650
  21192088.313    21192092.742                   111365297.5880   86778279.7360

  23015779.867    23015786.789    23015787.414   120948955.2220   94246146.5440
  90319253.9890
  20965000.906    20965005.758    20965009.461   110172087.7070   85848310.7780
  82271300.2300
  23400037.289    23400043.535                   122968105.0530   95819303.2400

  20961186.766    20961190.855                   110152041.5680   85832677.2530

  25540761.383                                   134217563.6190

  21092260.086    21092266.777    21092266.789   110840717.0360   86369460.2150
  82770728.5900
 22  5  2  0 15  0.0000000  0 10G02G05G06G07G09G11G13G20G29G30
  21888576.906    21888579.129                   115025500.0470   89630171.9180

  23011639.352    23011644.242                   120927157.5650   94228891.7900

  22212603.875    22212611.422    22212612.449   116728089.6240   90957021.6890
  87167138.5080
  21200668.875    21200673.262                   111410388.6430   86813415.6250

  23036609.516    23036615.551    23036616.316   121058412.6440   94331438.0150
  90400991.6430
  20973504.094    20973509.000    20973512.297   110216770.3970   85883128.4510
  82304667.1730
  23389502.297    23389507.379                   122912740.1090   95776161.8130

  20955174.594    20955178.336                   110120445.3210   85808056.8100

  25547165.195                                   134251205.0361

  21089973.969    21089981.066    21089981.078   110828705.4170   86360100.5310
  82761758.8940
 22  5  2  0 15 30.0000000  0 10G02G05G06G07G09G11G13G20G29G30
  21895801.531    21895804.691                   115063469.1000   89659758.1780

  23000299.563    23000304.965                   120867567.5440   94182458.0590

  22236125.984    22236134.645    22236135.551   116851704.4540   91053344.8840
  87259448.2400
  21209343.922    21209348.301                   111455976.0930   86848938.3170

  23057454.031    23057460.695    23057460.680   121167952.4950   94416793.7220
  90482790.8520
  20982121.242    20982126.660    20982129.848   110262056.8830   85918416.6130
  82338484.9850
  23379003.570    23379009.730                   122857574.8310   95733175.9280

  20949219.523    20949223.277                   110089151.7250   85783672.1850

  25553664.914                                   134285362.8841

  21087785.031    21087792.008    21087792.078   110817202.4490   86351137.1970
  82753169.0430
 22  5  2  0 16  0.0000000  0 11G02G05G06G07G09G11G13G14G20G29G30
  21903127.094    21903129.602                   115101963.0720   89689753.4820

  22988979.805    22988986.102                   120808086.1660   94136109.0110

  22259708.477    22259716.375    22259717.699   116975628.9690   91149909.4170
  87351989.2380
  21218112.695    21218116.879                   111502056.1600   86884844.8700

  23078313.742    23078320.301    23078321.008   121277570.7420   94502210.5130
  90564648.6120
  20990853.570    20990858.535    20990861.848   110307943.7800   85954172.6350
  82372751.1670
  23368544.156    23368549.848                   122802606.7510   95690343.7190

  25756813.383                    25756827.238   135352996.8711
 101075315.0711
  20943321.828    20943325.730                   110058160.0860   85759522.8640

  25560262.641

  21085692.156    21085699.535    21085699.672   110806206.3740   86342568.8410
  82744957.6960
 22  5  2  0 16 30.0000000  0 10G02G05G06G07G09G11G13G20G29G30
  21910551.945    21910554.422                   115140980.7210   89720156.8320

  22977681.695    22977687.969                   120748713.8750   94089844.9380

  22283349.234    22283356.949    22283358.168   117099859.2370   91246712.1910
  87444758.5540
  21226974.797    21226979.059                   111548626.8480   86921133.7200

  23099187.789    23099194.035    23099195.090   121387265.2870   94587686.7560
  90646563.3570
  20999699.602    20999704.449    20999708.063   110354429.3840   85990395.1880
  82407464.4350
  23358121.547    23358126.523                   122747835.6030   95647664.9590

  20937481.953    20937485.797                   110027471.1640   85735609.4300

  25566956.289                                   134355216.2161

  21083696.031    21083703.609    21083703.527   110795716.9820   86334395.3060
  82737124.7340
 22  5  2  0 17  0.0000000  0 11G02G05G06G07G09G11G13G14G20G29G30
  21918076.359    21918079.121                   115180523.1830   89750969.1230

  22966405.016    22966411.074                   120689454.1400   94043668.5820

  22307046.680    22307055.066    22307056.113   117224394.1160   91343752.3180
  87537755.3250
  21235930.352    21235934.676                   111595688.5650   86957805.1870

  23120076.953    23120082.973    23120084.254   121497036.8810   94673223.0340
  90728535.5990
  21008659.734    21008664.488    21008668.098   110401514.8250   86027085.1160
  82442625.6240
  23347735.523    23347741.984                   122693263.0070   95605140.9240

  25736071.000    25736080.488    25736086.031   135244001.2151  105384945.4041
 100993923.5551
  20931700.289    20931704.352                   109997088.7070   85711934.7930

  25573749.328                                   134390909.7230

  21081797.523    21081804.426    21081804.285   110785736.9950   86326618.7070
  82729672.1630
 22  5  2  0 17 30.0000000  0 11G02G05G06G07G09G11G13G14G20G29G30
  21925700.141    21925702.984                   115220587.6420   89782188.1670

  22955150.156    22955155.387                   120630306.1630   93997579.3020

  22330802.164    22330810.457    22330811.535   117349228.4090   91441025.7580
  87630975.7120
  21244978.813    21244983.203                   111643238.3170   86994856.9440

  23140979.672    23140986.301    23140986.828   121606882.1130   94758816.6940
  90810562.8540
  21017732.914    21017738.328    21017741.480   110449197.1240   86064240.1460
  82478232.5210
  23337388.375    23337394.703                   122638887.4880   95562770.4430

  25725650.813                    25725665.184
 100953032.6990
  20925976.711    20925980.766                   109967012.2610   85688498.6050

  25580639.305                                   134427111.6781

  21079994.813    21080001.879    21080001.734   110776265.0040   86319237.9510
  82722598.9440
 22  5  2  0 18  0.0000000  0 11G02G05G06G07G09G11G13G14G20G29G30
  21933424.211    21933426.875                   115261176.7750   89813816.0550

  22943916.109    22943921.949                   120571274.0260   93951580.3090

  22354614.313    22354622.547    22354623.457   117474362.0580   91538532.4580
  87724419.6380
  21254120.180    21254124.848                   111691277.8940   87032290.3880

  23161895.672    23161903.957    23161904.004   121716802.8560   94844469.1800
  90892646.4630
  21026920.781    21026925.711    21026928.980   110497478.3900   86101861.9020
  82514286.7060
  23327079.320    23327085.254                   122584712.1320   95520555.9440

  25715197.547    25715207.836    25715212.711   135134315.5331  105299475.5151
 100912015.8900
  20920312.922    20920316.816                   109937246.6970   85665304.6740

  25587624.656                                   134463824.1640

  21078289.805    21078296.789    21078296.727   110767304.7180   86312255.9270
  82715907.8300
 22  5  2  0 18 30.0000000  0 11G02G05G06G07G09G11G13G14G20G29G30
  21941247.586    21941249.871                   115302286.7930   89845849.8160

  22932704.227    22932710.074                   120512356.1130   93905670.3080

  22378481.836    22378490.438    22378491.828   117599789.0680   91636267.7520
  87818082.5980
  21263354.133    21263358.836                   111739803.1650   87070102.2850

  23182826.930    23182834.359    23182834.785   121826794.8540   94930177.2220
  90974783.3240
  21036221.992    21036226.555    21036230.047   110546354.7930   86139947.4050
  82550785.3170
  23316809.016    23316813.977                   122530734.4890   95478495.5010

  25704713.477                    25704727.563   135079218.8301
 100870872.3390
  20914707.477    20914711.367                   109907790.9440   85642352.1410

  25594705.969                                   134501042.5560

  21076681.641    21076688.582    21076688.641   110758853.8730   86305670.8630
  82709597.1490
 22  5  2  0 19  0.0000000  0 11G02G05G06G07G09G11G13G14G20G29G30
  21949169.031    21949172.121                   115343917.0760   89878288.9780

  22921515.266    22921520.621                   120453554.7270   93859851.0910

  22402405.594    22402413.730    22402415.121   117725506.5900   91734229.4030
  87911962.5190
  21272680.844    21272685.008                   111788812.8190   87108291.6260

  23203772.109    23203778.605    23203778.867   121936857.3410   95015940.1770
  91056972.8310
  21045635.172    21045640.688    21045644.254   110595825.6910   86178496.1470
  82587727.8630
  23306574.703    23306579.691                   122476954.9450   95436589.4140

  25694198.328                    25694211.375   135023954.8441
 100829603.8850
  20909161.352    20909165.703                   109878647.0790   85619642.6390

  25601885.250                                   134538766.1851

  21075170.266    21075177.555    21075177.543   110750913.4010   86299483.4960
  82703667.6040
 22  5  2  0 19 30.0000000  0 11G02G05G06G07G09G11G13G14G20G29G30
  21957190.570    21957193.285                   115386069.0490   89911134.6540

  22910349.203    22910353.492                   120394872.8100   93814124.9750

  22426384.273    22426392.090    22426393.398   117851513.8240   91832416.8220
  88006058.7780
  21282099.430    21282103.598                   111838308.1340   87146859.4050

  23224729.773    23224736.484    23224737.098   122046991.2590   95101758.8160
  91139215.7140
  21055163.188    21055168.324    21055171.492   110645892.4500   86217509.2010
  82625115.3730
  23296378.898    23296384.410                   122423375.9910   95394839.6570

  25683649.797    25683658.379    25683663.867   134968527.9641  105170282.7131
 100788213.7610
  20903675.570    20903679.840                   109849819.0900   85597179.2800

  25609161.266                                   134576996.0481

  21073757.203    21073764.266    21073764.250   110743486.2430   86293696.1220
  82698121.3740
 22  5  2  0 20  0.0000000  0 11G02G05G06G07G09G11G13G14G20G29G30
  21965310.930    21965313.828                   115428742.9390   89944387.0280

  22899205.039    22899210.109                   120336312.5370   93768493.6130

  22450417.398    22450425.500    22450426.512   117977807.9610   91930827.7870
  88100369.2830
  21291610.016    21291614.480                   111888288.2790   87185804.9740

  23245701.477    23245707.914    23245708.602   122157195.7910   95187632.4490
  91221511.2680
  21064803.289    21064808.645    21064812.113   110696554.3140   86256985.9630
  82662947.2650
  23286221.344    23286225.797                   122369998.2540   95353246.6330

  25673072.281    25673081.680    25673085.785   134912940.6350  105126968.0240
 100746703.9400
  20898250.609    20898254.578                   109821309.1740   85574963.7740

  25616530.789                                   134615731.2181

  21072441.555    21072448.684    21072448.738   110736573.2210   86288309.3640
  82692959.0670
 22  5  2  0 20 30.0000000  0 11G02G05G06G07G09G11G13G14G20G29G30
  21973531.188    21973533.973                   115471940.6150   89978047.5400

  22888084.883    22888090.633                   120277878.8340   93722960.9150

  22474505.156    22474512.941    22474513.863   118104389.1540   92029462.4310
  88194894.1450
  21301213.281    21301217.969                   111938755.0420   87225129.7290

  23266686.258    23266692.965    23266693.602   122267472.9720   95273562.6800
  91303861.0440
  21074557.961    21074563.266    21074566.477   110747813.5220   86296928.1930
  82701225.2290
  23276101.984    23276107.824                   122316824.7910   95311812.8300

  25662467.539    25662473.852    25662478.266   134857198.1370  105083532.4530
 100705078.2730
  20892886.375    20892890.738                   109793122.2250   85552999.9190

  25623998.250                                   134654973.5741

  21071224.797    21071231.766    21071231.676   110730178.3190   86283326.3390
  82688183.6670
 22  5  2  0 21  0.0000000  0 11G02G05G06G07G09G11G13G14G20G29G30
  21981851.125    21981853.957                   115515661.0370   90012115.3810

  22876989.547    22876994.992                   120219572.5500   93677527.5030

  22498646.086    22498654.621    22498655.406   118231254.0810   92128318.1750
  88289630.9030
  21310909.563    21310913.910                   111989707.3140   87264832.7970

  23287684.047    23287691.566    23287691.570   122377821.4410   95359548.4750
  91386264.0960
  21084425.773    21084430.973    21084434.398   110799668.9100   86337334.9740
  82739948.3960
  23266022.727    23266028.320                   122263856.0430   95270538.5230

  25651827.031                    25651840.988   134801302.2051
 100663337.9320
  20887585.031    20887588.664                   109765259.8020   85531288.9580

  25631562.664                                   134694721.8590

  21070106.266    21070113.594    21070113.402   110724301.8960   86278747.3210
  82683795.4380
 22  5  2  0 21 30.0000000  0 11G02G05G06G07G09G11G13G14G20G29G30
  21690477.664    21690480.316                   113984482.4350   88818989.1760

  22566125.313    22566130.672                   118585970.4260   92404590.8230

  22223049.586    22223057.359    22223058.660   116782980.9500   90999793.6040
  87208128.1800
  21020904.789    21020909.176                   110465721.9470   86077311.7330

  23008904.078    23008910.250    23008911.301   120912820.7720   94217989.4990
  90292270.0890
  20794614.258    20794619.117    20794622.695   109276698.1600   85150604.5090
  81602665.0280
  22956188.414    22956194.230                   120635667.4540   94001820.2250

  25341368.625    25341378.293    25341382.629   133169830.5000  103768706.8611
  99445031.3320
  20582551.336    20582555.430                   108162299.9390   84282229.3250

  25339430.297                                   133159552.7540

  20769294.211    20769301.016    20769300.934   109143521.3450   85046970.2790
  81503342.4550
 22  5  2  0 22  0.0000000  0 11G02G05G06G07G09G11G13G14G20G29G30
  21698995.445    21698997.781                   114029242.8250   88853867.3970

  22555078.461    22555084.160                   118527919.3660   92359356.2730

  22247296.055    22247304.527    22247305.270   116910400.0220   91099081.1510
  87303278.7260
  21030783.352    21030788.000                   110517636.0450   86117764.2810

  23029928.375    23029934.746    23029935.793   121023304.3970   94304080.6310
  90374774.0760
  20804707.344    20804712.516    20804715.781   109329738.6480   85191934.7510
  81642273.1740
  22946187.438    22946191.746                   120583104.7270   93960862.3370

  25330673.648    25330683.215    25330688.332   133113630.4610  103724914.6800
  99403063.8860
  20577373.039    20577377.203                   108135087.9480   84261025.1770

  25347184.852                                   133200304.4421

  20768372.711    20768379.594    20768379.641   109138679.4670   85043197.4060
  81499726.7890
 22  5  2  0 22 30.0000000  0 11G02G05G06G07G09G11G13G14G20G29G30
  21707611.930    21707614.297                   114074522.6250   88889150.3290

  22544056.031    22544062.180                   118469999.0320   92314223.6010

  22271595.258    22271603.715    22271604.652   117038092.3520   91198581.6040
  87398633.3370
  21040754.188    21040758.469                   110570030.3410   86158591.0040

  23050965.250    23050972.289    23050973.234   121133854.7130   94390223.7130
  90457327.8430
  20814912.609    20814918.531    20814921.680   109383370.8840   85233726.1020
  81682323.2120
  22936223.055    22936228.047                   120530746.2340   93920063.5780

  25319951.594    25319960.582    25319965.703   133057282.6970  103681007.4230
  99360986.1490
  20572257.070    20572261.523                   108108205.0040   84240077.4400

  25355033.938                                   133241556.7180

  20767550.102    20767556.949    20767556.988   109134356.5600   85039828.9200
  81496498.6430
 22  5  2  0 23  0.0000000  0 10G02G05G06G07G09G11G13G20G29G30
  21716325.906    21716329.230                   114120319.0130   88924835.8080

  22533059.445    22533064.953                   118412209.5620   92269192.8870

  22295945.148    22295953.688    22295954.734   117166053.0630   91298291.2000
  87494188.3540
  21050815.156    21050819.477                   110622901.4660   86199789.2800

  23072015.898    23072021.402    23072022.578   121244468.7640   94476416.4520
  90539929.2150
  20825231.406    20825236.188    20825239.383   109437592.0040   85275976.3110
  81722812.9910
  22926297.711    22926303.441                   120478590.1960   93879422.5600

  20567204.703    20567208.504                   108081650.7660   84219385.8330

  25362979.969                                   133283306.3480

  20766825.781    20766832.805    20766832.840   109130551.3250   85036863.8160
  81493657.0920
 22  5  2  0 23 30.0000000  0 11G02G05G06G07G09G11G13G14G20G29G30
  21725140.055    21725142.848                   114166635.1060   88960926.2550

  22522089.172    22522093.938                   118354555.7000   92224267.8270

  22320346.898    22320355.121    22320355.980   117294283.0630   91398210.6230
  87589944.4610
  21060966.961    21060971.816                   110676252.2290   86241361.2990

  23093075.375    23093083.668    23093084.543   121355149.5660   94562661.1900
  90622580.4230
  20835661.641    20835666.586    20835670.031   109492404.8940   85318687.6360
  81763744.6860
  22916412.656    22916417.746                   120426641.1150   93838942.8340

  25298422.234    25298432.797    25298436.109   132944151.3821  103592852.3931
  99276505.2381
  20562215.063    20562219.086                   108055431.4150   84198955.1830

  25371018.508                                   133325556.1751

  20766201.063    20766207.945    20766208.020   109127268.3110   85034305.6340
  81491205.5050
 22  5  2  0 24  0.0000000  0 11G02G05G06G07G09G11G13G14G20G29G30
  21734052.047    21734055.070                   114213469.7580   88997420.7750

  22511143.695    22511148.777                   118297038.5330   92179449.2740

  22344798.477    22344807.039    22344807.859   117422778.6120   91498336.9780
  87685898.8570
  21071210.492    21071214.855                   110730080.5210   86283305.4300

  23114151.555    23114157.727    23114158.531   121465895.3160   94648956.5620
  90705280.1450
  20846204.117    20846209.563    20846213.078   109547807.7280   85361858.6690
  81805116.9180
  22906566.156    22906571.570                   120374898.2360   93798623.7810

  25287619.023    25287628.266    25287632.020
  99234107.5200
  20557289.367    20557293.551                   108029547.9230   84178786.2260

  25379153.906                                   133368303.9881

  20765675.445    20765682.801    20765682.648   109124507.3570   85032154.2530
  81489143.7690
 22  5  2  0 24 30.0000000  0 11G02G05G06G07G09G11G13G14G20G29G30
  21743063.055    21743065.496                   114260819.6770   89034316.7930

  22500224.594    22500229.625                   118239657.5630   92134736.8670

  22369300.367    22369308.453    22369309.309   117551534.4390   91598666.1460
  87782047.6390
  21081543.828    21081548.293                   110784382.6320   86325618.7590

  23135236.422    23135243.465    23135244.836   121576702.8630   94735300.0860
  90788026.0390
  20856858.891    20856864.434    20856867.789   109603797.2780   85405486.8760
  81846927.2800
  22896758.336    22896763.980                   120323359.9460   93758464.1430

  25276788.680    25276797.840    25276801.301   132830459.2731  103504261.4701
  99191605.5980
  20552428.109    20552431.891                   108003999.8780   84158878.6730

  25387384.508                                   133411546.2380

  20765249.273    20765256.375    20765256.289   109122266.8880   85030408.4430
  81487470.7080
 22  5  2  0 25  0.0000000  0 11G02G05G06G07G09G11G13G14G20G29G30
  21752171.625    21752174.504                   114308687.3150   89071616.2370

  22489331.984    22489337.285                   118182417.8500   92090134.5120

  22393851.352    22393859.922    22393860.180   117680550.8260   91699198.3360
  87878390.9730
  21091967.758    21091972.223                   110839160.7160   86368302.9830

  23156335.383    23156341.988    23156342.848   121687574.4120   94821693.5020
  90870819.7070
  20867625.508    20867630.574    20867634.234   109660375.5730   85449573.8450
  81889177.2940
  22886989.797    22886995.852                   120272029.8860   93718466.7540

  25265933.211    25265941.047    25265945.246   132773409.4971  103459807.0901
  99149003.6280
  20547630.773    20547635.023                   107978792.5480   84139236.6000

  25395704.906                                   133455284.7250

  20764922.516    20764929.785    20764929.699   109120550.5880   85029071.0760
  81486189.0700
 22  5  2  0 25 30.0000000  0 11G02G05G06G07G09G11G13G14G20G29G30
  21761379.500    21761382.391                   114357075.0630   89109320.9700

  22478466.672    22478472.457                   118125324.1670   92045645.9610

  22418452.266    22418460.203    22418461.008   117809827.8840   91799933.6460
  87974928.9720
  21102482.938    21102487.125                   110894416.9250   86411359.7680

  23177447.094    23177452.238    23177453.422   121798512.2060   94908138.5010
  90953662.8340
  20878504.727    20878509.551    20878512.926   109717544.7510   85494121.2360
  81931868.5300
  22877262.711    22877268.438                   120220911.3390   93678634.1690

  25255052.984    25255059.984    25255064.125   132716231.1340  103415252.6070
  99106305.5690
  20542900.461    20542904.117                   107953931.4390   84119864.3190

  25404124.047                                   133499521.5721

  20764696.148    20764703.746    20764703.504   109119362.2220   85028145.0840
  81485301.6580
 22  5  2  0 26  0.0000000  0 11G02G05G06G07G09G11G13G14G20G29G30
  21770685.328    21770687.883                   114405975.8070   89147425.4270

  22467629.531    22467634.660                   118068372.0970   92001267.7360

  22443100.867    22443108.813    22443110.059   117939356.4090   91900864.9030
  88071654.7430
  21113087.297    21113091.535                   110950143.4680   86454783.0390

  23198567.578    23198574.516    23198575.574   121909509.0390   94994629.5290
  91036550.0620
  20889493.992    20889499.508    20889503.051   109775297.3920   85539123.2850
  81974995.4990
  22867573.906    22867580.176                   120169998.2930   93638961.7110

  25244145.836    25244154.203    25244158.305   132658920.2540  103370594.9511
  99063508.6730
  20538234.227    20538238.344                   107929411.3740   84100757.7870

  25412632.594

  20764569.438    20764577.000    20764576.797   109118696.0660   85027626.0210
  81484804.2240
 22  5  2  0 26 30.0000000  0 11G02G05G06G07G09G11G13G14G20G29G30
  21780089.070    21780091.254                   114455390.6220   89185930.4620

  22456819.719    22456824.598                   118011564.8570   91957002.3800

  22467796.617    22467804.852    22467805.980   118069135.3930   92001991.3260
  88168567.5580
  21123781.164    21123785.449                   111006340.8400   86498573.1970

  23219700.898    23219708.289    23219708.867   122020566.0260   95081167.4330
  91119482.2300
  20900595.680    20900600.605    20900604.246   109833634.4240   85584580.6960
  82018558.8480
  22857924.766    22857930.902                   120119293.2570   93599451.3560

  25233216.156    25233224.398    25233227.383   132601481.4371  103325837.5801
  99020616.2060
  20533633.758    20533637.910                   107905236.8230   84081920.4880

  25421240.383                                   133589467.5481

  20764543.117    20764549.984    20764549.820   109118554.6630   85027515.8460
  81484698.6460
 22  5  2  0 27  0.0000000  0 11G02G05G06G07G09G11G13G14G20G29G30
  21789589.883    21789592.664                   114505320.7520   89224837.0330

  22446038.250    22446043.086                   117954906.4890   91912853.0260

  22492539.141    22492548.719    22492549.996   118199163.9280   92103312.2010
  88265666.7160
  21134564.953    21134569.160                   111063009.9470   86542730.9450

  23240845.469    23240853.184    23240853.766   122131684.3060   95167753.0840
  91202460.1320
  20911808.352    20911813.402    20911816.941   109892556.7140   85630494.1580
  82062559.2540
  22848316.508    22848321.605                   120068798.4380   93560104.8100

  25222263.055    25222270.066    25222274.504   132543919.2950  103280984.0870
  98977631.5780
  20529099.563    20529104.230                   107881411.8750   84063355.5990

  25429939.453                                   133635177.9260

  20764616.375    20764623.316    20764623.309   109118940.6200   85027816.6070
  81484986.8680
 22  5  2  0 27 30.0000000  0 11G02G05G06G07G09G11G13G14G20G29G30
  21799188.805    21799191.883                   114555763.7990   89264143.3040

  22435283.469    22435289.785                   117898397.0150   91868819.6930

  22517331.250    22517338.793    22517340.484   118329437.4250   92204823.9620
  88362948.8120
  21145438.156    21145442.121                   111120147.5370   86587253.7330

  23262001.594    23262009.477    23262010.508   122242861.3270   95254384.5220
  91285481.9360
  20923131.789    20923137.012    20923140.270   109952061.4670   85676861.4860
  82106994.6090
  22838747.086    22838752.734                   120018512.5300   93520921.0340

  25211284.711    25211292.230    25211297.363   132486234.4811  103236034.9941
  98934555.4320
  20524633.172    20524636.949                   107857936.7020   84045063.2730

  25438730.172                                   133681377.4350

  20764789.711    20764797.078    20764796.941   109119852.8110   85028527.4040
  81485668.0490
 22  5  2  0 28  0.0000000  0 11G02G05G06G07G09G11G13G14G20G29G30
  21808885.820    21808888.324                   114606719.4160   89303848.9700

  22424559.508    22424565.008                   117842038.7920   91824904.2090

  22542167.211    22542175.535    22542176.750   118459953.5740   92306524.7970
  88460412.0900
  21156399.820    21156404.254                   111177753.3670   86632141.3770

  23283169.813    23283176.898    23283177.625   122354096.8880   95341061.5550
  91368547.4080
  20934565.734    20934570.590    20934574.195   110012148.1460   85723682.2640
  82151864.5130
  22829217.961    22829223.684                   119968436.8570   93481901.0960

  25200284.406    25200292.082    25200296.988
  98891389.9490
  20520232.719    20520237.055                   107834813.8590   84027045.4790

  25447616.320                                   133728064.7770

  20765064.078    20765070.793    20765070.914   109121292.3390   85029649.1220
  81486743.0370
 22  5  2  0 28 30.0000000  0 11G02G05G06G07G09G11G13G14G20G29G30
  21818679.258    21818681.832                   114658184.9510   89343951.9750

  22413864.391    22413869.348                   117785832.1540   91781106.8440

  22567049.250    22567057.281    22567058.680   118590707.7490   92408411.0840
  88558053.1210
  21167450.734    21167454.836                   111235824.2080   86677391.3780

  23304347.305    23304355.188    23304355.418   122465388.4790   95427782.2650
  91451654.7770
  20946110.109    20946114.855    20946118.613   110072813.8860   85770954.2550
  82197166.8310
  22819728.594    22819734.414                   119918570.2560   93443044.0360

  25189262.547    25189269.582    25189275.207   132370507.0131  103145857.9631
  98848135.8160
  20515899.672    20515903.801                   107812043.6240   84009302.4480

  25456590.328                                   133775237.1041

  20765438.039    20765444.965    20765445.020   109123258.0710   85031180.8760
  81488210.9700
 22  5  2  0 29  0.0000000  0 11G02G05G06G07G09G11G13G14G20G29G30
  21828569.789    21828572.918                   114710162.0430   89384453.6020

  22403198.117    22403203.148                   117729781.2820   91737430.8550

  22591975.758    22591984.473    22591985.629   118721699.3040   92510482.3720
  88655871.4130
  21178589.414    21178594.055                   111294361.2320   86723004.6470

  23325536.898    23325544.129    23325544.727   122576737.5740   95514547.7710
  91534805.0470
  20957764.977    20957769.852    20957773.496   110134059.8000   85818678.3250
  82242902.4010
  22810279.688    22810285.297                   119868914.9780   93404351.6610

  25178218.008    25178226.219    25178229.516   132312469.9340  103100634.4210
  98804796.5470
  20511634.516    20511638.715                   107789630.4790   83991837.6820

  25465660.203

  20765912.688    20765919.555    20765919.684   109125752.7950   85033124.8180
  81490073.9170
 22  5  2  0 29 30.0000000  0 11G02G05G06G07G09G11G13G14G20G29G30
  21838557.711    21838560.395                   114762647.5250   89425351.3610

  22392561.750    22392566.410                   117673885.6070   91693875.7870

  22616946.445    22616955.426    22616956.547   118852923.2110   92612734.6880
  88753863.2190
  21189817.203    21189821.355                   111353361.0870   86768978.5620

  23346735.516    23346743.152    23346743.961   122688141.3270   95601355.8920
  91617996.1570
  20969529.063    20969534.285    20969538.020   110195882.6490   85866851.9700
  82289068.7930
  22800870.984    22800875.719                   119819469.5110   93365822.7650

  25167153.398    25167160.203    25167164.918   132254319.4971  103055322.4641
  98761372.7040
  20507437.453    20507441.605                   107767574.4050   83974651.1350

  25474818.797                                   133871036.2610

  20766487.172    20766494.563    20766494.691   109128774.9380   85035479.7500
  81492330.7310
 22  5  2  0 30  0.0000000  0 11G02G05G06G07G09G11G13G14G20G29G30
  21848641.813    21848644.258                   114815638.8700   89466643.3210

  22381954.586    22381958.938                   117618145.1850   91650441.7040

  22641961.375    22641969.914    22641971.031   118984374.8770   92715164.4910
  88852025.0940
  21201131.359    21201136.078                   111412820.6720   86815310.7000

  23367945.250    23367952.102    23367953.539   122799597.2120   95688204.6190
  91701226.1650
  20981403.195    20981408.090    20981411.602   110258279.3950   85915472.7980
  82335663.7650
  22791501.508    22791506.109                   119770232.2110   93327456.0550

  25156064.648    25156073.367    25156077.938   132196056.2681  103009922.7081
  98717864.6140
  20503308.602    20503312.668                   107745875.6010   83957742.9860

  25484073.086                                   133919656.2801

  20767163.180    20767169.977    20767169.918   109132323.1880   85038244.6270
  81494980.4080
 22  5  2  0 30 30.0000000  0 11G02G05G06G07G09G11G13G14G20G29G30
  21858822.289    21858824.602                   114869136.9080   89508330.1030

  22371377.453    22371382.445                   117562564.1090   91607131.7970

  22667018.313    22667027.395    22667028.809   119116053.4280   92817771.1040
  88950356.4190
  21212533.891    21212538.313                   111472740.8060   86862001.7310

  23389164.273    23389172.430    23389173.500   122911106.5200   95775094.9750
  91784496.0800
  20993385.750    20993390.965    20993394.637   110321250.9730   85964541.5540
  82382687.9850
  22782172.000    22782177.008                   119721206.1770   93289254.0030

  25144957.930    25144964.617    25144969.977   132137685.1790  102964438.7590
  98674275.8860
  20499248.539    20499252.289                   107724538.3510   83941116.5670

  25493416.109                                   133968756.1040

  20767938.508    20767945.738    20767945.617   109136400.2000   85041421.5280
  81498024.9420
 22  5  2  0 31  0.0000000  0 11G02G05G06G07G09G11G13G14G20G29G30
  21869098.680    21869101.555                   114923141.8530   89550411.8770

  22360831.242    22360836.473                   117507145.2290   91563948.2760

  22692118.984    22692128.094    22692128.977   119247956.7540   92920552.8520
  89048855.5540
  21224024.102    21224028.398                   111533120.8110   86909051.0550

  23410396.352    23410402.172    23410403.125   123022669.2490   95862026.9640
  91867805.8920
  21005478.719    21005483.637    21005487.078   110384796.7900   86014057.7620
  82430141.0090
  22772881.891    22772887.996                   119672391.5840   93251216.7040

  25133828.297    25133837.875    25133841.730   132079209.3881  102918873.2451
  98630608.9800
  20495256.781    20495260.895                   107703565.3670   83924773.9930

  25502852.281                                   134018335.1590

  20768815.383    20768822.535    20768822.297   109141007.1040   85045011.3330
  81501465.1550
 22  5  2  0 31 30.0000000  0 11G02G05G06G07G09G11G13G14G20G29G30
  21879471.219    21879473.910                   114977649.5390   89592885.3950

  22350316.336    22350321.355                   117451887.2450   91520890.1160

  22717262.094    22717270.137    22717271.145   119380078.9010   93023505.1050
  89147518.1260
  21235600.406    21235604.996                   111593956.3000   86956455.3370

  23431634.781    23431641.297    23431642.230   123134281.6660   95948997.6600
  91951152.8080
  21017679.539    21017684.559    21017688.086   110448912.6490   86064018.1570
  82478019.7130
  22763633.625    22763638.418                   119623786.6520   93213342.7710

  25122681.188    25122689.961    25122693.801   132020628.5251  102873226.0701
  98586863.7010
  20491335.375    20491339.184                   107682955.4660   83908714.3400

  25512377.453                                   134068388.9640

  20769792.172    20769799.547    20769799.297   109146141.3450   85049012.0450
  81505299.1900
 22  5  2  0 32  0.0000000  0 11G02G05G06G07G09G11G13G14G20G29G30
  21889940.539    21889942.984                   115032665.1690   89635754.7020

  22339832.398    22339838.566                   117396798.0110   91477963.4680

  22742445.273    22742454.117    22742455.195   119512423.0930   93126630.3920
  89246346.5130
  21247264.805    21247269.594                   111655252.1000   87004218.2970

  23452883.320    23452890.820    23452891.469   123245949.1690   96036011.2820
  92034540.8680
  21029989.547    21029994.691    21029998.309   110513603.2690   86114426.4150
  82526327.6370
  22754424.727    22754430.367                   119575397.8250   93175637.2220

  25111515.984    25111523.824    25111528.703   131961951.5021  102827503.7141
  98543046.4970
  20487483.867    20487487.809                   107662717.0140   83892944.1190

  25521992.484                                   134118921.8991

  20770871.289    20770878.023    20770877.906   109151809.4120   85053428.7300
  81509531.8470
 22  5  2  0 32 30.0000000  0 11G02G05G06G07G09G11G13G14G20G29G30
  21900505.227    21900507.367                   115088181.7690   89679014.3740

  22329381.516    22329387.141                   117341873.7680   91435165.3800

  22767670.211    22767678.973    22767679.707   119644980.2730   93229921.6280
  89345333.9460
  21259014.852    21259019.805                   111717000.6570   87052334.0510

  23474142.375    23474149.746    23474150.715   123357664.8950   96123062.4660
  92117964.9230
  21042407.875    21042412.766    21042416.344   110578861.2790   86165276.8040
  82575059.2610
  22745256.609    22745262.258                   119527219.2090   93138095.4950

  25100331.250    25100339.199    25100343.672   131903174.5190  102781703.4790
  98499154.7070
  20483702.328    20483706.609                   107642845.8590   83877460.1130

  25531699.406                                   134169926.6811

  20772050.305    20772057.070    20772057.020   109158005.6290   85058256.9640
  81514158.8990
 22  5  2  0 33  0.0000000  0 11G02G05G06G07G09G11G13G14G20G29G30
  21911164.414    21911167.320                   115144199.8710   89722664.8430

  22318961.555    22318967.094                   117287117.3350   91392498.0650

  22792935.594    22792943.848    22792944.977   119777749.1790   93333377.8550
  89444479.4790
  21270851.719    21270856.145                   111779202.1780   87100802.7880

  23495411.008    23495418.508    23495418.809   123469429.6680   96210151.8710
  92201425.5980
  21054934.141    21054938.766    21054942.492   110644686.9840   86216569.5550
  82624214.7990
  22736129.133    22736134.848                   119479252.7960   93100719.0930

  25089128.805    25089135.660    25089139.785   131844301.9380  102735828.9000
  98455191.4880
  20479991.664    20479995.797                   107623345.7000   83862265.1890

  25541493.391

  20773330.141    20773337.098    20773337.137   109164731.9540   85063498.2650
  81519181.8090
 22  5  2  0 33 30.0000000  0 10G02G05G06G07G09G11G13G14G20G30
  21921919.828    21921922.855                   115200720.7020   89766707.0410

  22308574.602    22308579.895                   117232533.1860   91349964.9790

  22818239.891    22818249.316    22818250.359   119910729.2900   93436998.6530
  89543782.7370
  21282774.383    21282779.293                   111841857.7290   87149625.2950

  23516688.563    23516696.242    23516696.742   123581245.2720   96297280.8920
  92284924.2400
  21067568.086    21067573.203    21067577.008   110711081.3480   86268305.4070
  82673794.9910
  22727041.945    22727047.730                   119431501.2150   93063510.1150

  25077907.188    25077915.035    25077919.648   131785338.8210  102689883.7270
  98411160.6740
  20476352.344    20476356.273                   107604220.7300   83847362.6270

  20774711.305    20774718.492    20774718.480   109171991.1750   85069154.8010
  81524602.6610
 22  5  2  0 34  0.0000000  0 10G02G05G06G07G09G11G13G14G20G30
  21932771.461    21932774.402                   115257744.3810   89811141.0580

  22298220.445    22298226.125                   117178124.8480   91307568.8970

  22843586.430    22843594.383    22843595.563   120043918.9920   93540782.7550
  89643242.4970
  21294784.547    21294788.605                   111904967.2740   87198801.5620

  23537975.883    23537983.203    23537984.047   123693112.2380   96384449.9130
  92368461.2090
  21080311.336    21080316.160    21080319.766   110778044.2860   86320484.3010
  82723799.7600
  22717996.195    22718001.879                   119383966.3210   93026469.9710

  25066671.805    25066677.766    25066683.445   131726289.1210  102643870.9030
  98367065.1850
  20472785.211    20472789.012                   107585474.6150   83832755.2640

  20776194.523    20776201.449    20776201.473   109179784.8920   85075227.8390
  81530422.6550
 22  5  2  0 34 30.0000000  0 10G02G05G06G07G09G11G13G14G20G30
  21943717.070    21943720.672                   115315267.6700   89855964.3880

  22287900.570    22287905.879                   117123892.2090   91265309.7170

  22868970.227    22868978.461    22868979.781   120177313.1390   93644726.1840
  89742854.9510
  21306878.930    21306883.461                   111968527.3320   87248328.8770

  23559272.734    23559279.875    23559280.457   123805027.7440   96471656.7760
  92452034.4390
  21093161.172    21093166.680    21093169.902   110845572.2540   86373103.4920
  82774226.4850
  22708991.750    22708997.586                   119336646.2590   92989597.2150

  25055417.508    25055424.906    25055429.309   131667153.2400  102597791.1530
  98322905.3960
  20469289.352    20469293.762                   107567107.0700   83818442.9070

  20777779.125    20777785.914    20777785.871   109188111.2440   85081715.9200
  81536640.4140
 22  5  2  0 35  0.0000000  0 10G02G05G06G07G09G11G13G14G20G30
  21954758.906    21954761.934                   115373290.8450   89901177.2380

  22277614.875    22277619.574                   117069837.8840   91223189.4870

  22894393.156    22894401.434    22894402.926   120310909.9760   93748827.5460
  89842618.7240
  21319059.828    21319064.160                   112032537.3470   87298206.7940

  23580578.938    23580586.344    23580586.652   123916992.0690   96558901.6870
  92535644.1330
  21106118.914    21106124.023    21106127.527   110913664.8500   86426162.6470
  82825074.8300
  22700029.227    22700034.234                   119289542.3010   92952892.8840

  25044148.898    25044156.535    25044160.996   131607935.0630  102551647.2400
  98278684.0920
  20465867.102    20465871.102                   107549121.0420   83804427.8360

  20779465.016    20779472.000    20779471.965   109196971.6240   85088620.1150
  81543256.9280
 22  5  2  0 35 30.0000000  0 10G02G05G06G07G09G11G13G14G20G30
  21965895.383    21965897.988                   115431811.2990   89946777.5820

  22267362.141    22267367.219                   117015962.5850   91181208.7500

  22919853.172    22919861.734    22919863.582   120444705.3010   93853083.5860
  89942530.7500
  21331325.727    21331330.008                   112096994.5220   87348433.1830

  23601893.180    23601901.879    23601901.641   124029003.4410   96646183.2230
  92619288.9370
  21119183.258    21119188.438    21119191.867   110982319.3880   86479659.6660
  82876342.8080
  22691105.750    22691111.418                   119242654.1440   92916356.6640

  25032864.867    25032871.695    25032876.703   131548635.9220  102505440.1050
  98234402.3640
  20462517.375    20462521.395                   107531517.5190   83790710.8100

  20781252.734    20781259.422    20781259.461   109206365.0630   85095939.6880
  81550271.5190
 22  5  2  0 36  0.0000000  0 10G02G05G06G07G09G11G13G14G20G30
  21977126.125    21977128.742                   115490828.3020   89992764.8490

  22257144.734    22257149.336                   116962268.4030   91139369.1490

  22945350.703    22945359.547    22945361.262   120578696.5230   93957492.2680
  90042589.0610
  21343676.695    21343680.832                   112161897.8810   87399007.2070

  23623218.148    23623225.715    23623226.145   124141061.3540   96733501.0110
  92702968.4890
  21132354.539    21132359.516    21132363.176   111051534.6650   86533593.6230
  82928029.5210
  22682224.461    22682230.246                   119195981.9720   92879988.7780

  25021565.539    25021572.332    25021577.426   131489258.7320  102459172.3150
  98190062.3400
  20459241.031    20459244.727                   107514299.0330   83777293.8190

  20783141.273    20783148.480    20783148.516   109216292.1050   85103675.0630
  81557684.5890
 22  5  2  0 36 30.0000000  0 10G02G05G06G07G09G11G13G14G20G30
  21988451.422    21988453.887                   115550342.5430   90039139.5690

  22246962.531    22246967.234                   116908759.4380   91097673.8870

  22970886.273    22970894.602    22970896.555   120712882.5160   94062052.7180
  90142792.8290
  21356111.758    21356116.453                   112227247.8270   87449929.2460

  23644550.555    23644558.570    23644558.840   124253167.0050   96820856.0400
  92786683.6900
  21145632.641    21145637.738    21145641.242   111121311.0350   86587964.8010
  82980135.2250
  22673384.750    22673389.848                   119149527.8760   92843790.8150

  25010252.813    25010259.023    25010264.629   131429808.1670  102412847.2320
  98145667.5010
  20456037.930    20456042.070                   107497468.8730   83764179.4120

  20785132.945    20785139.637    20785139.488   109226754.8070   85111827.8260
  81565497.6580
 22  5  2  0 37  0.0000000  0 10G02G05G06G07G09G11G13G14G20G30
  21999869.648    21999872.449                   115610347.8140   90085896.9200

  22236814.484    22236819.563                   116855432.7160   91056120.6230

  22996456.680    22996464.781    22996466.621   120847255.4380   94166758.8340
  90243136.1480
  21368631.203    21368635.781                   112293037.6790   87501194.0810

  23665892.266    23665899.105    23665900.121   124365314.7850   96908243.8730
  92870430.3480
  21159015.813    21159021.402    21159024.820   111191642.0050   86642768.1280
  83032655.0830
  22664585.422    22664590.332                   119103287.3940   92807759.3010

  24998922.914    24998932.480    24998936.680   131370281.7870  102366463.0950
  98101216.0650
  20452908.984    20452912.633                   107481024.1460   83751365.3450

  20787224.977    20787231.574    20787231.488   109237748.4220   85120394.2830
  81573707.1810
 22  5  2  0 37 30.0000000  0 10G02G05G06G07G09G11G13G14G20G30
  22011382.203    22011384.824                   115670846.5740   90133038.7960

  22226702.789    22226707.563                   116802293.6340   91014713.5640

  23022061.445    23022071.328    23022072.035   120981815.9830   94271611.1320
  90343619.5960
  21381235.164    21381239.199                   112359270.0120   87552803.6890

  23687241.398    23687249.094    23687249.922   124477507.6640   96995666.8440
  92954210.7070
  21172504.953    21172510.730    21172514.254   111262529.6950   86698005.2780
  83085590.6690
  22655826.844    22655833.137                   119057264.4800   92771897.3250

  24987584.516    24987591.324    24987595.582   131310686.0621  102320024.9621
  98056712.8510
  20449853.641    20449857.859                   107464970.6650   83738856.1480

  20789418.383    20789425.164    20789425.266   109249276.7790   85129377.4280
  81582316.0310
 22  5  2  0 38  0.0000000  0 10G02G05G06G07G09G11G13G14G20G30
  22022988.555    22022990.926                   115731836.5800   90180563.4680

  22216626.586    22216631.426                   116749343.1400   90973453.4630

  23047702.844    23047712.422    23047713.035   121116560.1680   94376606.5400
  90444240.1840
  21393922.266    21393926.695                   112425942.1070   87604755.9740

  23708601.172    23708607.000    23708607.777   124589743.9050   97083123.6140
  93038023.4380
  21186100.297    21186105.652    21186108.988   111333971.4330   86753674.1520
  83138939.9990
  22647110.742    22647115.926                   119011458.4840   92736204.3860

  24976229.047    24976237.609    24976242.578   131251022.5750  102273534.0030
  98012159.0360
  20446873.391    20446877.801                   107449309.5460   83726652.6940

  20791713.617    20791720.574    20791720.621   109261338.9860   85138776.5620
  81591323.5400
 22  5  2  0 38 30.0000000  0 10G02G05G06G07G09G11G13G14G20G30
  22034686.742    22034689.582                   115793312.8950   90228467.0770

  22206585.750    22206590.984                   116696579.9520   90932339.3220

  23073378.375    23073387.285    23073387.695   121251481.4480   94481739.9420
  90544992.9980
  21406692.047    21406696.820                   112493048.7570   87657046.8620

  23729964.172    23729972.617    23729973.391   124702019.2620   97170610.8500
  93121865.3660
  21199799.969    21199805.172    21199808.453   111405962.0030   86809770.6750
  83192699.1710
  22638434.938    22638439.961                   118965866.0390   92700677.8530

  24964861.156    24964870.961    24964875.344   131191290.4700  102226989.5720
  97967553.9460
  20443967.906    20443971.941                   107434038.8150   83714753.4320

  20794110.086    20794116.863    20794116.902   109273931.5840   85148588.9790
  81600727.1060
 22  5  2  0 39  0.0000000  0 10G02G05G06G07G09G11G13G14G20G30
  22046478.211    22046481.160                   115855278.6420   90276752.0630

  22196582.711    22196587.293                   116644009.8070   90891375.6040

  23099086.578    23099096.152    23099096.363   121386581.0860   94587012.3090
  90645879.0270
  21419545.336    21419549.805                   112560592.4750   87709678.3400

  23751337.297    23751345.465    23751346.184   124814337.2990   97258131.3530
  93205739.1590
  21213604.492    21213609.477    21213612.820   111478503.9670   86866296.8720
  83246870.0990
  22629800.039    22629805.277                   118920491.7050   92665321.2740

  24953484.148    24953492.969    24953497.480   131131496.5850  102180396.9600
  97922902.7440
  20441137.555    20441141.137                   107419164.5820   83703163.1160

  20796608.148    20796614.879    20796615.027   109287058.8440   85158818.0250
  81610529.9280
 22  5  2  0 39 30.0000000  0 10G02G05G06G07G09G11G13G14G20G30
  22058363.313    22058365.824                   115917732.7830   90325417.6180

  22186616.047    22186620.730                   116591635.1050   90850564.1670

  23124829.086    23124838.113    23124838.668   121521856.7080   94692421.8230
  90746896.4740
  21432481.813    21432485.961                   112628572.4050   87762649.7130

  23772719.961    23772727.273    23772727.848   124926697.8940   97345684.9940
  93289644.7180
  21227513.320    21227518.402    21227521.973   111551596.2290   86923251.8700
  83301451.9840
  22621207.406    22621212.359                   118875336.1830   92630135.1910

  24942094.688    24942104.059    24942107.605   131071644.1940  102133758.8150
  97878207.8750
  20438382.617    20438386.891                   107404689.6190   83691883.9300

  20799207.516    20799214.742    20799214.734   109300721.4410   85169464.2060
  81620732.5310
 22  5  2  0 40  0.0000000  0 10G02G05G06G07G09G11G13G14G20G30
  22070340.086    22070343.008                   115980671.5550   90374460.7980

  22176686.484    22176691.289                   116539455.8850   90809905.0560

  23150603.461    23150612.242    23150613.816   121657302.7960   94797964.1630
  90848041.2160
  21445500.094    21445504.453                   112696984.3670   87815957.7380

  23794110.313    23794116.641    23794116.688   125039097.8390   97433269.3180
  93373579.6580
  21241525.961    21241531.086    21241534.805   111625234.5880   86980632.3950
  83356441.6470
  22612655.703    22612661.352                   118830397.6950   92595118.2330

  24930693.922    24930702.621    24930707.234   131011733.5860  102087075.3240
  97833469.5140
  20435704.180    20435708.090                   107390613.3200   83680915.3950

  20801909.086    20801915.988    20801915.988   109314916.8830   85180525.6020
  81631333.0330
 22  5  2  0 40 30.0000000  0 10G02G05G06G07G09G11G13G14G20G30
  22082409.023    22082412.023                   116044094.4850   90423881.2470

  22166794.813    22166799.445                   116487474.3490   90769399.9860

  23176409.375    23176418.910    23176420.285   121792917.2070   94903637.6860
  90949311.6390
  21458600.063    21458604.746                   112765827.7820   87869601.9570

  23815505.023    23815512.883    23815513.680   125151537.3280   97520884.4500
  93457544.1660
  21255642.758    21255647.828    21255651.391   111699418.0920   87038437.7040
  83411838.4020
  22604145.211    22604151.387                   118785676.8380   92560270.8210

  24919283.000    24919291.246    24919296.121   130951768.0670  102040349.0590
  97788690.2170
  20433101.914    20433105.961                   107376938.3260   83670259.5610

  20804712.219    20804718.867    20804718.918   109329646.0240   85192002.8570
  81642332.0750
 22  5  2  0 41  0.0000000  0 10G02G05G06G07G09G11G13G14G20G30
  22094569.422    22094572.211                   116107998.8120   90473676.8000

  22156939.930    22156945.445                   116435691.4370   90729049.7000

  23202247.461    23202256.750    23202258.012   121928695.6540   95009439.0040
  91050704.5760
  21471782.219    21471786.891                   112835099.5760   87923579.9780

  23836909.617    23836917.266    23836917.832   125264014.3010   97608528.8110
  93541536.6840
  21269862.680    21269867.426    21269871.223   111774143.6840   87096665.4330
  83467639.9630
  22595677.570    22595682.004                   118741172.6820   92525592.3050

  24907864.086    24907869.863    24907873.867   130891749.1930  101993581.1500
  97743871.0070
  20430576.180    20430580.066                   107363665.2910   83659916.9410

  20807616.109    20807623.047    20807623.176   109344907.5390   85203894.9620
  81653728.6710
 22  5  2  0 41 30.0000000  0 10G02G05G06G07G09G11G13G14G20G30
  22106822.539    22106824.887                   116172386.6310   90523849.1160

  22147124.984    22147130.344                   116384112.4570   90688858.3100

  23228117.477    23228125.648    23228127.090   122064638.7810   95115368.6480
  91152220.4760
  21485046.422    21485050.602                   112904801.4180   87977893.1010

  23858321.203    23858328.215    23858328.793   125376531.8050   97696204.7320
  93625559.4100
  21284185.883    21284191.031    21284194.500   111849413.2260   87155317.0090
  83523847.7190
  22587250.250    22587255.477                   118696889.3600   92491085.8560

  24896431.992    24896439.770    24896444.063   130831683.2620  101946776.5860
  97699016.6520
  20428127.844    20428131.711                   107350799.6530   83649891.7770

  20810622.352    20810629.203    20810629.262   109360705.0040   85216204.6870
  81665525.4900
 22  5  2  0 42  0.0000000  0 10G02G05G06G07G09G11G13G14G20G30
  22119166.602    22119169.270                   116237256.3300   90574396.9220

  22137349.297    22137354.234                   116332739.2950   90648827.2960

  23254016.164    23254025.848    23254027.043   122200743.1180   95221423.9150
  91253856.7540
  21498391.438    21498396.066                   112974931.7490   88032540.1060

  23879739.430    23879746.285    23879747.785   125489088.6770   97783911.3230
  93709611.5660
  21298612.367    21298617.551    21298621.008   111925224.3950   87214390.6370
  83580459.9520
  22578865.391    22578870.355                   118652826.3340   92456751.0660

  24884993.672    24885000.957    24885004.691   130771572.5620  101899937.1680
  97654128.8240
  20425757.219    20425761.230                   107338342.8810   83640185.2070

  20813730.563    20813737.313    20813737.164   109377037.8960   85228931.6210
  81677722.1380
 22  5  2  0 42 30.0000000  0 10G02G05G06G07G09G11G13G14G20G30
  22131601.859    22131604.930                   116302604.6830   90625317.6990

  22127612.313    22127617.598                   116281572.3540   90608956.9860

  23279947.336    23279955.652    23279956.402   122337004.2400   95327601.3470
  91355610.1160
  21511817.641    21511822.246                   113045487.1880   88087518.3720

  23901166.250    23901172.336    23901172.953   125601682.8280   97871646.9820
  93793691.5170
  21313141.281    21313146.219    21313149.961   112001573.9360   87273883.7710
  83637474.2030
  22570521.664    22570527.344                   118608982.4100   92422587.0250

  24873545.570    24873553.516    24873557.875   130711418.1860  101853063.6560
  97609208.4760
  20423464.641    20423468.914                   107326295.5780   83630797.7080

  20816939.914    20816947.031    20816946.879   109393904.6910   85242074.5880
  81690317.4870
 22  5  2  0 43  0.0000000  0 10G02G05G06G07G09G11G13G14G20G30
  22144129.047    22144131.430                   116368432.2120   90676611.8540

  22117915.945    22117920.715                   116230615.0510   90569250.0360

  23305905.125    23305914.602    23305915.848   122473420.8180   95433899.9250
  91457479.5670
  21525325.352    21525329.359                   113116467.6730   88142827.8390

  23922599.555    23922606.086    23922606.035   125714315.1560   97959412.4000
  93877800.0700
  21327772.453    21327777.500    21327781.230   112078461.6380   87333796.2510
  83694890.3170
  22562220.727    22562225.805                   118565359.4270   92388595.1120

  24862089.688    24862099.066    24862103.930   130651224.6550  101806159.7090
  97564258.8650
  20421250.750    20421255.066                   107314661.2390   83621732.0000

  20820251.523    20820258.453    20820258.383   109411306.9430   85255634.7880
  81703312.6720
 22  5  2  0 43 30.0000000  0 10G02G05G06G07G09G11G13G14G20G30
  22156746.148    22156748.734                   116434736.9970   90728277.9050

  22108258.836    22108263.813                   116179869.2220   90529707.8430

  23331893.961    23331903.016    23331903.809   122609989.7650   95540317.2310
  91559462.8030
  21538912.328    21538916.914                   113187871.7010   88198467.3370

  23944038.133    23944046.934    23944047.223   125826985.0020   98047207.0170
  93961936.5810
  21342505.891    21342510.906    21342514.262   112155885.5660   87394126.5670
  83752706.8750
  22553961.023    22553966.887                   118521957.6950   92354775.6200

  24850630.266    24850638.332    24850642.020   130590994.5010  101759227.2630
  97519281.9310
  20419116.063    20419120.070                   107303441.5400   83612989.3720

  20823665.039    20823671.926    20823671.656   109429244.4440   85269612.0700
  81716707.5800
 22  5  2  0 44  0.0000000  0 10G02G05G06G07G09G11G13G14G20G30
  22169454.195    22169456.918                   116501518.8320   90780315.6800

  22098642.414    22098648.004                   116129338.4330   90490333.2400

  23357911.609    23357919.594    23357920.859   122746709.2480   95646851.8290
  91661558.4550
  21552580.883    21552585.133                   113259698.2430   88254436.0730

  23965487.648    23965494.789    23965495.285   125939692.9750   98135031.3300
  94046101.5170
  21357341.352    21357346.176    21357349.574   112233845.0170   87454874.1750
  83810923.3280
  22545744.867    22545750.266                   118478778.6620   92321129.6550

  24839162.242    24839170.051    24839175.215   130530731.6720  101712269.3360
  97474280.6050
  20417060.586    20417064.211                   107292639.4240   83604572.1470

  20827180.102    20827187.230    20827187.145   109447718.2380   85284007.2410
  81730502.9420
 22  5  2  0 44 30.0000000  0 10G02G05G06G07G09G11G13G14G20G30
  22182252.695    22182255.203                   116568775.0530   90832723.0980

  22089067.883    22089073.422                   116079023.3530   90451126.7170

  23383956.664    23383964.719    23383964.844   122883575.2780   95753500.6290
  91763763.5710
  21566329.219    21566333.504                   113331945.0350   88310732.2640

  23986940.633    23986949.184    23986950.051   126052437.3560   98222884.0460
  94130293.6880
  21372277.781    21372282.570    21372286.391   112312336.9620   87516036.7270
  83869537.4390
  22537570.563    22537575.570                   118435821.5620   92287656.6480

  24827688.594    24827696.684    24827700.574   130470437.9680  101665287.2560
  97429256.1770
  20415084.344    20415088.418                   107282255.6720   83596480.9160

  20830797.797    20830804.648    20830804.484   109466727.1190   85298819.3690
  81744697.9010
 22  5  2  0 45  0.0000000  0 10G02G05G06G07G09G11G13G14G20G30
  22195141.406    22195143.742                   116636504.4210   90885499.2090

  22079535.641    22079540.145                   116028926.2980   90412090.0790

  23410028.227    23410036.566    23410038.273   123020585.1300   95860261.4810
  91866076.0470
  21580156.836    21580161.379                   113404610.1910   88367354.4600

  24008402.781    24008409.934    24008411.055   126165217.6890   98310764.8100
  94214512.7510
  21387314.945    21387320.285    21387323.973   112391359.7730   87577612.9350
  83928547.9590
  22529436.930    22529443.316                   118393086.5090   92254356.6160

  24816209.875    24816217.738    24816221.695   130410116.2960  101618283.4860
  97384210.8280
  20413188.352    20413192.359                   107272292.5590   83588717.4590

  20834516.727    20834523.672    20834523.539   109486271.1580   85314048.4900
  81759292.4790
 22  5  2  0 45 30.0000000  0 10G02G05G06G07G09G11G13G14G20G30
  22208118.617    22208122.148                   116704705.2050   90938642.6550

  22070044.008    22070049.012                   115979048.9630   90373224.6440

  23436128.258    23436135.590    23436137.020   123157735.6500   95967131.9480
  91968493.5710
  21594064.164    21594068.203                   113477692.0230   88424301.3400

  24029871.883    24029878.203    24029878.566   126278033.2530   98398673.0160
  94298758.0860
  21402452.719    21402458.402    21402461.895   112470911.2940   87639601.1140
  83987953.3140
  22521347.922    22521353.145                   118350573.7590   92221229.8380

  24804726.461    24804734.000    24804737.707   130349769.1940  101571259.8620
  97339146.5670
  20411373.055    20411376.707                   107262751.7060   83581283.0330

  20838337.703    20838344.527    20838344.402   109506350.0080   85329694.3530
  81774286.4320
 22  5  2  0 46  0.0000000  0 10G02G05G06G07G09G11G13G14G20G30
  22221186.898    22221190.059                   116773377.0520   90992153.1710

  22060595.008    22060599.957                   115929395.0410   90334533.2990

  23462251.625    23462261.211    23462262.270   123295024.8590   96074110.4900
  92071014.6690
  21608049.742    21608054.129                   113551189.9080   88481572.4150

  24051345.969    24051353.238    24051353.797   126390884.4870   98486609.0040
  94383030.0670
  21417691.336    21417697.000    21417700.539   112550990.6040   87702000.5650
  84047752.7760
  22513300.922    22513305.754                   118308284.6040   92188277.2940

  24793237.047    24793245.219    24793250.199   130289400.5410  101524219.4200
  97294066.1800
  20409637.781    20409641.914                   107253635.9390   83574179.8390

  20842260.305    20842267.164    20842267.258   109526964.4280   85345757.5440
  81789680.3300
 22  5  2  0 46 30.0000000  0 10G02G05G06G07G09G11G13G14G20G30
  22234344.422    22234347.289                   116842519.1610   91046030.1210

  22051189.844    22051194.188                   115879966.5690   90296017.6420

  23488402.898    23488412.449    23488413.523   123432450.8060   96181195.5760
  92173637.8360
  21622115.227    21622119.523                   113625103.0810   88539167.0970

  24072828.297    24072834.957    24072835.234   126503771.7310   98574573.0220
  94467328.9440
  21433030.500    21433035.801    21433039.430   112631596.7350   87764810.5280
  84107945.6560
  22505296.320    22505301.246                   118266219.9400   92155499.6880

  24781747.508    24781754.094    24781758.863   130229014.0150  101477165.0530
  97248972.4590
  20407985.227    20407989.020                   107244948.2760   83567410.2360

  20846285.391    20846292.133    20846292.070   109548115.2220   85362238.6900
  81805474.7560
 22  5  2  0 47  0.0000000  0 10G02G05G06G07G09G11G13G14G20G30
  22247590.188    22247592.828                   116912125.9600   91100269.1760

  22041825.805    22041830.910                   115830761.8790   90257676.3500

  23514579.977    23514588.199    23514589.738   123570006.7160   96288381.9440
  92276358.0950
  21636258.547    21636262.945                   113699426.1900   88597081.2020

  24094316.961    24094322.867    24094324.012   126616690.5970   98662561.7250
  94551651.4260
  21448468.414    21448473.711    21448477.398   112712723.8120   87828026.4190
  84168527.5540
  22497333.016    22497338.895                   118224376.5510   92122894.4970

  24770253.414    24770259.668    24770264.406   130168608.6740  101430096.0270
  97203864.6750
  20406412.797    20406416.848                   107236686.1970   83560972.2520

  20850411.523    20850418.402    20850418.172   109569798.3220   85379134.6170
  81821666.6870
 22  5  2  0 47 30.0000000  0 10G02G05G06G07G09G11G13G14G20G30
  22260924.336    22260926.844                   116982196.9850   91154869.9610

  22032505.242    22032510.516                   115781784.2230   90219511.9600

  23540780.195    23540789.051    23540790.137   123707690.4580   96395667.9110
  92379173.8170
  21650479.578    21650483.895                   113774158.1660   88655313.9000

  24115809.289    24115816.684    24115817.516   126729641.4710   98750575.3480
  94635997.7960
  21464005.414    21464010.973    21464014.234   112794370.7600   87891647.4070
  84229497.6560
  22489413.047    22489418.020                   118182755.6610   92090462.6500

  24758754.719    24758762.223    24758766.344   130108188.2120  101383015.2670
  97158745.6180
  20404922.406    20404926.039                   107228853.1240   83554868.5610

  20854638.844    20854645.988    20854645.742   109592014.3550   85396445.8180
  81838256.5960
 22  5  2  0 48  0.0000000  0 10G02G05G06G07G09G11G13G14G20G30
  21974554.266    21974556.961                   115477312.0530   89982232.3370

  21723436.031    21723441.121                   114157612.9400   88953923.9750

  23267211.797    23267220.941    23267222.457   122270082.9810   95275454.2330
  91305635.6720
  21364985.352    21364990.023                   112273878.6650   87486264.9380

  23837516.875    23837525.031    23837525.723   125267206.5750   97611015.6870
  93543919.7720
  21179848.328    21179854.336    21179857.660   111301117.4740   86728073.4100
  83114405.9050
  22181743.211    22181747.340                   116565934.7130   90830602.2130

  24447462.688    24447468.852    24447473.059   128472332.5620  100108322.6850
  95937165.2170
  20103720.953    20103724.609                   105646029.5150   82321499.5120

  20559175.891    20559182.352    20559182.172   108039343.0000   84186572.0470
  80678794.2250
 22  5  2  0 48 30.0000000  0 10G02G05G06G07G09G11G13G14G20G30
  21988063.586    21988066.344                   115548304.7910   90037551.3400

  21714203.875    21714208.164                   114109093.9850   88916117.0170

  23293459.109    23293468.680    23293469.918   122408012.2460   95382931.5050
  91408634.7070
  21379361.086    21379365.363                   112349421.4620   87545129.4460

  23859023.492    23859029.836    23859030.672   125380218.2550   97699076.6910
  93628311.5340
  21195582.086    21195587.434    21195591.047   111383796.5960   86792498.6850
  83176146.7890
  22173906.164    22173911.598                   116524757.2160   90798515.8870

  24435958.453    24435967.219    24435971.273   128411888.7760  100061223.7290
  95892028.6950
  20102394.367    20102398.082                   105639057.7430   82316066.9650

  20563605.555    20563612.281    20563612.148   108062622.6280   84204712.0190
  80696178.3640
 22  5  2  0 49  0.0000000  0 10G02G05G06G07G09G11G13G14G20G30
  22001660.438    22001663.027                   115619754.7830   90093226.6400

  21705014.477    21705019.656                   114060806.2290   88878490.2230

  23319728.883    23319737.832    23319738.773   122546058.6340   95490500.0630
  91511721.2280
  21393812.703    21393816.945                   112425365.7710   87604306.8280

  23880534.047    23880541.227    23880541.781   125493258.1710   97787159.7330
  93712724.5030
  21211413.336    21211417.953    21211421.559   111466987.4900   86857322.7360
  83238269.8420
  22166112.836    22166117.996                   116483800.6090   90766601.6790

  24424455.047    24424463.059    24424467.563   128351436.3730  100014118.0400
  95846885.8020
  20101149.398    20101153.633                   105632518.1110   82310971.1470

  20568136.297    20568143.180    20568143.016   108086432.3800   84223265.0800
  80713958.3830
 22  5  2  0 49 30.0000000  0 10G02G05G06G07G09G11G13G14G20G30
  22015343.742    22015346.641                   115691661.8510   90149258.1060

  21695869.711    21695875.207                   114012753.2890   88841046.3960

  23346019.289    23346029.723    23346030.520   122684220.8110   95598158.8290
  91614894.1740
  21408340.773    21408345.145                   112501711.6810   87663797.1420

  23902050.758    23902058.113    23902057.988   125606327.5840   97875265.7320
  93797159.4220
  21227340.984    21227345.949    21227349.711   111550689.7100   86922545.2290
  83300774.7230
  22158362.148    22158366.504                   116443066.8240   90734861.1040

  24412949.703    24412958.020    24412962.445   128290979.7940   99967009.1040
  95801739.7880
  20099988.063    20099992.027                   105626413.7500   82306214.5020

  20572768.547    20572775.121    20572774.918   108110773.5590   84242232.2360
  80732135.2340
 22  5  2  0 50  0.0000000  0 10G02G05G06G07G09G11G13G14G20G30
  22029114.102    22029116.965                   115764026.0070   90205645.7380

  21686771.391    21686776.188                   113964938.7550   88803788.3430

  23372333.414    23372343.293    23372343.941   122822497.2360   95705906.5880
  91718152.4700
  21422945.320    21422949.570                   112578458.5880   87723599.9250

  23923572.438    23923580.086    23923580.883   125719427.2870   97963395.3460
  93881616.9380
  21243366.297    21243371.371    21243374.789   111634902.5840   86988165.6360
  83363660.9440
  22150652.102    22150657.598                   116402557.6040   90703295.5200

  24401446.234    24401453.242    24401458.191   128230523.2780   99919900.2400
  95756593.8120
  20098910.094    20098913.855                   105620748.5810   82301800.0860

  20577501.211    20577508.371    20577508.277   108135647.2080   84261614.3010
  80750709.7230
 22  5  2  0 50 30.0000000  0 10G02G05G06G07G09G11G13G14G20G30
  22042970.078    22042972.949                   115836841.5690   90262385.1270

  21677717.766    21677722.453                   113917361.3850   88766715.0910

  23398667.727    23398676.625    23398676.844   122960881.3880   95813738.3370
  91821491.2170
  21437625.336    21437629.402                   112655601.3440   87783711.1600

  23945100.336    23945106.973    23945107.727   125832553.1230   98051545.3100
  93966093.9750
  21259487.508    21259492.723    21259495.996   111719620.3400   87054179.4690
  83426924.2100
  22142985.672    22142991.227                   116362269.2160   90671902.0020

  24389942.414    24389949.379    24389953.137   128170066.1240   99872790.8590
  95711447.3120
  20097914.828    20097919.215                   105615520.7070   82297726.4150

  20582335.477    20582342.117    20582342.207   108161049.3410   84281408.1740
  80769678.8540
 22  5  2  0 51  0.0000000  0 10G02G05G06G07G09G11G13G14G20G30
  22056913.555    22056916.211                   115910112.4670   90319479.3170

  21668709.594    21668714.965                   113870028.0710   88729832.0060

  23425022.289    23425031.555    23425032.316   123099375.7210   95921655.9210
  91924912.2290
  21452380.773    21452384.969                   112733143.3450   87844133.4950

  23966631.055    23966639.141    23966640.590   125945709.9310   98139719.4360
  94050594.1630
  21275705.070    21275710.684    21275714.055   111804846.2580   87120589.2610
  83490566.9190
  22135363.031    22135367.809                   116322207.5130   90640685.1200

  24378438.328    24378445.641    24378449.473   128109616.4830   99825687.3530
  95666306.4750
  20097004.586    20097008.813                   105610736.9020   82293998.7840

  20587270.547    20587277.703    20587277.480   108186984.9660   84301617.7600
  80789046.3590
 22  5  2  0 51 30.0000000  0 10G02G05G06G07G09G11G13G14G20G30
  22070941.883    22070945.000                   115983833.8150   90376924.4990

  21659748.977    21659754.684                   113822938.3460   88693138.7320

  23451395.906    23451405.898    23451406.207   123237974.5480   96029654.9160
  92028411.2690
  21467211.719    21467215.906                   112811080.3300   87904863.6040

  23988171.648    23988177.730    23988178.539   126058894.5960   98227915.2290
  94135115.0840
  21292019.078    21292024.234    21292027.961   111890575.4650   87187391.2290
  83554585.4560
  22127781.883    22127786.859                   116282369.6880   90609642.6880

  24366937.305    24366943.789    24366947.711   128049174.5270   99778589.8350
  95621171.3670
  20096179.273    20096182.836                   105606396.3260   82290616.5120

  20592307.172    20592313.926    20592313.785   108213450.9600   84322240.6210
  80808809.9440
 22  5  2  0 52  0.0000000  0 10G02G05G06G07G09G11G13G14G20G30
  22085056.219    22085059.293                   116058004.7590   90434720.0240

  21650835.570    21650840.586                   113776095.0960   88656637.5210

  23477789.625    23477799.938    23477800.746   123376675.5810   96137733.5640
  92131986.6480
  21482117.500    21482121.934                   112889410.9080   87965900.4110

  24009713.430    24009722.172    24009721.809   126172107.0820   98316132.7590
  94219656.9020
  21308427.680    21308433.254    21308437.141   111976806.3780   87254584.1390
  83618978.6680
  22120242.344    22120248.871                   116242756.8360   90578775.5610

  24355437.992    24355443.457    24355448.730   127988743.7980   99731501.0330
  95576044.6110
  20095437.641    20095441.668                   105602501.3700   82287581.4890

  20597444.250    20597451.168    20597451.066   108240447.4860   84343276.8770
  80828969.6920
 22  5  2  0 52 30.0000000  0 10G02G05G06G07G09G11G13G14G20G30
  22099256.297    22099258.805                   116132623.5560   90492864.5320

  21641969.125    21641974.027                   113729500.7070   88620330.2240

  23504203.609    23504213.219    23504213.527   123515475.8050   96245889.5070
  92235636.0990
  21497098.492    21497102.270                   112968133.1260   88027242.3930

  24031264.094    24031271.488    24031271.586   126285346.9010   98404371.5370
  94304219.1010
  21324932.242    21324937.777    21324941.254   112063536.7700   87322166.2490
  83683744.8400
  22112748.070    22112752.879                   116203368.7510   90548083.5870

  24343940.961    24343946.723    24343952.234   127928327.1350   99684423.1840
  95530928.3620
  20094781.234    20094785.598                   105599053.7900   82284895.0630

  20602682.125    20602689.332    20602689.230   108267974.0770   84364726.1710
  80849525.2670
 22  5  2  0 53  0.0000000  0 10G02G05G06G07G09G11G13G14G20G30
  22113539.398    22113542.590                   116207685.5350   90551354.3720

  21633149.414    21633154.750                   113683154.2760   88584216.1450

  23530634.250    23530642.555    23530644.273   123654369.8070   96354118.5260
  92339355.5210
  21512151.906    21512156.328                   113047242.6400   88088886.1670

  24052816.086    24052824.254    24052824.676   126398611.0170   98492629.2290
  94388799.3640
  21341530.617    21341536.238    21341539.625   112150761.8350   87390133.8220
  83748880.4410
  22105295.375    22105299.973                   116164203.3840   90517565.1560

  24332444.781    24332452.664    24332458.043   127867924.6820   99637356.3900
  95485822.7740
  20094210.633    20094214.582                   105596052.7540   82282556.6030

  20608021.250    20608027.809    20608027.602   108296027.6770   84386586.1260
  80870474.3890
 22  5  2  0 53 30.0000000  0 10G02G05G06G07G09G11G13G14G20G30
  22127908.070    22127911.082                   116283191.1440   90610189.8900

  21624378.031    21624383.262                   113637060.1600   88548298.6710

  23557081.531    23557091.660    23557093.148   123793356.7150   96462419.9550
  92443144.3740
  21527279.539    21527284.141                   113126739.9180   88150832.0920

  24074375.313    24074382.523    24074383.840   126511901.0480   98580907.1420
  94473399.0150
  21358223.008    21358228.578    21358232.199   112238481.5630   87458486.8350
  83814385.4040
  22097884.750    22097890.051                   116125263.1200   90487222.1250

  24320954.539    24320962.855    24320966.445   127807541.5920   99590304.7690
  95440731.6200
  20093725.242    20093729.184                   105593502.3580   82280569.2780

  20613459.719    20613466.832    20613466.543   108324609.9780   84408858.0460
  80891818.3090
 22  5  2  0 54  0.0000000  0 10G02G05G06G07G09G11G13G14G20G30
  22142360.492    22142363.246                   116359139.1460   90669370.1390

  21615655.594    21615660.082                   113591220.8740   88512579.7700

  23583548.234    23583557.293    23583558.520   123932434.3550   96570792.0700
  92547000.9830
  21542481.391    21542485.629                   113206624.0810   88213079.4880

  24095938.609    24095945.375    24095946.773   126625217.1760   98669205.3720
  94558018.1370
  21375009.359    21375015.070    21375018.402   112326694.3580   87527224.0670
  83880258.5750
  22090518.367    22090522.871                   116086548.7750   90457055.1340

  24309470.063    24309476.816    24309479.535   127747181.4191   99543270.9981
  95395657.5540
  20093325.883    20093330.043                   105591405.0280   82278935.0040

  20618999.828    20619006.379    20619006.340   108353721.1420   84431542.0720
  80913557.1760
 22  5  2  0 54 30.0000000  0 10G02G05G06G07G09G11G13G14G20G30
  22156896.820    22156899.754                   116435529.0340   90728894.7020

  21606981.125    21606986.258                   113545639.8320   88477062.0930

  23610030.734    23610040.066    23610041.410   124071601.0530   96679233.5840
  92650924.0700
  21557755.586    21557760.492                   113286894.1520   88275627.5970

  24117506.766    24117514.441    24117515.477   126738560.0880   98757524.5240
  94642657.3210
  21391889.555    21391895.043    21391898.555   112415399.1570   87596344.6680
  83946499.1620
  22083194.727    22083199.168                   116048061.5510   90427065.1050

  24297988.219    24297995.332    24297999.488   127686848.3521   99496258.2971
  95350603.7170
  20093013.758    20093017.691                   105589763.2380   82277655.6870

  20624640.383    20624646.754    20624646.910   108383361.8780   84454638.7560
  80935691.4900
 22  5  2  0 55  0.0000000  0 10G02G05G06G07G09G11G13G14G20G30
  22171516.961    22171519.750                   116512357.0170   90788760.6440

  21598356.547    21598361.691                   113500317.3280   88441745.8750

  23636528.672    23636538.941    23636539.824   124210851.7930   96787740.5650
  92754909.8980
  21573103.156    21573108.117                   113367546.1280   88338473.2830

  24139079.984    24139087.676    24139088.145   126851927.3480   98845862.6330
  94727314.6650
  21408861.992    21408867.672    21408871.426   112504591.6500   87665845.2930
  84013103.9190
  22075914.172    22075917.848                   116009799.7080   90397250.7170

  24286511.602    24286518.734    24286523.543   127626543.1440   99449267.2770
  95305570.6920
  20092787.922    20092791.844                   105588576.8650   82276731.2430

  20630380.789    20630387.621    20630387.492   108413529.5340   84478146.0250
  80958219.2990
 22  5  2  0 55 30.0000000  0 10G02G05G06G07G09G11G13G14G20G30
  22186220.422    22186223.504                   116589624.6990   90848969.2040

  21589782.617    21589787.191                   113455258.9210   88406635.4610

  23663043.898    23663053.617    23663054.973   124350187.2740   96896313.5860
  92858959.0220
  21588524.547    21588528.633                   113448581.4790   88401617.7060

  24160656.555    24160666.824    24160666.883   126965322.0730   98934222.1220
  94811992.4870
  21425928.758    21425933.547    21425937.367   112594273.1150   87735726.9330
  84080073.8130
  22068675.789    22068680.402                   115971766.8160   90367614.7290

  24275043.414    24275049.797    24275054.340   127566272.2860   99402303.0280
  95260563.3760
  20092649.953    20092653.770                   105587851.1270   82276165.7460

  20636222.180    20636229.184    20636229.094   108444227.2020   84502066.2880
  80981142.8750
 22  5  2  0 56  0.0000000  0 10G02G05G06G07G09G11G13G14G20G30
  22201006.609    22201009.723                   116667327.3040   90909516.6560

  21581258.055    21581263.176                   113410464.0660   88371730.3950

  23689573.398    23689583.723    23689584.660   124489601.8080   97004948.1910
  92963067.1910
  21604017.398    21604021.113                   113529996.0120   88465057.5970

  24182240.094    24182248.938    24182249.684   127078741.0000   99022600.4080
  94896688.4010
  21443086.219    21443091.332    21443095.207   112684438.5320   87805985.6760
  84147405.1120
  22061481.516    22061486.605                   115933960.6270   90338155.3820

  24263580.094    24263587.215    24263591.891   127506036.0200   99355365.7570
  95215581.8430
  20092599.406    20092603.176                   105587585.2970   82275958.6050

  20642164.094    20642170.906    20642170.887   108475451.5430   84526396.9430
  81004459.7520
 22  5  2  0 56 30.0000000  0 11G02G05G06G07G09G11G13G14G15G20G30
  22215874.813    22215877.938                   116745461.0500   90970400.0690

  21572783.359    21572788.836                   113365932.9520   88337030.8510

  23716117.469    23716127.223    23716128.238   124629090.6550   97113640.7070
  93067230.8270
  21619581.516    21619585.363                   113611786.0090   88528790.0640

  24203827.969    24203836.234    24203836.773   127192181.7550   99110995.8120
  94981400.6040
  21460335.500    21460341.027    21460344.195   112775083.6100   87876618.1910
  84215094.6050
  22054330.180    22054335.188                   115896379.0140   90308871.0490

  24252124.781    24252131.680    24252135.992   127445835.1740   99308456.1640
  95170626.8340
  25357859.148                                   133256378.2071

  20092635.898    20092639.805                   105587778.9360   82276109.4960

  20648205.477    20648212.438    20648212.430   108507200.0110   84551136.0180
  81028168.0230
 22  5  2  0 57  0.0000000  0 11G02G05G06G07G09G11G13G14G15G20G30
  22230825.695    22230828.824                   116824027.7000   91031620.8140

  21564361.680    21564366.219                   113321671.7010   88302541.5800

  23742674.766    23742685.133    23742686.074   124768654.5200   97222391.6840
  93171450.5170
  21635216.922    21635221.641                   113693953.2440   88592816.4790

  24225420.211    24225427.781    24225427.695   127305647.5100   99199410.6600
  95066131.5200
  21477676.406    21477681.500    21477685.020   112866209.7180   87947625.5290
  84283143.3050
  22047222.086    22047226.824                   115859026.2820   90279765.0450

  24240676.969    24240683.648    24240687.824   127385676.6110   99261579.4440
  95125703.2870
  25345721.836                                   133192617.0180

  20092761.641    20092765.430                   105588437.6630   82276622.7980

  20654347.648    20654354.246    20654354.270   108539475.6650   84576285.8780
  81052269.9890
 22  5  2  0 57 30.0000000  0 10G02G05G06G07G09G11G13G14G20G30
  22245857.836    22245861.000                   116903021.8460   91093174.6820

  21555990.102    21555994.559                   113277678.2960   88268261.0210

  23769246.641    23769256.730    23769257.926   124908287.0480   97331196.1850
  93275721.4740
  21650923.641    21650927.949                   113776492.1580   88657132.5050

  24247015.023    24247023.438    24247024.652   127419134.4350   99287841.9910
  95150878.1910
  21495107.859    21495112.684    21495116.230   112957810.9930   88019003.1240
  84351546.8220
  22040157.031    22040161.719                   115821898.6670   90250834.4680

  24229235.672    24229243.578    24229247.246   127325559.6050   99214735.1050
  95080810.8180
  20092975.195    20092978.848                   105589559.2220   82277496.7450

  20660588.961    20660595.699    20660595.625   108572274.4470   84601843.3750
  81076762.5900
 22  5  2  0 58  0.0000000  0 11G02G05G06G07G09G11G13G14G15G20G30
  22260971.242    22260974.273                   116982443.8790   91155061.9490

  21547670.289    21547674.813                   113233957.5480   88234192.9230

  23795829.844    23795840.914    23795842.176   125047987.8270   97440053.8560
  93380043.4190
  21666701.094    21666705.527                   113859403.2710   88721738.5650

  24268616.445    24268623.844    24268624.109   127532644.5380   99376291.3730
  95235642.1610
  21512628.883    21512634.105    21512637.934   113049887.5270   88090751.0630
  84420305.2640
  22033134.992    22033139.664                   115784999.1040   90222081.6020

  24217804.000    24217811.816    24217816.945   127265489.6110   99167927.3780
  95035953.4220
  25321472.813                                   133065182.2541

  20093276.930    20093281.160                   105591147.6780   82278734.5120

  20666929.797    20666936.918    20666936.906   108605598.1450   84627809.8940
  81101647.1650
 22  5  2  0 58 30.0000000  0 11G02G05G06G07G09G11G13G14G15G20G30
  22276165.875    22276168.547                   117062291.5130   91217280.8670

  21539402.703    21539407.324                   113190511.2760   88200338.7010

  23822427.523    23822437.680    23822438.914   125187753.5230   97548962.1040
  93484413.8040
  21682548.680    21682553.402                   113942684.4500   88786632.9880

  24290220.797    24290227.945    24290228.633   127646176.9590   99464758.1350
  95320422.7930
  21530239.984    21530245.617    21530249.219   113142436.5370   88162867.1580
  84489416.5190
  22026156.063    22026161.273                   115748327.0800   90193506.0350

  24206384.359    24206389.957    24206394.984   127205469.0890   99121158.2140
  94991133.0110
  25309356.047                                   133001509.5690

  20093668.508    20093672.445                   105593204.6400   82280337.3430

  20673371.250    20673377.891    20673377.816   108639445.6330   84654184.5630
  81126922.8960
 22  5  2  0 59  0.0000000  0 11G02G05G06G07G09G11G13G14G15G20G30
  22291440.430    22291443.508                   117142561.1410   91279828.6050

  21531187.359    21531192.266                   113147340.4240   88166699.0990

  23849034.688    23849045.492    23849047.145   125327579.6880   97657917.5040
  93588829.3690
  21698466.469    21698470.930                   114026332.1280   88851813.0030

  24311828.914    24311837.090    24311837.207   127759729.6360   99553240.7110
  95405218.6100
  21547941.406    21547946.160    21547950.047   113235454.0180   88235348.3020
  84558877.6000
  22019221.313    22019226.207                   115711881.1580   90165106.6600

  24194971.852    24194978.590    24194982.813   127145499.4730   99074428.7230
  94946350.6200
  25297244.469                                   132937866.0740

  20094148.844    20094152.988                   105595729.7980   82282305.0040

  20679911.734    20679918.105    20679918.086   108673814.6610   84680965.6230
  81152588.0670
 22  5  2  0 59 30.0000000  0 11G02G05G06G07G09G11G13G14G15G20G30
  22306795.438    22306798.883                   117223253.7460   91342705.9410

  21523025.852    21523030.379                   113104449.7870   88133277.8320

  23875656.195    23875665.742    23875666.938   125467466.5710   97766920.1900
  93693290.2550
  21714453.984    21714458.609                   114110347.7520   88917279.7180

  24333442.352    24333449.723    24333449.797   127873305.3100   99641741.2120
  95490031.6070
  21565730.883    21565736.242    21565739.973   113328940.6740   88308195.0360
  84628689.0590
  22012329.188    22012334.047                   115675664.8720   90136886.2250

  24183571.781    24183578.266    24183581.336   127085586.8030   99027743.6130
  94901610.7480
  25285137.289

  20094719.578    20094723.578                   105598728.2250   82284641.4410

  20686551.594    20686558.000    20686558.012   108708707.6290   84708154.9520
  81178644.5140
 22  5  2  1  0  0.0000000  0 11G02G05G06G07G09G11G13G14G15G20G30
  22322231.375    22322234.441                   117304366.3130   91405910.5140

  21514917.086    21514922.117                   113061840.3670   88100075.7060

  23902286.422    23902295.555    23902297.047   125607410.0270   97875966.9540
  93797793.4170
  21730511.195    21730515.652                   114194727.6420   88983030.2770

  24355057.898    24355066.543    24355067.309   127986902.2530   99730258.2600
  95574860.4240
  21583609.719    21583614.750    21583618.262   113422892.8360   88381404.4960
  84698848.1090
  22005480.648    22005485.777                   115639676.9780   90108843.7490

  24172181.445    24172188.656    24172191.098   127025732.8450   98981104.2530
  94856914.6680
  25273041.797                                   132810676.6210

  20095380.406    20095384.152                   105602200.2390   82287346.9130

  20693290.336    20693297.402    20693297.289   108744122.5990   84735751.0380
  81205090.7590
 22  5  2  1  0 30.0000000  0 11G02G05G06G07G09G11G13G14G15G20G30
  22337745.188    22337748.152                   117385891.9270   91469436.9410

  21506861.641    21506866.926                   113019509.7760   88067090.8410

  23928926.672    23928934.871    23928936.980   125747402.3920   97985051.8500
  93902333.0490
  21746635.734    21746640.582                   114279465.5760   89049059.8290

  24376677.781    24376685.906    24376686.766   128100515.4150   99818787.9720
  95659701.3610
  21601574.953    21601580.586    21601584.094   113517303.1850   88454970.9780
  84769349.3210
  21998675.070    21998680.305                   115603912.8950   90080975.6590

  24160802.172    24160809.594    24160812.934   126965935.6490   98934509.1240
  94812261.0340
  25260948.148    25260956.617                   132747125.1910  103439391.7251

  20096130.469    20096134.398                   105606142.6770   82290418.9450

  20700127.984    20700134.738    20700134.848   108780053.9750   84763749.5150
  81231922.6310
 22  5  2  1  1  0.0000000  0 11G02G05G06G07G09G11G13G14G15G20G30
  22353338.148    22353341.344                   117467834.0520   91533287.9140

  21498861.102    21498866.082                   112977465.5040   88034329.1040

  23955575.820    23955584.820    23955586.367   125887446.2800   98094176.8820
  94006911.2030
  21762829.320    21762834.414                   114364564.8190   89115370.9320

  24398301.641    24398310.258    24398311.664   128214149.7080   99907334.1390
  95744558.0750
  21619628.633    21619633.934    21619637.555   113612174.8300   88528896.9060
  84840195.0010
  21991912.930    21991918.047                   115568378.1930   90053286.3190

  24149434.102    24149442.105    24149446.477   126906203.8040   98887964.9360
  94767656.1780
  25248860.820    25248868.746                   132683606.6910  103389896.8120

  20096971.234    20096975.531                   105610562.1450   82293862.6950

  20707064.445    20707071.488    20707071.469   108816506.5630   84792154.1300
  81259143.7140
 22  5  2  1  1 30.0000000  0 11G02G05G06G07G09G11G13G14G15G20G30
  22369009.797    22369012.871                   117550189.7110   91597461.1330

  21490914.672    21490919.887                   112935708.7730   88001791.4010

  23982233.719    23982243.676    23982244.980   126027538.1250   98203339.2740
  94111525.1540
  21779092.195    21779096.469                   114450023.0180   89181961.7360

  24419931.453    24419937.930    24419939.398   128327804.1020   99995895.9570
  95829429.8430
  21637768.891    21637774.730    21637778.301   113707504.5630   88603179.7910
  84911382.7590
  21985194.453    21985199.746                   115533072.2440   90025775.2400

  24138081.250    24138088.941    24138092.934   126846539.4900   98841473.3320
  94723101.7900
  25236779.648    25236787.113                   132620120.7621  103340427.3931

  20097903.641    20097907.410                   105615459.7540   82297679.0200

  20714100.164    20714107.145    20714106.938   108853478.8220   84820963.6840
  81286752.8750
 22  5  2  1  2  0.0000000  0 11G02G05G06G07G09G11G13G14G15G20G30
  22384759.797    22384763.063                   117632958.1450   91661955.9800

  21483024.781    21483029.422                   112894243.7300   87969481.0000

  24008901.625    24008911.176    24008912.445   126167676.4320   98312537.8440
  94216173.7470
  21795422.430    21795426.813                   114535839.4150   89248831.6320

  24441562.438    24441569.879    24441570.832   128441479.4860  100084474.1790
  95914317.2750
  21655996.992    21656002.305    21656005.922   113803291.1890   88677818.6940
  84982911.7100
  21978520.219    21978524.316                   115497996.6110   89998443.6260

  24126741.656    24126748.461    24126753.094   126786947.0310   98795037.7470
  94678601.0120
  25224705.250    25224712.633                   132556669.0320  103290984.5330

  20098926.852    20098930.879                   105620838.6190   82301870.3380

  20721234.953    20721241.637    20721241.633   108890971.3180   84850178.6230
  81314750.5230
 22  5  2  1  2 30.0000000  0 11G02G05G06G07G09G11G13G14G15G20G30
  22400588.289    22400591.301                   117716134.8020   91726768.9220

  21475189.352    21475193.938                   112853068.9180   87937396.7530

  24035575.422    24035585.742    24035587.691   126307855.4470   98421768.1780
  94320852.7900
  21811820.180    21811824.797                   114622009.2690   89315976.9760

  24463196.461    24463204.738    24463205.531   128555172.6880  100173066.2470
  95999217.9950
  21674310.656    21674315.750    21674319.430   113899529.3880   88752809.4640
  85054777.8500
  21971888.797    21971893.094                   115463148.5510   89971289.3410

  24115415.328    24115422.000    24115426.051   126727426.5220   98748658.2110
  94634154.0040
  25212636.344    25212644.598                   132493249.2401  103241566.6861

  20100041.977    20100045.914                   105626697.5180   82306435.7210

  20728468.063    20728474.570    20728474.484   108928980.3840   84879796.0720
  81343133.9190
 22  5  2  1  3  0.0000000  0 11G02G05G06G07G09G11G13G14G15G20G30
  22416493.977    22416496.930                   117799718.3120   91791898.9090

  21467410.148    21467414.742                   112812188.4940   87905541.8940

  24062258.813    24062268.922    24062270.574   126448073.3460   98531028.7670
  94425560.8800
  21828284.523    21828289.223                   114708531.5330   89383396.9160

  24484834.617    24484843.488    24484844.691   128668884.2650  100261672.6270
  96084132.4590
  21692709.703    21692715.121    21692718.777   113996217.6360   88828150.9190
  85126980.0700
  21965300.578    21965305.297                   115428529.3040   89944313.3390

  24104103.031    24104109.477    24104113.402   126667981.9290   98702337.8510
  94589763.7110
  25200572.906    25200582.938                   132429862.6301  103192174.3981

  20101248.797    20101252.578                   105633038.7370   82311376.9390

  20735799.055    20735805.754    20735805.750   108967506.1550   84909816.1510
  81371903.1560
 22  5  2  1  3 30.0000000  0 11G02G05G06G07G09G11G13G14G15G20G30
  22432475.773    22432479.555                   117883706.6180   91857344.3180

  21459686.820    21459691.645                   112771603.5830   87873917.3030

  24088948.172    24088958.125    24088960.355   126588327.3970   98640317.5520
  94530295.9220
  21844815.969    21844820.547                   114795404.5030   89451090.1460

  24506478.047    24506485.809    24506486.742   128782613.9230  100350293.0870
  96169060.3930
  21711193.867    21711199.652    21711202.941   114093353.4490   88903841.1470
  85199516.5300
  21958756.734    21958761.180                   115394138.8900   89917515.6550

  24092805.336    24092812.918    24092816.520   126608616.4770   98656079.1230
  94545432.4100
  25188517.117    25188527.664                   132366509.4741  103142808.5801

  20102547.289    20102551.316                   105639863.8250   82316695.1960

  20743228.250    20743235.129    20743235.074   109006547.9230   84940238.3070
  81401057.7230
 22  5  2  1  4  0.0000000  0 11G02G05G06G07G09G11G13G14G15G20G30
  22448535.672    22448538.484                   117968098.6260   91923104.2990

  21452021.195    21452025.492                   112731317.8410   87842525.8270

  24115644.641    24115654.793    24115656.012   126728615.8880   98749633.1790
  94635056.7300
  21861413.680    21861418.590                   114882627.3380   89519055.9960

  24528124.281    24528131.523    24528132.879   128896362.5190  100438928.3330
  96254002.4930
  21729762.836    21729768.652    21729772.145   114190935.5410   88979879.1170
  85272386.2410
  21952255.930    21952260.594                   115359978.7670   89890897.4090

  24081524.453    24081531.223    24081535.625   126549334.3170   98609885.2740
  94501163.3300
  25176467.656    25176477.887                   132303191.3080  103093469.9600

  20103938.945    20103942.605                   105647175.3950   82322392.5230

  20750756.031    20750762.684    20750762.676   109046105.9930   84971062.7790
  81430597.8420
 22  5  2  1  4 30.0000000  0 11G02G05G06G07G09G11G13G14G15G20G30
  22464671.266    22464673.867                   118052890.0310   91989175.4970

  21444411.523    21444416.305                   112691331.2870   87811367.4940

  24142346.305    24142356.480    24142358.012   126868933.6080   98858971.5280
  94739839.3000
  21878077.953    21878082.336                   114970195.6500   89587291.0470

  24549773.039    24549779.879    24549781.281   129010127.2500  100527576.1600
  96338956.6280
  21748416.727    21748421.770    21748425.742   114288958.7990   89056260.8510
  85345585.4140
  21945799.305    21945803.684                   115326046.6590   89864456.8460

  24070260.391    24070266.047    24070270.637   126490135.8390   98563756.7000
  94456956.7900
  25164425.727    25164434.488                   132239906.4191  103044157.0351

  20105422.930    20105426.316                   105654972.6360   82328468.2960

  20758381.383    20758388.020    20758387.984   109086176.9910   85002286.9450
  81460520.9950
 22  5  2  1  5  0.0000000  0 11G02G05G06G07G09G11G13G14G15G20G30
  22480882.469    22480885.633                   118138082.7790   92055559.4320

  21436860.492    21436865.125                   112651650.0320   87780447.0500

  24169054.625    24169063.426    24169065.207   127009281.7040   98968333.5900
  94844644.6040
  21894806.984    21894812.105                   115058111.5600   89655796.9540

  24571425.219    24571431.855    24571433.289   129123911.7960  100616239.4240
  96423925.5590
  21767154.578    21767159.480    21767163.223   114387424.8430   89132987.6040
  85419115.2150
  21939386.352    21939390.750                   115292346.8440   89838197.2940

  24059010.484    24059018.820    24059022.668   126431028.2020   98517698.8880
  94412818.0750
  25152390.891    25152399.359

  20107000.102    20107003.617                   105663261.1460   82334926.8870

  20766104.836    20766111.590    20766111.523   109126764.1490   85033913.3000
  81490829.5960
 22  5  2  1  5 30.0000000  0 11G02G05G06G07G09G11G13G14G15G20G30
  22497168.602    22497172.129                   118223670.5170   92122251.1520

  21429367.008    21429371.594                   112612272.2570   87749763.0820

  24195765.516    24195776.094    24195777.289   127149653.5350   99077714.1360
  94949467.5890
  21911602.570    21911606.789                   115146369.2860   89724569.2110

  24593079.922    24593088.160    24593088.414   129237711.8010  100704914.6940
  96508906.0540
  21785974.703    21785979.848    21785983.609   114486327.0880   89210054.2610
  85492970.7400
  21933015.875    21933021.074                   115258875.1010   89812115.4530

  24047781.727    24047787.547    24047792.047   126372010.4950   98471711.1870
  94368746.5110
  25140359.664    25140369.926                   132113445.7491  102945616.3621

  20108670.273    20108674.059                   105672038.7350   82341766.5720

  20773925.430    20773932.289    20773932.297   109167862.5970   85065938.0670
  81521519.9860
 22  5  2  1  6  0.0000000  0 11G02G05G06G07G09G11G13G14G15G20G30
  22513531.609    22513534.156                   118309652.8090   92189250.3130

  21421932.281    21421937.012                   112573202.2650   87719318.9530

  24222481.547    24222491.676    24222493.629   127290047.8530   99187112.2430
  95054307.3950
  21928462.141    21928466.832                   115234968.4950   89793607.5520

  24614738.500    24614746.129    24614746.938   129351528.6700  100793603.1520
  96593899.1800
  21804877.586    21804883.102    21804886.934   114585664.6180   89287460.1040
  85567151.3330
  21926690.453    21926695.434                   115225633.3180   89786212.8000

  24036568.078    24036574.824    24036579.555   126313087.4570   98425797.1960
  94324745.6130
  25128339.023    25128345.039

  20110434.555    20110437.867                   105681308.4350   82348989.7200

  20781843.602    20781850.410    20781850.383   109209473.1060   85098361.8430
  81552592.7780
 22  5  2  1  6 30.0000000  0 11G02G05G06G07G09G11G13G14G15G20G30
  22529966.852    22529970.254                   118396023.2940   92256551.9450

  21414555.477    21414560.352                   112534437.8210   87689112.9100

  24249201.883    24249211.668    24249212.902   127430457.5840   99296522.3020
  95159158.6960
  21945386.398    21945390.355                   115323902.8470   89862907.0630

  24636398.883    24636407.082    24636408.566   129465357.6230  100882300.9680
  96678901.2720
  21823862.109    21823867.797    21823871.613   114685430.4450   89365199.6800
  85641651.7500
  21920408.195    21920412.762                   115192617.7450   89760486.4140

  24025372.375    24025379.969    24025384.359   126254257.6530   98379955.8610
  94280814.3610
  25116322.047    25116329.875

  20112290.398    20112294.867                   105691066.7280   82356593.5830

  20789858.633    20789865.102    20789865.020   109251590.3140   85131180.4460
  81584043.9390
 22  5  2  1  7  0.0000000  0 11G02G05G06G07G09G11G13G14G15G20G30
  22546475.078    22546478.285                   118482773.1230   92324149.1880

  21407236.563    21407241.023                   112495974.0850   87659141.1870

  24275921.289    24275931.652    24275933.715   127570873.4660   99405937.1700
  95264014.5900
  21962372.023    21962376.344                   115413163.7780   89932461.0280

  24658061.430    24658069.469    24658070.402   129579191.9870  100971003.0910
  96763907.4280
  21842927.023    21842932.703    21842936.141   114785615.5700   89443265.9810
  85716465.2980
  21914166.914    21914172.020                   115159821.4420   89734930.8910

  24014193.609    24014201.699    24014206.285   126195517.7290   98334184.5620
  94236950.2170
  25104310.242    25104318.840

  20114240.063    20114244.141                   105701309.5550   82364575.0120

  20797967.508    20797974.871    20797974.809   109294206.9050   85164388.1790
  81615868.0180
 22  5  2  1  7 30.0000000  0 11G02G05G06G07G09G11G13G14G15G20G30
  22563054.820    22563058.148                   118569902.2190   92392041.9620

  21399975.117    21399979.730                   112457815.7760   87629407.4580

  24302643.883    24302652.828    24302654.703   127711294.9280   99515356.3830
  95368874.6570
  21979419.883    21979424.184                   115502751.6780   90002269.7800

  24679725.047    24679733.074    24679734.199   129693033.6910  101059710.8330
  96848919.0460
  21862071.625    21862077.238    21862080.605   114886219.5630   89521658.6750
  85791591.6150
  21907968.688    21907973.121                   115127247.2330   89709548.4230

  24003035.867    24003041.969    24003046.625   126136872.9640   98288487.3980
  94193157.1460
  25092306.633    25092313.301                   131860911.3530  102748818.7270

  20116281.570    20116285.941                   105712040.1040   82372936.4860

  20806172.539    20806179.734    20806179.809   109337324.1230   85197986.0160
  81648065.9420
 22  5  2  1  8  0.0000000  0 11G02G05G06G07G09G11G13G14G15G20G30
  22579707.883    22579711.063                   118657413.8260   92460232.7810

  21392773.086    21392777.813                   112419970.4060   87599917.5710

  24329366.641    24329376.223    24329377.574   127851724.2700   99624781.7640
  95473740.6260
  21996530.391    21996535.129                   115592669.5980   90072335.6970

  24701391.102    24701398.145    24701399.500   129806887.4670  101148428.0650
  96933939.6750
  21881296.289    21881301.629    21881305.316   114987244.9460   89600379.7230
  85867032.6150
  21901812.344    21901817.469                   115094900.4910   89684343.2040

  23991895.680    23991902.031    23991906.867   126078331.5040   98242870.7650
  94149441.2170
  25080307.031    25080313.938                   131797854.1960  102699683.4060

  20118418.297    20118421.934                   105723264.6560   82381682.8960

  20814474.164    20814480.715    20814480.660   109380946.1240   85231977.1830
  81680640.8070
 22  5  2  1  8 30.0000000  0 11G02G05G06G07G09G11G13G14G15G20G30
  22596433.813    22596436.445                   118745305.9540   92528720.1430

  21385631.250    21385636.301                   112382440.5230   87570673.5300

  24356089.703    24356099.781    24356101.648   127992159.4770   99734211.6700
  95578610.9510
  22013703.852    22013708.570                   115682916.4460   90142657.9110

  24723060.055    24723067.180    24723066.934   129920753.6950  101237154.9610
  97018969.5800
  21900600.414    21900605.801    21900609.406   115088689.7580   89679427.5970
  85942786.8190
  21895700.617    21895705.367                   115062781.9220   89659315.7860

  23980775.469    23980782.094    23980786.031   126019897.0420   98197337.4780
  94105805.1670
  25068313.242    25068321.020                   131734832.0310  102650575.2740

  20120648.586    20120652.367                   105734985.6200   82390816.1110

  20822870.711    20822877.625    20822877.566   109425072.5430   85266361.4130
  81713592.3570
 22  5  2  1  9  0.0000000  0 11G02G05G06G07G09G11G13G14G15G20G30
  22613232.766    22613236.023                   118833587.8110   92597511.1650

  21378552.500    21378557.383                   112345239.9650   87541686.1040

  24382817.344    24382826.746    24382827.973   128132608.8210   99843652.6250
  95683491.8350
  22030942.047    22030946.168                   115773501.2920   90213243.5210

  24744731.086    24744739.883    24744739.641   130034643.1430  101325899.9290
  97104016.8750
  21919985.531    21919991.578    21919995.184   115190562.3910   89758808.8390
  86018860.5040
  21889634.797    21889639.086                   115030902.5360   89634474.7420

  23969678.719    23969685.816    23969689.391   125961583.7860   98151898.6300
  94062259.6200
  25056329.711    25056336.848                   131671856.2140  102601503.3590

  20122975.523    20122979.426                   105747215.3230   82400345.7560

  20831365.484    20831372.742    20831372.520   109469713.4920   85301146.5650
  81746928.1340
 22  5  2  1  9 30.0000000  0 11G02G05G06G07G09G11G13G14G15G20G30
  22630103.672    22630106.227                   118922243.6310   92666593.6010

  21371533.969    21371538.512                   112308356.9940   87512946.1410

  24409542.633    24409552.703    24409554.688   128273055.9640   99953091.8490
  95788371.0800
  22048240.539    22048245.063                   115864408.4300   90284080.2640

  24766406.711    24766412.965    24766414.773   130148541.9470  101414652.1910
  97189071.1160
  21939450.133    21939455.469    21939459.520   115292846.6060   89838510.7920
  86095241.5340
  21883610.961    21883615.668                   114999248.8540   89609809.5710

  23958602.359    23958610.152    23958613.891   125903381.1940   98106546.0380
  94018796.7000
  25044352.688    25044359.496                   131608914.3101  102552457.6721

  20125397.586    20125401.332                   105759941.7580   82410262.4590

  20839955.547    20839962.711    20839962.520   109514854.3590   85336321.2710
  81780637.2150
 22  5  2  1 10  0.0000000  0 11G02G05G06G07G09G11G13G14G15G20G30
  22647045.258    22647047.566                   119011270.3580   92735965.0450

  21364575.758    21364580.734                   112271793.3240   87484454.9880

  24436268.375    24436278.566    24436279.113   128413497.4720  100062526.6870
  95893246.1390
  22065600.906    22065605.160                   115955635.5970   90355166.3650

  24788080.320    24788089.074    24788090.660   130262449.1760  101503411.0370
  97274131.6330
  21958992.266    21958997.195    21959001.039   115395539.0760   89918530.8700
  86171927.4350
  21877630.313    21877635.031                   114967820.3830   89585319.8860

  23947549.680    23947555.895    23947560.215   125845291.6040   98061281.4850
  93975418.2070
  25032382.398    25032388.477                   131546005.3181  102503437.8171

  20127913.898    20127917.887                   105773165.6660   82420566.8080

  20848641.203    20848647.488    20848647.285   109560493.4180   85371884.1680
  81814718.3390
 22  5  2  1 10 30.0000000  0 11G02G05G06G07G09G11G13G14G15G20G30
  22664056.688    22664059.773                   119100668.5210   92805625.9330

  21357680.047    21357684.605                   112235554.1080   87456216.6520

  24462991.406    24463002.117    24463004.379   128553933.5800  100171957.2950
  95998117.0930
  22083021.898    22083026.223                   116047183.6330   90426502.4700

  24809759.852    24809767.176    24809768.668   130376367.3070  101592178.3690
  97359200.3800
  21978611.258    21978616.953    21978620.422   115498640.0490   89998869.2590
  86248918.3840
  21871692.594    21871697.781                   114936620.1440   89561008.0440

  23936517.984    23936524.992    23936528.832   125787321.0320   98016109.6750
  93932128.5800
  25020417.625    25020423.586                   131483132.7840  102454446.3260

  20130525.750    20130529.730                   105786891.5880   82431262.3340

  20857420.695    20857427.508    20857427.258   109606632.5720   85407836.7660
  81849172.9010
 22  5  2  1 11  0.0000000  0 11G02G05G06G07G09G11G13G14G15G20G30
  22681139.008    22681141.902                   119190435.5420   92875574.2490

  21350846.016    21350850.594                   112199641.0090   87428232.4450

  24489714.945    24489724.402    24489726.152   128694361.1500  100281381.2740
  96102981.6950
  22100503.695    22100507.719                   116139050.0730   90498086.7070

  24831439.688    24831447.539    24831447.828   130490296.1281  101680954.0021
  97444276.9730
  21998307.969    21998313.582    21998317.234   115602146.5380   90079523.6340
  86326212.1590
  21865799.469    21865803.898                   114905648.1590   89536874.0550

  23925510.656    23925516.527    23925519.977   125729472.2400   97971032.7610
  93888929.8850
  25008459.281    25008466.543                   131420296.8410  102405483.3090

  20133233.297    20133237.426                   105801120.0800   82442349.4700

  20866295.219    20866302.398    20866302.227   109653270.4540   85444177.9700
  81883999.8880
 22  5  2  1 11 30.0000000  0 11G02G05G06G07G09G11G13G14G15G20G30
  22698293.945    22698296.371                   119280582.9130   92945818.9340

  21344076.844    21344081.793                   112164070.4570   87400515.1550

  24516439.422    24516448.051    24516449.371   128834791.4150  100390807.3430
  96207848.3470
  22118048.438    22118052.230                   116231246.7460   90569928.2710

  24853123.859    24853131.340    24853132.242   130604248.8770  101769748.3370
  97529371.5410
  22018084.070    22018089.527    22018093.293   115706069.6900   90160502.6860
  86403817.0650
  21859951.547    21859956.391                   114874918.4460   89512928.8700

  23914528.055    23914534.102    23914538.512   125671762.2250   97926063.9960
  93845834.8170
  24996512.039    24996518.883                   131357511.5650  102356559.7780

  20136039.586    20136043.313                   105815866.4850   82453840.1830

  20875267.750    20875274.582    20875274.488   109700419.8470   85480917.7590
  81919208.8500
 22  5  2  1 12  0.0000000  0 11G02G05G06G07G09G11G13G14G15G20G30
  22715519.398    22715522.379                   119371107.0980   93016357.2230

  21337372.844    21337378.184                   112128843.2140   87373065.3780

  24543160.773    24543171.133    24543172.793   128975220.2800  100500232.3080
  96312713.9420
  22135654.477    22135658.949                   116323770.8320   90642024.9650

  24874813.359    24874820.809    24874821.141   130718224.2210  101858560.2030
  97614482.9360
  22037938.852    22037944.051    22037947.578   115810405.5470   90241803.3290
  86481730.1830
  21854149.547    21854154.473                   114844429.5550   89489171.3260

  23903572.719    23903579.316    23903583.285   125614192.7800   97881204.7520
  93802844.7330
  24984574.891    24984581.285                   131294776.4910  102307675.3650

  20138944.367    20138948.027                   105831130.8640   82465734.5010

  20884336.586    20884343.680    20884343.570   109748078.3740   85518054.2680
  81954798.0080
 22  5  2  1 12 30.0000000  0 11G02G05G06G07G09G11G13G14G15G20G30
  22732816.352    22732819.316                   119462003.1070   93087185.2410

  21330734.492    21330739.977                   112093958.7800   87345882.7220

  24569883.180    24569892.531    24569893.523   129115642.1180  100609651.7970
  96417574.2710
  22153322.727    22153326.992                   116416616.8890   90714372.5270

  24896504.789    24896512.961    24896514.043   130832218.8960  101947387.1850
  97699608.7540
  22057870.445    22057876.148    22057879.910   115915148.4130   90323421.1140
  86559947.2330
  21848393.453    21848397.680                   114814178.9080   89465599.4030

  23892645.930    23892650.723    23892654.609   125556764.0100   97836455.1060
  93759959.6470
  24972643.750    24972652.207                   131232088.8280  102258827.8990

  20141947.188    20141951.176                   105846911.4610   82478031.0670

  20893502.172    20893508.883    20893508.891   109796241.9620   85555584.3380
  81990764.3210
 22  5  2  1 13  0.0000000  0 11G02G05G06G07G09G11G13G14G15G20G30
  22750182.781    22750185.762                   119553263.6110   93158297.3020

  21324161.227    21324166.348                   112059413.8680   87318964.6260

  24596601.180    24596610.996    24596612.688   129256049.4710  100719059.9690
  96522423.7230
  22171050.992    22171054.980                   116509778.4710   90786965.9610

  24918200.586    24918208.938    24918209.188   130946227.8390  102036225.2880
  97784745.2810
  22077878.797    22077884.047    22077887.609   116020290.7650   90405350.1970
  86638462.5840
  21842680.961    21842685.727                   114784161.6580   89442209.3700

  23881741.617    23881748.922    23881753.125   125499474.1470   97791813.7250
  93717178.3490
  24960722.055    24960730.656                   131169444.3981  102210014.1261

  20145047.391    20145051.660                   105863205.0090   82490727.3360

  20902762.141    20902769.059    20902769.039   109844904.6630   85593503.3210
  82027103.3420
 22  5  2  1 13 30.0000000  0 11G02G05G06G07G09G11G13G14G15G20G30
  22767618.867    22767621.465                   119644887.6880   93229692.6490

  21317652.992    21317657.859                   112025212.6670   87292314.3640

  24623318.086    24623326.480    24623328.922   129396440.8760  100828455.7810
  96627261.3640
  22188839.031    22188842.871                   116603255.0850   90859804.8830

  24939898.594    24939906.035    24939908.219   131060252.1350  102125075.3980
  97869893.2950
  22097962.523    22097967.691    22097971.445   116125831.2770   90487589.5330
  86717275.2790
  21837013.547    21837018.410                   114754379.5760   89419002.5680

  23870869.078    23870874.078    23870877.547   125442327.7500   97747284.1430
  93674504.1620
  24948812.555    24948817.563                   131106844.9501  102161235.4591

  20148246.461    20148250.273                   105880014.2110   82503825.4130

  20912117.445    20912124.488    20912124.254   109894066.8070   85631811.4850
  82063815.3390
 22  5  2  1 14  0.0000000  0 11G02G05G06G07G09G11G13G14G15G20G30
  22785122.609    22785125.727                   119736872.4790   93301369.0620

  21311210.641    21311215.258                   111991356.7720   87265933.1670

  24650029.039    24650039.027    24650041.027   129536813.0630  100937836.5830
  96732084.6180
  22206686.164    22206690.445                   116697043.9620   90932887.1170

  24961598.609    24961607.082    24961608.348   131174291.0000  102213936.8460
  97955052.1270
  22118120.680    22118126.738    22118130.402   116231766.5050   90570136.4410
  86796382.7320
  21831391.422    21831395.676                   114724832.1580   89395978.6330

  23860021.313    23860026.863    23860031.320   125385327.1940   97702868.2200
  93631938.9000
  24936907.719    24936914.602                   131044290.1580  102112491.5690

  20151543.344    20151547.230                   105897339.4780   82517325.6200

  20921567.563    20921574.352    20921574.176   109943726.5280   85670507.3770
  82100898.9020
 22  5  2  1 14 30.0000000  0 11G02G05G06G07G09G11G13G14G15G20G30
  22502902.500    22502905.039                   118253794.0920   92145723.5340

  21005040.203    21005045.109                   110382422.7740   86012218.3840

  24376943.828    24376954.781    24376956.102   128101743.7820   99819600.6480
  95660441.8200
  21924800.484    21924804.340                   115215721.8850   89778610.1610

  24683510.984    24683518.582    24683518.172   129712923.5520  101075208.8230
  96863771.1540
  21838561.422    21838567.281    21838570.828   114762672.9340   89425388.1840
  85699332.3160
  21526019.398    21526023.996                   113120094.0730   88145533.4030

  23549409.055    23549414.121    23549418.930   123753049.4210   96430963.4850
  92413030.2500
  24625218.391    24625225.660                   129406353.7320  100836177.4730

  19855145.664    19855149.457                   104339758.3510   81303626.0440

  20631318.961    20631325.762    20631325.590   108418460.0410   84481988.0360
  80961901.1980
 22  5  2  1 15  0.0000000  0 11G02G05G06G07G09G11G13G14G15G20G30
  22520540.469    22520543.836                   118346486.3110   92217951.2010

  20998729.422    20998733.918                   110349257.2760   85986375.1560

  24403646.156    24403656.344    24403658.125   128242062.8541   99928940.0561
  95765225.4290
  21942763.977    21942768.063                   115310122.5760   89852169.1360

  24705215.180    24705223.734    24705224.113   129826984.0150  101164087.0850
  96948946.1450
  21858868.094    21858873.449    21858877.086   114869382.6530   89508538.5920
  85779018.1240
  21520484.922    21520489.363                   113091009.4590   88122870.0850

  23538619.305    23538623.602    23538627.672   123696343.2390   96386776.9130
  92370684.7990
  24613330.023    24613337.582                   129343882.7890  100787498.8270

  19858637.977    19858642.199                   104358112.6920   81317928.1200

  20640955.969    20640963.145    20640962.961   108469104.7460   84521451.4460
  80999720.3030
 22  5  2  1 15 30.0000000  0 11G02G05G06G07G09G11G13G14G15G20G30
  22538245.703    22538249.027                   118439527.3060   92290450.6430

  20992484.664    20992488.965                   110316439.3850   85960802.7950

  24430341.898    24430352.262    24430353.762   128382350.0670  100038254.6770
  95869985.2230
  21960784.773    21960789.426                   115404825.0130   89925963.2360

  24726921.320    24726930.371    24726931.516   129941053.6530  101252972.5090
  97034127.9820
  21879246.617    21879252.125    21879256.098   114976474.2000   89591986.5440
  85858989.0630
  21514993.492    21514998.352                   113062155.1770   88100386.2580

  23527856.539    23527861.906    23527865.688   123639787.6180   96342707.6700
  92328451.7730
  24601450.344    24601457.773                   129281453.4390  100738852.6480

  19862228.930    19862232.961                   104376982.2790   81332631.6970

  20650686.773    20650693.574    20650693.535   108520238.9230   84561296.2600
  81037904.9100
 22  5  2  1 16  0.0000000  0 11G02G05G06G07G09G11G13G14G15G20G30
  22556017.344    22556019.949                   118532913.9320   92363219.4110

  20986305.484    20986310.105                   110283969.9580   85935501.9480

  24457032.242    24457041.371    24457043.406   128522602.0310  100147541.7940
  95974718.6540
  21978863.289    21978867.652                   115499826.4740   89999990.3390

  24748630.227    24748638.930    24748639.664   130055131.4960  101341864.3130
  97119315.9060
  21899698.086    21899702.801    21899706.844   115083944.0200   89675729.2360
  85939242.4650
  21509546.461    21509551.383                   113033530.4110   88078081.2740

  23517124.477    23517128.809    23517132.867   123583384.8990   96298757.5540
  92286332.9130
  24589576.625    24589585.477                   129219065.3701  100690238.6571

  19865917.625    19865921.895                   104396367.6090   81347737.1390

  20660509.758    20660516.840    20660516.832   108571860.5840   84601520.9250
  81076453.5450
 22  5  2  1 16 30.0000000  0 11G02G05G06G07G09G11G13G14G15G20G30
  22573853.656    22573856.727                   118626646.6250   92436257.8290

  20980193.852    20980198.969                   110251854.3650   85910476.8320

  24483710.891    24483723.773    24483725.262   128662818.7030  100256801.4240
  96079425.7510
  21996998.063    21997002.797                   115595127.6520   90074250.9870

  24770340.195    24770349.297    24770349.609   130169220.0270  101430764.4320
  97204511.8650
  21920220.688    21920225.801    21920229.824   115191792.0150   89759766.6190
  86019778.2920
  21504144.570    21504148.578                   113005137.9090   88055957.2650

  23506420.586    23506425.477    23506429.617   123527140.8670   96254931.0920
  92244332.6100
  24577713.430    24577721.566                   129156721.6751  100641659.2211

  19869705.781    19869709.469                   104416272.5830   81363247.5040

  20670426.594    20670433.273    20670433.152   108623971.1810   84642126.5900
  81115367.3100
 22  5  2  1 17  0.0000000  0 11G02G05G06G07G09G11G13G14G15G20G30
  22591755.953    22591759.195                   118720723.3110   92509564.3040

  20974150.672    20974155.172                   110220094.9190   85885729.2280

  24510387.703    24510398.727    24510400.941   128802997.7710  100366031.7370
  96184104.8280
  22015190.523    22015194.707                   115690726.9600   90148743.9360

  24792054.188    24792061.133    24792061.785   130283319.3640  101519672.9700
  97289715.8990
  21940815.023    21940820.449    21940824.000   115300015.7350   89844096.7590
  86100594.6690
  21498785.813    21498789.902                   112976978.4770   88034014.8700

  23495748.070    23495753.949    23495758.086   123471059.0150   96211231.0250
  92202453.3730
  24565859.164    24565866.602                   129094422.8821  100593114.8071

  19873592.648    19873596.480                   104436698.5900   81379163.8730

  20680435.688    20680442.371    20680442.152   108676569.8570   84683112.5690
  81154645.5420
 22  5  2  1 17 30.0000000  0 11G02G05G06G07G09G11G13G14G15G20G30
  22609723.023    22609726.281                   118815141.5900   92583136.9860

  20968174.859    20968179.695                   110188693.8540   85861260.8790

  24537055.438    24537066.410    24537068.293   128943136.6080  100475230.7250
  96288753.8670
  22033438.211    22033442.965                   115786622.2580   90223467.5340

  24813767.523    24813775.488    24813775.738   130397429.3600  101608589.8150
  97374927.8800
  21961479.531    21961485.746    21961489.176   115408612.3800   89928717.4860
  86181689.5370
  21493471.656    21493475.848                   112949052.2620   88012254.2110

  23485106.664    23485113.148    23485117.992   123415142.4210   96167659.7160
  92160697.5390
  24554012.898    24554020.543                   129032169.6040  100544605.8180

  19877578.703    19877583.000                   104457646.9850   81395487.2970

  20690537.523    20690544.262    20690544.109   108729655.3620   84724477.9020
  81194287.3170
 22  5  2  1 18  0.0000000  0 11G02G05G06G07G09G11G13G14G15G20G30
  22627755.133    22627758.559                   118909900.9730   92656975.4500

  20962268.734    20962273.137                   110157655.3770   85837075.0710

  24563715.852    24563726.402    24563728.500   129083234.5530  100584397.8680
  96393372.2790
  22051743.313    22051748.004                   115882813.5460   90298421.7790

  24835482.727    24835492.121    24835493.063   130511551.6890  101697516.2280
  97460149.0560
  21982216.523    21982221.793    21982225.297   115517580.9770   90013628.0430
  86263062.1310
  21488201.523    21488206.309                   112921361.2330   87990676.8080

  23474499.453    23474504.797    23474509.285   123359396.0760   96124221.0620
  92119068.8540
  24542174.875    24542182.895                   128969964.1800  100496134.1520

  19881665.180    19881669.355                   104479120.4760   81412219.8850

  20700732.203    20700738.848    20700738.754   108783228.3130   84766223.0580
  81234293.0900
 22  5  2  1 18 30.0000000  0 11G02G05G06G07G09G11G13G14G15G20G30
  22645852.008    22645854.656                   119004997.7080   92731076.7640

  20956431.289    20956435.820                   110126980.4820   85813172.5710

  24590366.430    24590378.012    24590380.016   129223287.6480  100693530.0110
  96497957.2430
  22070102.992    22070108.238                   115979297.7500   90373604.2630

  24857202.945    24857211.145    24857212.551   130625684.8700  101786451.2260
  97545378.3660
  22003022.367    22003027.875    22003031.523   115626917.5160   90098825.2960
  86344709.4950
  21482976.672    21482981.262                   112893904.1670   87969281.7110

  23463923.203    23463928.738    23463933.262   123303821.8710   96080916.5540
  92077568.6970
  24530346.906    24530353.512                   128907805.9840  100447699.2760

  19885851.328    19885855.395                   104501119.2170   81429361.7630

  20711018.891    20711025.758    20711025.688   108837286.2360   84808346.1140
  81274661.0210
 22  5  2  1 19  0.0000000  0 11G02G05G06G07G09G11G13G14G15G20G30
  22664010.469    22664013.727                   119100425.1310   92805435.7760

  20950663.258    20950667.664                   110096667.5590   85789552.1290

  24617009.023    24617019.164    24617021.363   129363289.0250  100802621.8860
  96602503.6110
  22088518.516    22088523.133                   116076068.5210   90449010.0420

  24878920.406    24878931.801    24878932.707   130739824.5251  101875391.2161
  97630612.4880
  22023896.469    22023902.715    22023906.328   115736614.9810   90184303.7760
  86426626.3620
  21477795.773    21477800.141                   112866677.1310   87948065.8690

  23453380.836    23453385.914    23453389.852   123248418.7000   96037745.2670
  92036196.2560
  24518526.578    24518533.648                   128845691.1790  100399298.1830

  19890137.523    19890140.926                   104523639.8710   81446910.3160

  20721396.828    20721403.840    20721403.734   108891823.5740   84850842.7410
  81315386.9500
 22  5  2  1 19 30.0000000  0 11G02G05G06G07G09G11G13G14G15G20G30
  22682232.930    22682235.582                   119196181.7130   92880051.2600

  20944964.117    20944968.828                   110066719.5060   85766216.0010

  24643640.531    24643651.141    24643652.781   129503237.1880  100911672.3280
  96707010.2720
  22106987.781    22106991.996                   116173124.8770   90524638.3690

  24900643.469    24900653.078    24900653.461   130853971.4861  101964336.9011
  97715852.0780
  22044840.148    22044845.648    22044849.617   115846671.6010   90270062.1270
  86508811.4340
  21472658.547    21472662.762                   112839681.2570   87927030.1460

  23442870.547    23442876.734    23442880.773   123193190.7700   95994710.5910
  91994954.6880
  24506716.000    24506722.699                   128783621.5410  100350932.3820

  19894522.297    19894526.266                   104546684.8450   81464867.4420

  20731866.375    20731873.016    20731872.906   108946840.1550   84893712.8000
  81356470.7540
 22  5  2  1 20  0.0000000  0 11G02G05G06G07G09G11G13G14G15G20G30
  22700517.406    22700521.027                   119292269.6680   92954924.9760

  20939335.516    20939340.344                   110037142.4780   85743168.9780

  24670260.602    24670271.402    24670274.527   129643133.6390  101020682.4530
  96811478.2680
  22125511.039    22125515.930                   116270469.1650   90600491.0580

  24922367.688    24922377.059    24922376.840   130968129.7821  102053291.3601
  97801100.1780
  22065852.180    22065857.484    22065861.156   115957088.5310   90356101.2430
  86591265.5820
  21467566.352    21467570.469                   112812920.7620   87906177.8400

  23432395.227    23432402.082    23432405.801   123138145.3050   95951818.0780
  91953849.3730
  24494913.281    24494921.180                   128721601.3700  100302605.1030

  19899008.445    19899012.336                   104570259.2210   81483237.0800

  20742427.367    20742433.988    20742433.996   109002338.7210   84936958.4400
  81397914.4950
 22  5  2  1 20 30.0000000  0 11G02G05G06G07G09G11G13G14G15G20G30
  22718864.414    22718867.926                   119388683.6760   93030052.7280

  20933777.703    20933782.762                   110007936.1600   85720410.8280

  24696873.227    24696883.148    24696885.004   129782973.5150  101129648.4610
  96915904.0630
  22144089.398    22144094.059                   116368097.1580   90676564.8030

  24944094.172    24944102.070    24944102.332   131082296.8870  102142252.7340
  97886354.8240
  22086931.719    22086936.961    22086940.371   116067860.7680   90442417.2200
  86673985.0540
  21462518.516    21462522.488                   112786393.3720   87885507.1790

  23421955.883    23421961.977    23421966.309   123083283.1300   95909068.4090
  91912880.9480
  24483120.305    24483127.273                   128659628.9800  100254315.0400

  19903594.766    19903598.773                   104594361.7960   81502018.3080

  20753079.242    20753086.156    20753086.121   109058315.7180   84980576.8790
  81439715.5060
 22  5  2  1 21  0.0000000  0 12G02G05G06G07G09G11G13G14G15G18G20G30
  22737272.992    22737276.789                   119485422.5030   93105433.6180

  20928291.578    20928296.105                   109979104.7630   85697944.8230

  24723471.875    24723482.410    24723484.391   129922755.2650  101238569.2310
  97020286.4370
  22162721.172    22162725.938                   116466007.8190   90752858.8230

  24965821.469    24965829.766    24965829.422   131196473.7931  102231221.7231
  97971616.8390
  22108077.289    22108083.164    22108087.078   116178986.5130   90529008.6580
  86756968.5130
  21457514.828    21457519.137                   112760100.3170   87865019.1160

  23411550.492    23411556.984    23411560.680   123028608.4410   95866464.8360
  91872052.5200
  24471336.469    24471343.801                   128597706.0300  100206063.4960

  25429968.883                    25429977.500   133635591.9391
  99792666.3931
  19908282.570    19908286.516                   104618994.9740   81521212.9840

  20763822.391    20763829.328    20763829.207   109114770.8700   85024567.9120
  81481873.5690
 22  5  2  1 21 30.0000000  0 12G02G05G06G07G09G11G13G14G15G18G20G30
  22755743.586    22755747.266                   119582483.8230   93181065.7910

  20922876.656    20922881.492                   109950650.1720   85675772.4320

  24750061.930    24750070.117    24750073.133   130062476.4140  101347442.8230
  97124623.5780
  22181406.961    22181411.387                   116564199.3810   90829371.7330

  24987551.703    24987557.719    24987558.293   131310660.2920  102320198.2430
  98056885.9430
  22129290.633    22129296.699    22129300.535   116290462.9530   90615873.3770
  86840213.8480
  21452556.211    21452560.586                   112734041.9510   87844713.9150

  23401184.313    23401189.668    23401193.219   122974124.4240   95824009.8040
  91831366.4720
  24459565.016    24459570.363                   128535833.0710  100157850.9540

  25418946.438                    25418954.898   133577667.9631
  99749412.8770
  19913071.250    19913075.148                   104644159.5540   81540821.7480

  20774656.023    20774663.230    20774662.922   109171702.9030   85068930.5360
  81524387.7640
 22  5  2  1 22  0.0000000  0 12G02G05G06G07G09G11G13G14G15G18G20G30
  22774274.531    22774277.332                   119679861.3800   93256944.3720

  20917533.438    20917538.125                   109922570.8670   85653892.4690

  24776635.406    24776646.070    24776647.930   130202130.7540  101456264.2930
  97228910.8080
  22200144.672    22200149.004                   116662666.1040   90906099.0380

  25009279.508    25009288.188    25009289.207   131424852.6470  102409179.2780
  98142159.4350
  22150569.328    22150575.160    22150579.500   116402283.5620   90703006.2790
  86923716.2010
  21447641.313    21447646.008                   112708214.7510   87824588.8530

  23390851.484    23390857.922    23390862.238   122919830.6180   95781702.9940
  91790822.4660
  24447797.125    24447805.168                   128474006.5300  100109674.5070

  25407982.641                    25407992.313   133520055.1261
  99706390.3670
  19917961.008    19917964.430                   104669853.0360   81560842.6410

  20785579.766    20785586.703    20785586.469   109229106.8050   85113660.8530
  81567254.3110
 22  5  2  1 22 30.0000000  0 12G02G05G06G07G09G11G13G14G15G18G20G30
  22792864.734    22792867.148                   119777555.2230   93333069.4150

  20912262.875    20912266.953                   109894871.7210   85632308.7320

  24803199.352    24803208.445    24803210.422   130341717.7260  101565033.3080
  97333147.8090
  22218934.281    22218938.789                   116761408.2430   90983040.9620

  25031008.930    25031019.453    25031020.438   131539052.8121  102498166.4481
  98227438.7230
  22171914.008    22171919.395    22171923.305   116514447.5990   90790406.8040
  87007475.0210
  21442770.852    21442775.539                   112682620.8990   87804645.6310

  23380557.133    23380563.125    23380567.375   122865732.2030   95739548.4300
  91750424.3610
  24436041.453    24436048.309                   128412229.3990  100061536.6290

  25397079.266                    25397088.203
  99663602.1390
  19922950.891    19922954.855                   104696078.3120   81581277.9130

  20796593.484    20796600.281    20796600.027   109286983.3470   85158759.4590
  81610473.8060
 22  5  2  1 23  0.0000000  0 12G02G05G06G07G09G11G13G14G15G18G20G30
  22811515.203    22811517.934                   119875563.6760   93409439.5990

  20907064.445    20907069.211                   109867555.3030   85611023.2280

  24829747.930    24829757.324    24829759.961   130481236.1120  101673748.8970
  97437333.6170
  22237776.898    22237780.852                   116860425.0320   91060196.8940

  25052744.344    25052753.004    25052754.063   131653261.7710  102587160.4080
  98312724.6830
  22193322.203    22193328.637    22193332.297   116626953.4320   90878073.6600
  87091489.0890
  21437945.289    21437949.695                   112657261.7910   87784885.3110

  23370299.828    23370306.105    23370310.957   122811833.5650   95697549.5620
  91710175.4620
  24424295.570    24424302.184                   128350503.4720  100013438.6390

  25386234.656                    25386245.004   133405775.1041
  99621051.3610
  19928042.797    19928046.996                   104722837.6380   81602129.3370

  20807696.758    20807703.684    20807703.590   109345332.4120   85204226.2650
  81654046.1680
 22  5  2  1 23 30.0000000  0 12G02G05G06G07G09G11G13G14G15G18G20G30
  22830224.719    22830227.855                   119973884.2630   93486053.0230

  20901939.742    20901944.086                   109840624.0510   85590037.8550

  24856282.125    24856294.438    24856295.969   130620683.3190  101782409.0520
  97541466.2350
  22256671.320    22256675.238                   116959714.6320   91137565.3940

  25074479.570    25074488.453    25074488.879   131767479.4910  102676161.2440
  98398017.1010
  22214797.070    22214802.348    22214805.969   116739798.1900   90966004.6000
  87175756.2230
  21433163.688    21433168.543                   112632137.5550   87765308.0010

  23360081.242    23360088.301    23360092.723   122758137.8820   95655708.8050
  91670078.0850
  24412560.430    24412566.215                   128288828.9410   99965380.6400

  25375451.156    25375457.266    25375462.379   133349114.4920  103908250.1501
  99578739.8960
  19933237.258    19933240.926                   104750131.9660   81623397.6350

  20818889.805    20818896.965    20818896.727   109404152.5630   85250060.1590
  81697970.3080
 22  5  2  1 24  0.0000000  0 12G02G05G06G07G09G11G13G14G15G18G20G30
  22848992.500    22848996.977                   120072514.1290   93562907.4380

  20896888.438    20896892.879                   109814080.0060   85569354.1950

  24882806.688    24882815.613    24882818.121   130760056.4310  101891011.3980
  97645543.4170
  22275616.391    22275620.699                   117059274.2780   91215144.3230

  25096217.047    25096224.566    25096225.070   131881705.4110  102765168.4440
  98483315.6980
  22236334.125    22236340.102    22236343.512   116852978.4940   91054197.0060
  87260273.9420
  21428427.680    21428432.402                   112607247.9460   87745913.5210

  23349902.750    23349908.871    23349914.133   122704647.7960   95614028.2730
  91630134.2540
  24400832.313    24400839.113                   128227206.2350   99917363.1130

  25364731.273    25364737.438    25364742.184   133292776.2721  103864350.2831
  99536669.2130
  19938532.766    19938536.773                   104777962.2230   81645083.5530

  20830172.336    20830179.180    20830179.180   109463441.9940   85296259.7070
  81742244.8790
 22  5  2  1 24 30.0000000  0 12G02G05G06G07G09G11G13G14G15G18G20G30
  22867819.484    22867824.223                   120171450.1670   93640000.4210

  20891911.039    20891915.816                   109787925.0080   85548973.6900

  24909311.891    24909322.793    24909325.352   130899352.1430  101999553.4620
  97749562.8910
  22294613.000    22294617.273                   117159101.6520   91292931.8890

  25117956.578    25117962.363    25117963.121   131995938.7490  102854181.4120
  98568619.8040
  22257935.188    22257940.301    22257944.344   116966490.8550   91142648.1520
  87345039.6170
  21423735.672    21423740.332                   112582592.3220   87726701.3790

  23339762.992    23339769.926    23339773.867   122651365.7830   95572509.8680
  91590345.8130
  24389115.430    24389122.875                   128165635.1000   99869385.7100

  25354072.188    25354078.813    25354083.688   133236762.8631  103820703.4151
  99494840.9380
  19943930.852    19943934.805                   104806328.4370   81667187.0900

  20841543.969    20841550.367    20841550.367   109523198.6140   85342823.3180
  81786868.3450
 22  5  2  1 25  0.0000000  0 12G02G05G06G07G09G11G13G14G15G18G20G30
  22886706.070    22886709.473                   120270692.6600   93717332.2200

  20887009.156    20887013.535                   109762163.4150   85528899.7480

  24935804.344    24935815.629    24935816.805   131038570.9060  102108035.5490
  97853524.9140
  22313660.953    22313665.125                   117259197.5500   91370928.6940

  25139695.906    25139701.840    25139702.215   132110182.1700  102943202.2730
  98653931.4350
  22279598.594    22279604.145    22279608.102   117080335.2250   91231358.0190
  87430053.2170
  21419089.141    21419093.742                   112558173.6270   87707673.8550

  23329665.289    23329671.383    23329675.945   122598297.9040   95531158.3510
  91550717.2410
  24377409.688    24377416.672                   128104119.1110   99821451.2700

  25343476.422    25343482.723    25343486.684   133181079.2980  103777313.6250
  99453259.0730
  19949431.406    19949435.453                   104835234.3930   81689711.1990

  20853003.859    20853010.926    20853010.828   109583423.9120   85389752.1350
  81831841.7780
 22  5  2  1 25 30.0000000  0 12G02G05G06G07G09G11G13G14G15G18G20G30
  22905648.406    22905651.332                   120370234.0270   93794896.8700

  20882180.898    20882185.742                   109736792.6730   85509130.3560

  24962280.641    24962291.832    24962293.652   131177705.0860  102216451.7430
  97957423.7470
  22332758.719    22332762.344                   117359555.0000   91449129.2870

  25161435.281    25161442.520    25161442.980   132224430.5680  103032226.9530
  98739246.7890
  22301324.195    22301329.625    22301333.727   117194503.6010   91320320.3560
  87515308.7750
  21414487.023    21414491.055                   112533987.0700   87688827.2030

  23319607.445    23319613.699    23319617.332   122545442.1640   95489972.0920
  91511247.1120
  24365713.586    24365719.633                   128042653.2180   99773555.8900

  25332942.164    25332949.395    25332952.453   133125723.2111  103734179.0061
  99411921.7620
  19955033.813    19955038.020                   104864675.7390   81712652.5030

  20864552.547    20864559.355    20864559.293   109644111.3470   85437041.0450
  81877160.3230
 22  5  2  1 26  0.0000000  0 12G02G05G06G07G09G11G13G14G15G18G20G30
  22924646.367    22924649.574                   120470072.0340   93872692.7050

  20877428.000    20877432.551                   109711815.4270   85489667.5780

  24988742.148    24988751.770    24988753.766   131316752.5040  102324800.3190
  98061257.8710
  22351905.297    22351909.113                   117460172.4920   91527532.5290

  25183178.219    25183184.211    25183185.551   132338684.0991  103121255.7251
  98824565.9410
  22323110.773    22323116.770    22323120.273   117308993.4570   91409533.1930
  87600804.4190
  21409928.586    21409932.754                   112510033.1120   87670161.7990

  23309589.844    23309596.578    23309599.910   122492802.0130   95448953.8620
  91471937.9900
  24354026.219    24354033.191                   127981238.8400   99725700.6440

  25322470.508    25322478.387    25322482.102   133070697.7620  103691302.0330
  99370831.3260
  19960738.742    19960742.527                   104894653.6990   81736011.9460

  20876188.742    20876195.504    20876195.535   109705259.8380   85484689.2290
  81922823.1660
 22  5  2  1 26 30.0000000  0 12G02G05G06G07G09G11G13G14G15G18G20G30
  22943699.891    22943703.711                   120570204.2650   93950717.7740

  20872749.758    20872754.641                   109687233.7610   85470513.0530

  25015186.125    25015194.777    25015197.219   131455710.7360  102433079.4490
  98165025.2990
  22371100.680    22371105.180                   117561048.0510   91606136.8540

  25204921.953    25204927.391    25204926.367
  98909889.0210
  22344958.383    22344964.301    22344967.742   117423801.9430   91498994.3090
  87686537.9900
  21405414.141    21405418.934                   112486312.1810   87651677.9890

  23299614.711    23299620.910    23299624.066   122440380.7710   95408106.1840
  91432792.3120
  24342349.383    24342356.285                   127919876.2020   99677885.6970

  25312063.578    25312070.703    25312075.012   133016005.4271  103648684.6511
  99329989.6070
  19966545.891    19966549.438                   104925169.3000   81759790.3300

  20887912.391    20887919.066    20887919.121   109766868.0150   85532695.6000
  81968829.2800
 22  5  2  1 27  0.0000000  0 11G02G05G06G07G11G13G14G15G18G20G30
  22962810.055    22962813.738                   120670627.0190   94028969.2670

  20868148.211    20868152.613                   109663048.8460   85451667.6820

  25041610.664    25041619.734    25041621.801   131594576.1490  102541286.1910
  98268723.4210
  22390345.180    22390349.742                   117662178.6750   91684939.9530

  22366865.836    22366871.734    22366874.820   117538925.0490   91588700.5900
  87772506.5010
  21400944.859    21400949.000                   112462822.9830   87633374.7450

  23289680.430    23289687.465    23289691.141   122388180.4170   95367430.6480
  91393811.5840
  24330680.211    24330688.578                   127858565.0790   99630110.8950

  25301719.539    25301726.613    25301730.586   132961647.4221  103606327.7561
  99289397.6280
  19972454.766    19972459.020                   104956222.6390   81783987.7260

  20899723.211    20899729.855    20899729.645   109828933.3130   85581058.1820
  82015176.7480
 22  5  2  1 27 30.0000000  0 11G02G05G06G07G11G13G14G15G18G20G30
  22981975.461    22981978.328                   120771340.2670   94107447.1040

  20863622.180    20863626.801                   109639265.8150   85433135.4520

  25068018.094    25068027.672    25068029.559   131733348.8940  102649420.7080
  98372352.3170
  22409638.680    22409643.012                   117763564.9790   91763942.2610

  22388833.055    22388838.770    22388841.824   117654362.4090   91678651.7320
  87858709.6820
  21396519.359    21396523.742                   112439568.5680   87615254.4570

  23279790.758    23279797.336    23279800.824   122336206.6430   95326931.6730
  91355000.0720
  24319024.352    24319032.305                   127797308.6330   99582378.7410

  25291440.641    25291446.730    25291450.871   132907629.3301  103564235.7691
  99249059.4330
  19978467.523    19978470.934                   104987816.7020   81808606.4740

  20911620.891    20911627.707    20911627.406   109891456.8370   85629777.8170
  82061866.4060
 22  5  2  1 28  0.0000000  0 11G02G05G06G07G11G13G14G15G18G20G30
  23001196.617    23001199.488                   120872341.8410   94186149.5880

  20859172.945    20859178.023                   109615887.0760   85414918.2690

  25094406.398    25094417.461    25094419.785   131872026.8810  102757481.4040
  98475910.5150
  22428979.961    22428984.641                   117865205.3170   91843142.5120

  22410858.492    22410864.859    22410868.559   117770111.4320   91768845.7300
  87945145.5960
  21392138.836    21392143.156                   112416549.0630   87597317.2060

  23269944.016    23269950.828    23269955.051   122284462.8940   95286611.9180
  91316360.3220
  24307378.680    24307385.348                   127736107.2310   99534689.4260

  25281227.234    25281232.898    25281237.105   132853953.8880  103522410.7740
  99208977.1400
  19984582.219    19984586.313                   105019952.7740   81833647.5650

  20923605.539    20923612.516    20923612.242   109954437.3860   85678853.5830
  82108897.3390
 22  5  2  1 28 30.0000000  0 11G02G05G06G07G11G13G14G15G18G20G30
  23020469.211    23020472.961                   120973628.7340   94265074.4290

  20854801.438    20854806.238                   109592913.9700   85397017.1700

  25120777.914    25120787.625    25120791.066   132010607.1750  102865465.9970
  98579395.7160
  22448369.008    22448373.898                   117967097.3500   91922538.8940

  22432943.836    22432949.945    22432953.410   117886168.7080   91859279.9380
  88031811.6890
  21387802.984    21387807.309                   112393764.1990   87579562.7790

  23260142.844    23260149.090    23260152.844   122232951.8620   95246473.5150
  91277894.3540
  24295742.508    24295749.797                   127674961.3070   99487043.3440

  25271076.094    25271084.223    25271088.652   132800623.0901  103480854.3291
  99169152.2290
  19990801.227    19990804.828                   105052631.2930   81859111.3440

  20935677.141    20935683.965    20935683.602   110017873.0680   85728283.9960
  82156268.1580
 22  5  2  1 29  0.0000000  0 11G02G05G06G07G11G13G14G15G18G20G30
  23039797.406    23039801.523                   121075197.3070   94344218.7470

  20850507.172    20850512.008                   109570347.7980   85379433.1460

  25147131.203    25147140.129    25147142.422   132149086.2020  102973371.7230
  98682805.2850
  22467805.750    22467810.379                   118069238.0340   92002129.0350

  22455087.000    22455092.121    22455096.348   118002530.2270   91949951.2230
  88118705.0010
  21383511.695    21383516.109                   112371213.1800   87561990.5920

  23250385.164    23250390.559    23250395.402   122181675.5750   95206517.9960
  91239603.6640
  24284117.305    24284124.715                   127613870.2110   99439439.9870

  25260995.422    25261001.301    25261005.629   132747638.5861  103439567.6711
  99129585.8900
  19997122.047    19997126.367                   105085851.9300   81884997.5540

  20947834.695    20947841.410    20947841.188   110081761.2240   85778066.9850
  82203976.8610
 22  5  2  1 29 30.0000000  0 11G02G05G06G07G11G13G14G15G18G20G30
  23059178.711    23059181.875                   121177044.1110   94423579.8990

  20846290.656    20846295.660                   109548189.9340   85362167.2840

  25173462.648    25173471.879    25173474.680   132287460.8930  103081196.0740
  98786136.9850
  22487289.398    22487294.043                   118171624.6940   92081910.8430

  22477287.563    22477292.438    22477296.711   118119192.2200   92040856.6190
  88205822.6760
  21379264.758    21379269.059                   112348895.3480   87544600.0820

  23240673.023    23240677.984    23240682.699   122130636.3550   95166747.2280
  91201490.0300
  24272503.047    24272509.676                   127552833.7180   99391879.1490

  25250978.547    25250985.102    25250989.586   132695002.3121  103398552.4101
  99090279.5370
  20003547.594    20003551.285                   105119614.4470   81911306.0030

  20960078.211    20960084.535    20960084.344   110146099.5350   85828200.7470
  82252021.7120
 22  5  2  1 30  0.0000000  0 11G02G05G06G07G11G13G14G15G18G20G30
  23078612.445    23078614.930                   121279166.4840   94503155.6970

  20842152.125    20842157.145                   109526442.2910   85345221.0820

  25199774.055    25199783.574    25199785.797   132425728.5360  103188937.0570
  98889388.7870
  22506819.000    22506823.988                   118274254.8600   92161882.3870

  22499543.984    22499548.801    22499553.602   118236151.6750   92131993.8190
  88293162.4790
  21375061.852    21375066.602                   112326810.5420   87527391.1570

  23231005.922    23231011.285    23231015.754   122079837.2390   95127163.5550
  91163555.6840
  24260898.289    24260904.813                   127491852.2740   99344361.2130

  25241030.125    25241035.855    25241039.941   132642716.4021  103357810.1501
  99051234.9090
  20010075.641    20010079.219                   105153919.7230   81938037.3700

  20972406.031    20972413.000    20972413.000   110210886.3640   85878684.0080
  82300401.5100
 22  5  2  1 30 30.0000000  0 11G02G05G06G07G11G13G14G15G18G20G30
  23098096.563    23098100.941                   121381562.7070   94582944.9340

  20838092.633    20838097.344                   109505107.8360   85328596.8490

  25226063.984    25226074.293    25226077.008   132563887.6260  103296593.4790
  98992559.4540
  22526396.109    22526400.133                   118377127.8990   92242043.1870

  22521856.914    22521861.781    22521866.563   118353406.5250   92223361.1950
  88380722.8610
  21370904.164    21370908.719                   112304960.0400   87510364.8220

  23221386.211    23221390.012    23221395.234   122029282.1740   95087770.0460
  91125803.5760
  24249305.406    24249311.145                   127430927.4650   99296887.3850

  25231147.633    25231154.059    25231157.168   132590784.3761  103317343.6311
  99012454.5170
  20016707.297    20016711.129                   105188769.2640   81965192.8600

  20984819.875    20984826.574    20984826.770   110276121.1130   85929516.2900
  82349115.7710
 22  5  2  1 31  0.0000000  0 11G02G05G06G07G11G13G14G15G18G20G30
  23117634.188    23117637.352                   121484233.4930   94662948.1200

  20834112.219    20834117.020                   109484191.9980   85312298.7950

  25252334.977    25252344.938    25252347.199   132701938.8550  103404165.7970
  99095649.6450
  22546018.625    22546022.570                   118480245.3130   92322394.4110

  22544225.578    22544231.438    22544235.938   118470957.0590   92314958.9870
  88468504.0540
  21366791.305    21366795.750                   112283346.9510   87493523.4780

  23211811.766    23211817.566    23211822.543   121978977.6390   95048571.7550
  91088238.5820
  24237722.172    24237728.895                   127370063.1450   99249460.6590

  25221332.672    25221340.020    25221343.391   132539212.2431  103277157.5631
  98973942.8500
  20023442.898    20023447.027                   105224166.9690   81992775.4790

  20997319.250    20997326.129    20997326.027   110341805.4810   85980698.9280
  82398165.8090
 22  5  2  1 31 30.0000000  0 11G02G05G06G07G11G13G14G15G18G20G30
  23137225.977    23137228.523                   121587177.3340   94743164.0530

  20830212.891    20830217.121                   109463698.5210   85296329.8560

  25278584.781    25278594.918    25278596.523   132839881.0220  103511653.0890
  99198658.3400
  22565686.805    22565691.469                   118583605.8580   92402935.0830

  22566650.328    22566655.984    22566660.352   118588801.4370   92406785.7450
  88556504.6820
  21362723.945    21362728.230                   112261972.8250   87476868.3170

  23202288.023    23202293.852    23202298.477   121928927.8610   95009571.9530
  91050863.7740
  24226150.914    24226158.945                   127309260.9380   99202082.4650

  25211589.008    25211595.215    25211599.035   132488003.5531  103237254.6911
  98935702.5870
  20030283.516    20030287.570                   105260114.6420   82020786.6460

  21009904.000    21009910.934    21009910.754   110407939.0010   86032231.5500
  82447551.2390
 22  5  2  1 32  0.0000000  0 11G02G05G06G07G11G13G14G15G18G20G30
  23156862.914    23156867.098                   121690384.0430   94823584.8080

  20826392.055    20826396.820                   109443621.5970   85280685.5170

  25304809.539    25304821.176    25304824.055   132977704.2030  103619047.6720
  99301578.0700
  22585400.594    22585404.895                   118687200.2200   92483657.9610

  22589129.344    22589135.789    22589139.449   118706929.1460   92498833.2800
  88644716.9090
  21358700.570    21358704.828                   112240829.9520   87460393.3640

  23192811.961    23192817.930    23192821.449   121879128.2860   94970767.1690
  91013675.8610
  24214591.219    24214598.238                   127248513.6040   99154746.9080

  25201913.547    25201918.531    25201922.316   132437153.2391  103197631.0431
  98897729.9140
  20037227.711    20037231.500                   105296605.5380   82049221.1090

  21022572.617    21022579.414    21022579.297   110474512.5660   86084107.0680
  82497265.2790
 22  5  2  1 32 30.0000000  0 11G02G05G06G07G11G13G14G15G18G20G30
  23176554.109    23176558.430                   121793855.6750   94904212.0500

  20822652.031    20822656.938                   109423968.1340   85265371.1340

  25331015.273    25331026.063    25331028.223   133115410.6940  103726351.3470
  99404410.6930
  22605158.742    22605163.402                   118791031.1270   92564565.1510

  22611663.234    22611669.043    22611672.375   118825341.8810   92591102.9240
  88733141.9860
  21354721.805    21354726.289                   112219923.4390   87444102.5970

  23183384.500    23183390.180    23183393.887   121829586.7990   94932163.4610
  90976680.6860
  24203042.711    24203050.723                   127187826.7430   99107458.5240

  25192304.141    25192311.180    25192315.441   132386668.4531  103158292.2231
  98860030.2070
  20044276.078    20044279.879                   105333644.5880   82078082.6920

  21035325.438    21035332.160    21035332.238   110541529.2540   86136327.8690
  82547310.2200
 22  5  2  1 33  0.0000000  0 11G02G05G06G07G11G13G14G15G18G20G30
  23196295.688    23196296.973                   121897590.6580   94985044.4600

  20818993.703    20818998.156                   109404741.3140   85250389.2110

  25357197.734    25357208.480    25357210.578   133252999.0030  103833562.8570
  99507155.0130
  22624962.000    22624966.496                   118895097.8400   92645656.0820

  22634250.586    22634256.207    22634259.113   118944037.7670   92683593.1660
  88821778.4500
  21350788.500    21350793.133                   112199254.2350   87427996.7360

  23174005.844    23174012.957    23174016.008   121780307.5630   94893764.1190
  90939881.2990
  24191507.484    24191513.844                   127127202.0350   99060218.6010

  25182768.961    25182775.125    25182778.957   132336552.7700  103119241.0360
  98822606.1460
  20051429.094    20051432.984                   105371233.6990   82107372.9000

  21048162.664    21048169.352    21048169.113   110608988.5050   86188893.5340
  82597685.6460
 22  5  2  1 33 30.0000000  0 11G02G05G06G07G11G13G14G15G18G20G30
  23216086.664    23216089.145                   122001589.9200   95066082.7710

  20815417.078    20815421.727                   109385947.0830   85235744.3590

  25383357.914    25383368.918    25383370.938   133390470.4190  103940683.2530
  99609812.0970
  22644810.391    22644814.762                   118999401.6840   92726931.7900

  22656891.430    22656897.137    22656900.324   119063017.3130   92776304.4810
  88910626.7810
  21346901.391    21346905.902                   112178826.1250   87412078.7430

  23164679.539    23164686.160    23164689.258   121731297.1910   94855574.2750
  90903282.7020
  24179983.828    24179990.234                   127066643.5060   99013030.1560

  25173304.500    25173309.727    25173313.746   132286812.4330  103080482.2830
  98785462.3620
  20058687.266    20058691.359                   105409377.0200   82137094.9720

  21061084.398    21061091.020    21061090.820   110676892.3320   86241805.6140
  82648393.0560
 22  5  2  1 34  0.0000000  0 11G02G05G06G07G11G13G14G15G18G20G30
  23235923.117    23235927.180                   122105846.5720   95147321.7250

  20811922.719    20811926.910                   109367583.1150   85221434.7840

  25409495.680    25409505.402    25409507.602   133527818.7410  104047707.7100
  99712377.1790
  22664703.164    22664707.027                   119103936.7360   92808387.6620

  22679585.555    22679590.625    22679593.832   119182273.4620   92869231.3190
  88999681.6690
  21343059.336    21343063.594                   112158635.3090   87396345.6590

  23155405.000    23155411.410    23155414.199   121682554.7250   94817593.1810
  90866884.1400
  24168470.617    24168477.633                   127006147.6660   98965890.6320

  25163908.141    25163915.707    25163919.469   132237445.8160  103042014.7350
  98748597.6240
  20066050.445    20066054.605                   105448071.0810   82167246.1830

  21074089.430    21074096.234    21074095.934   110745234.9750   86295059.6310
  82699428.1620
 22  5  2  1 34 30.0000000  0 11G02G05G06G07G11G13G14G15G18G20G30
  23255811.789    23255815.477                   122210355.0840   95228756.8830

  20808509.242    20808514.023                   109349648.1510   85207459.4950

  25435607.750    25435616.785    25435619.734   133665038.0220  104154631.6620
  99814845.8750
  22684638.078    22684642.473                   119208698.1190   92890019.8980

  22702330.984    22702336.438    22702339.848   119301800.0530   92962368.8590
  89088938.5000
  21339261.469    21339266.168                   112138678.5210   87380794.9280

  23146181.070    23146186.516    23146190.500   121634079.9800   94779820.7010
  90830685.5210
  24156970.539    24156977.238                   126945711.7780   98918797.7710

  25154586.648    25154592.648    25154596.215   132188452.0460  103003837.6920
  98712011.3210
  20073517.930    20073521.977                   105487313.2120   82197824.4590

  21087176.711    21087184.035    21087183.691   110814011.5920   86348651.8130
  82750787.3320
 22  5  2  1 35  0.0000000  0 11G02G05G06G07G11G13G14G15G18G20G30
  23275746.680    23275748.965                   122315112.6230   95310386.0630

  20805178.656    20805183.422                   109332144.8970   85193820.6060

  25461694.531    25461704.199    25461706.793   133802126.1830  104261453.3800
  99917216.6460
  22704616.758    22704620.938                   119313684.1040   92971827.1450

  22725125.383    22725131.855    22725135.551   119421594.1930   93055714.8940
  89178395.1040
  21335508.359    21335513.074                   112118956.0200   87365426.7600

  23137008.508    23137013.230    23137017.934   121585876.2210   94742259.3680
  90794689.2860
  24145481.039    24145488.090                   126885336.6010   98871752.2580

  25145333.633    25145341.148    25145344.777   132139833.8901  102965953.4311
  98675705.4940
  20081090.109    20081094.098                   105527104.1700   82228830.3940

  21100347.016    21100353.988    21100353.922   110883220.7510   86402581.0220
  82802469.4910
 22  5  2  1 35 30.0000000  0 11G02G05G06G07G11G13G14G15G18G20G30
  23295725.273    23295731.676                   122420116.6450   95392207.3720

  20801930.547    20801935.031                   109315075.0970   85180519.4680

  25487751.648    25487766.387    25487768.047
 100019487.7610
  22724636.898    22724641.406                   119418892.2810   93053807.5310

  22747971.633    22747978.566    22747983.055   119541652.7790   93149267.0100
  89268049.2060
  21331799.859    21331804.496                   112099468.0170   87350241.3160

  23127887.180    23127892.570    23127896.613   121537946.4720   94704911.5570
  90758897.6440
  24134004.102    24134010.680                   126825022.6820   98824754.4880

  25136153.578    25136161.129    25136164.898   132091593.6521  102928363.5701
  98639681.8880
  20088767.234    20088770.398                   105567444.3080   82260264.2650

  21113599.078    21113606.109    21113605.820   110952860.6950   86456845.9250
  82854473.3520
 22  5  2  1 36  0.0000000  0 11G02G05G06G07G11G13G14G15G18G20G30
  23315758.109    23315758.820                   122525365.8130   95474219.6650

  20798764.992    20798770.133                   109298442.0560   85167558.6650

  25513791.984    25513802.766    25513804.242
 100121658.2180
  22744699.281    22744704.090                   119524322.0260   93135960.5600

  22770870.023    22770874.176    22770878.836   119661974.0890   93243023.8550
  89357899.5140
  21328136.570    21328140.996                   112080215.6970   87335239.5280

  23118819.898    23118824.316    23118829.113   121490295.0340   94667780.6080
  90723313.8260
  24122537.930    24122545.063                   126764771.6200   98777805.6390

  25127047.570    25127053.816    25127057.695   132043735.0111  102891071.1351
  98603943.2740
  20096547.961    20096551.781                   105608335.1550   82292127.2450

  21126933.008    21126939.992    21126939.684   111022930.9780   86511446.1540
  82906798.5850
 22  5  2  1 36 30.0000000  0 11G02G05G06G07G11G13G14G15G18G20G30
  23335830.734    23335835.105                   122630858.5950   95556421.7370

  20795683.414    20795688.555                   109282248.7400   85154940.5140

  25539804.852    25539813.477    25539814.617   134212585.4671  104581290.8361
 100223727.3170
  22764803.922    22764808.801                   119629972.6040   93218285.6690

  22793815.359    22793820.848    22793825.488   119782556.1240   93336983.8030
  89447944.4570
  21324517.617    21324522.324                   112061200.3450   87320422.3960

  23109804.531    23109810.152    23109815.059   121442925.8930   94630869.6470
  90687940.8180
  24111085.141    24111091.824                   126704585.5700   98730907.4970

  25118012.883    25118020.188    25118023.957   131996261.3521  102854078.6801
  98568492.1810
  20104434.383    20104438.137                   105649778.3530   82324420.6450

  21140348.500    21140355.563    21140355.359   111093430.9340   86566381.1840
  82959444.6470
 22  5  2  1 37  0.0000000  0 11G02G05G06G07G11G13G14G15G18G20G30
  23355951.453    23355954.168                   122736588.8750   95638809.0060

  20792685.789    20792690.559                   109266494.6380   85142664.5900

  25565786.594    25565796.848    25565798.367   134349128.9171  104687687.9941
 100325691.2330
  22784949.945    22784954.359                   119735839.3960   93300779.2510

  22816810.016    22816815.246    22816819.422   119903393.0900   93431142.4820
  89538179.8270
  21320943.531    21320948.324                   112042419.1350   87305787.6920

  23100843.688    23100849.414    23100854.543   121395839.4470   94594178.9500
  90652778.9340
  24099644.961    24099651.012                   126644461.9680   98684057.9590

  25109053.117    25109058.883    25109063.172   131949172.6691  102817386.1361
  98533328.4880
  20112425.242    20112429.223                   105691771.6890   82357142.7200

  21153845.320    21153852.102    21153852.141   111164356.1760   86621647.6210
  83012408.3200
 22  5  2  1 37 30.0000000  0 11G02G05G06G07G11G13G14G15G18G20G30
  23376116.156    23376118.891                   122842553.2930   95721378.5810

  20789771.781    20789776.609                   109251180.6630   85130731.6320

  25591741.648    25591752.797    25591755.352
 100427547.3200
  22805136.445    22805140.984                   119841919.2410   93383438.8630

  22839851.648    22839857.148    22839862.297   120024480.8190   93525496.5220
  89628602.4240
  21317414.586    21317418.625                   112023871.2470   87291334.8060

  23091937.414    23091943.508    23091949.012   121349037.5790   94557709.9760
  90617829.5150
  24088215.070    24088221.676                   126584400.1940   98637256.6320

  25100166.133    25100171.652    25100176.172
  98498453.0920
  20120520.680    20120524.895                   105734314.1880   82390292.7060

  21167422.641    21167429.156    21167429.164   111235703.8280   86677243.1950
  83065687.4050
 22  5  2  1 38  0.0000000  0 11G02G05G06G07G11G13G14G15G18G20G30
  23396322.703    23396327.004                   122948751.8000   95804130.6210

  20786942.375    20786946.883                   109236311.6140   85119145.3640

  25617671.461    25617681.750    25617684.148
 100529295.8920
  22825362.602    22825367.809                   119948212.8600   93466265.0430

  22862941.906    22862947.758    22862951.887   120145819.0780   93620045.7790
  89719212.1300
  21313929.844    21313934.094                   112005559.6010   87277066.0070

  23083086.391    23083092.559    23083097.250   121302526.1060   94521467.3080
  90583096.9670
  24076797.344    24076804.500                   126524404.0920   98590506.4780

  25091354.000    25091359.289    25091363.492
  98463869.8350
  20128721.594    20128725.477                   105777409.0060   82423873.0800

  21181080.008    21181086.914    21181086.617   111307474.9270   86733168.7260
  83119282.7150
 22  5  2  1 38 30.0000000  0 10G02G05G07G11G13G14G15G18G20G30
  23416577.797    23416581.273                   123055181.6660   95887062.9650

  20784197.945    20784202.363                   109221888.9980   85107906.9640

  22845629.977    22845635.211                   120054718.1100   93549256.1290

  22886077.805    22886084.527    22886088.504   120267404.7290   93714787.7980
  89810006.5530
  21310490.078    21310494.574                   111987483.9980   87262981.1330

  23074292.055    23074298.215    23074302.875   121256307.9090   94485453.1770
  90548583.4240
  24065393.109    24065400.563                   126464473.6180   98543807.5370

  25082614.820    25082621.926    25082625.684   131810240.6241  102709127.3191
  98429580.5120
  20137027.016    20137031.230                   105821056.3420   82457883.9850

  21194818.094    21194824.637    21194824.508   111379667.6750   86789422.8250
  83173192.8940
 22  5  2  1 39  0.0000000  0 10G02G05G07G11G13G14G15G18G20G30
  23436874.516    23436875.457                   123161839.3350   95970172.7880

  20781538.477    20781542.949                   109207914.0640   85097017.4150

  22865937.008    22865942.359                   120161432.3960   93632410.1040

  22909262.539    22909268.469    22909271.449   120389233.5990   93809719.3790
  89900982.6430
  21307095.016    21307099.828                   111969643.6840   87249079.6040

  23065553.844    23065559.281    23065563.039   121210385.0250   94449669.1450
  90514290.4130
  24054000.719    24054008.020                   126404608.6190   98497159.5390

  25073953.109    25073958.727    25073962.887
  98395586.0140
  20145438.352    20145442.328                   105865256.1620   82492325.3870

  21208634.797    21208642.137    21208641.895   111452279.3090   86846003.3210
  83227415.8610
 22  5  2  1 39 30.0000000  0 10G02G05G07G11G13G14G15G18G20G30
  23457212.352    23457215.828                   123268721.1260   96053457.2300

  20778964.750    20778969.227                   109194388.2360   85086477.8130

  22886284.352    22886288.680                   120268353.0540   93715724.8870

  22932491.875    22932496.422    22932500.418   120511302.0980   93904837.6360
  89992137.6280
  21303744.602    21303749.395                   111952037.9140   87235360.8520

  23056872.180    23056877.570    23056881.121   121164759.7600   94414117.0320
  90480219.6460
  24042622.266    24042628.270                   126344809.0090   98450562.4820

  25065365.203    25065370.684    25065375.496   131719591.1710  102638491.3130
  98361887.6420
  20153954.133    20153958.102                   105910007.3240   82527196.4180

  21222532.008    21222538.891    21222538.676   111525307.3700   86902908.3110
  83281949.8090
 22  5  2  1 40  0.0000000  0 11G02G05G06G07G11G13G14G15G18G20G30
  23477594.859    23477596.133                   123375825.6700   96136915.3050

  20776476.719    20776481.383                   109181314.7490   85076290.6830

  25721102.273    25721114.223    25721116.031   135165321.2551  105323660.1701
 100935176.4911
  22906669.203    22906674.102                   120375479.3810   93799199.9320

  22955764.383    22955771.395    22955774.664   120633608.3390   94000141.1550
  90083470.1710
  21300440.125    21300444.129                   111934668.1350   87221825.9650

  23048248.133    23048253.074    23048255.750   121119436.4120   94378800.1680
  90446374.3150
  24031255.305    24031261.711                   126285076.3160   98404017.6290

  25056852.891    25056859.672    25056864.973   131674864.9310  102603639.6730
  98328488.1560
  20162575.242    20162579.289                   105955311.6020   82562498.4410

  21236507.828    21236514.867    21236514.617   111598751.3900   86960137.4150
  83336794.3700
 22  5  2  1 40 30.0000000  0 11G02G05G06G07G11G13G14G15G18G20G30
  23498016.234    23498020.266                   123483148.8680   96220543.6720

  20774075.477    20774079.973                   109168694.2570   85066456.5380

  25746886.789    25746899.102    25746900.266   135300818.4211  105429241.8681
 101036358.8670
  22927093.484    22927097.828                   120482808.2430   93882832.7940

  22979083.031    22979088.980    22979093.617   120756148.1060   94095626.6690
  90174977.0990
  21297178.914    21297183.309                   111917533.3030   87208474.1700

  23039680.125    23039686.059    23039688.301   121074416.7720   94343719.9610
  90412755.7960
  24019901.039    24019908.344                   126225410.3020   98357524.6750

  25048418.695    25048425.133    25048429.418   131630540.1080  102569100.8240
  98295388.4120
  20171301.648    20171305.496                   106001168.1140   82598230.7790

  21250562.242    21250569.355    21250569.113   111672608.4170   87017688.3470
  83391947.3420
 22  5  2  1 41  0.0000000  0 11G02G05G06G07G11G13G14G15G18G20G30
  23518479.977    23518484.734                   123590690.9060   96304342.6460

  20771760.664    20771765.305                   109156531.3790   85056978.9720

  25772642.570    25772654.230    25772656.094   135436160.0631  105534708.4181
 101137425.0550
  22947556.328    22947560.648                   120590340.2750   93966623.9740

  23002446.898    23002452.801    23002456.246   120878921.1310   94191293.9020
  90266658.2280
  21293963.266    21293967.754                   111900636.3290   87195307.7150

  23031171.609    23031177.949    23031179.953   121029706.5970   94308880.9070
  90379368.3760
  24008560.914    24008566.805                   126165814.2290   98311086.2620

  25040061.148    25040068.008    25040072.336   131586621.6811  102534878.6701
  98262592.1550
  20180133.227    20180137.492                   106047579.7320   82634395.6610

  21264695.813    21264702.508    21264702.469   111746879.4420   87075561.8740
  83447409.4800
 22  5  2  1 41 30.0000000  0 10G02G05G07G11G13G14G15G18G20G30
  23239195.156    23239198.656                   122123031.3050   95160711.7850

  20469741.000    20469745.398                   107569406.8960   83820258.6010

  22668264.844    22668269.840                   119122656.0210   92822973.8870

  22726061.266    22726067.184    22726071.676   119426507.2080   93059542.7510
  89182063.3540
  20991000.164    20991004.738                   110308554.9280   85954724.8300

  22722930.367    22722936.039    22722938.547   119409886.1580   93046683.1940
  89169762.2230
  23697440.469    23697446.387                   124530865.4780   97037100.2710

  24731990.117    24731994.855    24731999.633   129967689.4060  101273372.9610
  97053649.1600
  19889278.969    19889282.594                   104519127.2320   81443393.7020

  20979115.391    20979122.063    20979121.977   110246143.9450   85906157.5940
  82326730.3740
 22  5  2  1 42  0.0000000  0 11G02G05G06G07G11G13G14G15G18G20G30
  23259739.750    23259743.289                   122230997.0690   95244840.8390

  20467600.703    20467605.180                   107558160.4030   83811495.1030

  25524268.367    25524281.000    25524283.074
 100162750.3521
  22688803.617    22688807.754                   119230583.3990   92907073.1250

  22749510.172    22749516.895    22749520.730   119549732.1580   93155562.1650
  89274081.9830
  20987874.180    20987878.742                   110292128.2660   85941924.8450

  22714539.828    22714546.273    22714549.582   119365798.5290   93012329.2600
  89136839.6920
  23686125.508    23686132.043                   124471405.6040   96990767.9460

  24723786.688    24723792.836    24723797.102   129924585.5070  101239785.5460
  97021461.1980
  19898320.633    19898324.691                   104566644.8640   81480420.4210

  20993404.227    20993411.082    20993410.867   110321232.2890   85964667.9830
  82382802.8290
 22  5  2  1 42 30.0000000  0 10G02G05G07G11G13G14G15G18G20G30
  23280324.891    23280329.012                   122339170.8970   95329132.1250

  20465548.453    20465552.781                   107547374.6400   83803090.6180

  22709378.352    22709382.438                   119338705.5980   92991324.1730

  22773001.281    22773007.285    22773011.543   119673178.5180   93251754.0990
  89366265.8870
  20984793.719    20984797.813                   110275937.0420   85929308.3240

  22706209.516    22706216.078    22706220.715   119322026.6040   92978221.3060
  89104152.9150
  23674824.555    23674830.113                   124412015.0420   96944489.6300

  24715662.063    24715668.852    24715672.977   129881892.3330  101206518.1430
  96989579.8920
  19907468.656    19907472.359                   104614715.6090   81517878.1260

  21007770.219    21007777.137    21007777.148   110396726.5630   86023494.6880
  82439178.4200
 22  5  2  1 43  0.0000000  0 10G02G05G07G11G13G14G15G18G20G30
  23300948.828    23300952.270                   122447553.0050   95413585.6740

  20463584.352    20463589.121                   107537054.4780   83795048.9390

  22729990.344    22729994.750                   119447024.3310   93075728.3650

  22796534.203    22796541.316    22796544.855   119796846.2560   93348118.5250
  89458615.1530
  20981757.922    20981762.102                   110259984.3260   85916877.6570

  22697941.430    22697947.844    22697952.770   119278576.4650   92944364.0830
  89071706.4260
  23663536.625    23663542.117                   124352697.2020   96898268.0050

  24707616.734    24707624.086    24707628.184   129839615.2471  101173574.9081
  96958009.3660
  19916722.008    19916725.926                   104663343.0110   81555769.5970

  21022213.828    21022220.742    21022220.656   110472628.0770   86082638.7260
  82495858.1190
 22  5  2  1 43 30.0000000  0 10G02G05G07G11G13G14G15G18G20G30
  23321612.633    23321616.188                   122556138.3610   95498197.5660

  20461709.203    20461713.566                   107527199.9100   83787370.0600

  22750639.852    22750643.879                   119555535.2180   93160282.2840

  22820108.977    22820114.914    22820119.820   119920730.1650   93444651.4370
  89551125.8210
  20978767.078    20978771.449                   110244268.3460   85904631.4600

  22689734.328    22689740.766    22689746.082   119235448.8560   92910758.1920
  89039500.8120
  23652261.820    23652267.379                   124293450.7210   96852101.9610

  24699651.938    24699658.035    24699662.000   129797754.3790  101140956.0520
  96926749.5980
  19926080.758    19926084.777                   104712524.7180   81594092.9900

  21036734.359    21036740.918    21036740.715   110548932.8690   86142096.9990
  82552838.9630
 22  5  2  1 44  0.0000000  0 10G02G05G07G11G13G14G15G18G20G30
  23342314.125    23342316.809                   122664920.8490   95582963.0960

  20459922.180    20459926.738                   107517809.7450   83780053.0470

  22771323.773    22771328.398                   119664232.5580   93244981.4860

  22843723.758    22843729.500    22843732.801   120044823.9500   93541347.8380
  89643793.1920
  20975820.961    20975825.324                   110228785.4490   85892566.8930

  22681589.641    22681594.688    22681600.164   119192643.5120   92877403.4280
  89007535.8230
  23641000.758    23641006.051                   124234272.6460   96805989.2230

  24691765.219    24691770.781    24691775.152   129756308.6971  101108660.6971
  96895799.9260
  19935545.156    19935548.906                   104762257.7820   81632846.0140

  21051330.453    21051337.012    21051336.891   110625635.7970   86201865.5070
  82610117.1230
 22  5  2  1 44 30.0000000  0 10G02G05G07G11G13G14G15G18G20G30
  23363052.211    23363054.688                   122773901.0000   95667882.6320

  20458224.961    20458229.316                   107508888.8990   83773101.7470

  22792043.438    22792049.074                   119773117.8770   93329827.1700

  22867377.633    22867383.164    22867387.570   120169127.5040   93638207.7340
  89736617.2410
  20972918.969    20972923.813                   110213539.0710   85880686.6080

  22673506.367    22673511.723    22673516.496   119150166.3790   92844304.3880
  88975815.9480
  23629752.586    23629758.215                   124175166.7500   96759932.7550

  24683958.102    24683964.410    24683968.340   129715283.5061  101076693.0351
  96865164.2560
  19945114.414    19945118.184                   104812545.1560   81672030.9710

  21066002.188    21066009.078    21066008.945   110702738.1410   86261945.2550
  82667693.5360
 22  5  2  1 45  0.0000000  0 10G02G05G07G11G13G14G15G18G20G30
  23383826.578    23383830.844                   122883076.0690   95752954.0370

  20456616.914    20456621.398                   107500439.4450   83766517.7600

  22812798.836    22812804.574                   119882189.4900   93414818.0120

  22891071.680    22891077.188    22891080.637   120293638.0220   93735228.8940
  89829595.8370
  20970063.078    20970067.695                   110198529.6580   85868990.9790

  22665487.398    22665492.137    22665496.547   119108020.6490   92811463.5950
  88944343.5280
  23618518.086    23618525.383                   124116133.9840   96713933.2660

  24676230.773    24676238.629    24676242.375   129674681.3300  101045055.0210
  96834844.4160
  19954789.438    19954793.082                   104863387.0460   81711648.0160

  21080750.195    21080757.020    21080756.813   110780238.2710   86322334.9620
  82725567.0110
 22  5  2  1 45 30.0000000  0 10G02G05G07G11G13G14G15G18G20G30
  23404637.672    23404642.488                   122992442.9350   95838174.9420

  20455098.234    20455103.414                   107492462.8870   83760302.2640

  22833590.477    22833595.160                   119991444.8450   93499952.0240

  22914803.750    22914808.496    22914812.859   120418351.9580   93832408.5330
  89922726.3150
  20967251.984    20967256.703                   110183756.6680   85857479.5800

  22657531.813    22657535.383    22657539.730   119066208.7530   92778882.9350
  88913120.3810
  23607298.844    23607305.500                   124057174.4770   96667990.8440

  24668584.586    24668592.727    24668596.492   129634503.7031  101013747.8191
  96804841.6930
  19964569.547    19964573.602                   104914783.3320   81751697.0520

  21095573.430    21095580.027    21095579.977   110858133.8130   86383032.7860
  82783735.7520
 22  5  2  1 46  0.0000000  0 10G02G05G07G11G13G14G15G18G20G30
  23425487.539    23425491.191                   123102000.8130   95923544.6180

  20453671.852    20453676.137                   107484962.8820   83754458.1120

  22854416.047    22854420.766                   120100884.6280   93585229.7550

  22938574.063    22938580.355    22938583.531   120543268.4080   93929745.9890
  90016008.0600
  20964486.195    20964490.707                   110169222.5730   85846154.3420

  22649638.875    22649643.703    22649647.445   119024735.7760   92746566.3640
  88882150.3450
  23596093.602    23596100.047                   123998291.0700   96622107.7670

  24661023.797    24661028.758    24661032.316   129594755.2771  100982774.9721
  96775159.4180
  19974455.453    19974459.734                   104966735.9610   81792179.6080

  21110471.602    21110478.336    21110478.316   110936425.1340   86444039.0050
  82842200.0420
 22  5  2  1 46 30.0000000  0 10G02G05G07G11G13G14G15G18G20G30
  23446369.914    23446373.906                   123211743.2740   96009058.1910

  20452334.664    20452339.367                   107477937.5180   83748983.8090

  22875276.336    22875279.875                   120210502.7950   93670646.4940

  22962381.398    22962387.832    22962391.871   120668380.4770   94027235.9070
  90109435.8780
  20961764.734    20961769.617                   110154923.2470   85835012.0220

  22641810.617    22641816.250    22641819.973   118983600.7930   92714513.1580
  88851432.6900
  23584901.813    23584908.891                   123939480.3470   96576281.2690

  24653539.180    24653546.203    24653549.594   129555434.2391  100952135.2621
  96745796.3170
  19984447.313    19984451.184                   105019241.1000   81833092.6930

  21125444.188    21125450.816    21125450.859   111015106.5380   86505349.1770
  82900955.6190
 22  5  2  1 47  0.0000000  0 10G02G05G07G11G13G14G15G18G20G30
  23467288.203    23467292.230                   123321668.4140   96094714.0780

  20451088.852    20451093.406                   107471389.6970   83743881.6080

  22896169.391    22896174.047                   120320298.4590   93756201.5380

  22986226.195    22986233.020    22986236.754   120793686.0560   94124876.5960
  90203008.1930
  20959089.211    20959093.316                   110140859.9770   85824053.6500

  22634046.906    22634053.578    22634057.355   118942807.6450   92682726.3330
  88820970.3300
  23573725.188    23573731.629                   123880744.0290   96530512.7770

  24646138.336    24646145.594    24646149.281   129516543.8850  100921831.0270
  96716754.7750
  19994544.102    19994547.848                   105072299.8340   81874437.1460

  21140490.680    21140497.707    21140497.465   111094177.1600   86566962.6410
  82960001.8510
 22  5  2  1 47 30.0000000  0 10G02G05G07G11G13G14G15G18G20G30
  23488241.992    23488244.977                   123431775.9460   96180512.0880

  20449934.375    20449938.953                   107465323.3940   83739154.6270

  22917096.344    22917101.660                   120430272.4120   93841895.4920

  23010108.570    23010114.793    23010118.984   120919184.4160   94222667.5130
  90296724.5050
  20956458.156    20956462.652                   110127035.1770   85813281.0890

  22626350.813    22626356.813    22626360.551   118902361.6940   92651210.0440
  88790767.2230
  23562564.828    23562569.508                   123822085.0910   96484804.5840

  24638820.844    24638828.145    24638831.602   129478088.6470  100891865.9310
  96688038.2400
  20004746.320    20004750.426                   105125914.4460   81916214.7610

  21155611.430    21155618.301    21155618.230   111173637.5430   86628879.8170
  83019339.1460
 22  5  2  1 48  0.0000000  0 10G02G05G07G11G13G14G15G18G20G30
  23509227.406    23509230.500                   123542060.4590   96266448.0300

  20448872.156    20448876.109                   107459737.8750   83734802.2760

  22938057.156    22938061.984                   120540420.0140   93927724.7520

  23034026.531    23034031.848    23034035.516   121044870.1490   94320604.4360
  90390580.7080
  20953872.133    20953876.957                   110113446.6730   85802692.6690

  22618721.203    22618726.285    22618729.320   118862263.3960   92619964.6430
  88760823.7130
  23551415.906    23551421.516                   123763502.0310   96439155.5180

  24631586.414    24631592.938    24631596.598   129440068.4250  100862239.7500
  96659646.4740
  20015054.414    20015058.367                   105180082.6360   81958423.7260

  21170805.695    21170812.633    21170812.504   111253483.3230   86691097.2990
  83078964.2350
 22  5  2  1 48 30.0000000  0 10G02G05G07G11G13G14G15G18G20G30
  23530247.734    23530251.020                   123652520.0010   96352520.3240

  20447900.898    20447905.273                   107454635.9820   83730826.7750

  22959050.125    22959054.758                   120650740.1760   94013688.4860

  23057979.336    23057984.344    23057988.441   121170740.8400   94418685.4490
  90484575.0440
  20951331.664    20951336.047                   110100095.1490   85792288.9030

  22611156.914    22611162.730    22611165.934   118822516.2630   92588992.8710
  88731142.4350
  23540281.961    23540288.207                   123704996.1640   96393566.6120

  24624434.500    24624441.160    24624444.984   129402485.9410  100832954.6710
  96631581.6500
  20025467.742    20025471.629                   105234804.8130   82001064.3690

  21186072.875    21186080.004    21186079.766   111333713.4100   86753614.2400
  83138876.3050
 22  5  2  1 49  0.0000000  0 10G02G05G07G11G13G14G15G18G20G30
  23551299.594    23551303.031                   123763152.1800   96438727.1910

  20447022.289    20447026.863                   107450020.1050   83727229.9950

  22980076.750    22980080.406                   120761231.6550   94099785.7370

  23081964.977    23081972.215    23081975.406   121296793.9080   94516908.6050
  90578705.5630
  20948835.992    20948840.691                   110086981.3370   85782070.3670

  22603660.203    22603666.504    22603669.523   118783123.6690   92558297.3730
  88701725.9380
  23529164.234    23529169.563                   123646568.5140   96348038.6180

  24617367.750    24617373.156    24617377.129   129365343.9300  100804012.8410
  96603845.7090
  20035986.313    20035990.383                   105290081.4990   82044137.1010

  21201413.164    21201419.918    21201419.910   111414326.3520   86816429.5160
  83199074.2680
 22  5  2  1 49 30.0000000  0 10G02G05G07G11G13G14G15G18G20G30
  23572385.266    23572389.281                   123873954.7200   96525066.7640

  20446236.289    20446241.379                   107445892.1230   83724013.3890

  23001134.523    23001138.777                   120871892.9690   94186015.3200

  23105985.875    23105992.574    23105996.035   121423026.6650   94615271.7710
  90672970.2910
  20946386.344    20946390.461                   110074105.7190   85772037.4250

  22596232.461    22596238.219    22596241.609   118744088.9590   92527880.7610
  88672576.7010
  23518059.109    23518065.949                   123588220.2300   96302572.4910

  24610383.125    24610389.430    24610393.719   129328644.8200  100775416.1300
  96576440.5470
  20046611.820    20046614.777                   105345912.9840   82087642.1460

  21216825.859    21216832.758    21216832.793   111495320.7030   86879541.9890
  83259557.0520
 22  5  2  1 50  0.0000000  0 10G02G05G07G11G13G14G15G18G20G30
  23593500.219    23593505.164                   123984921.8230   96611534.5900

  20445543.914    20445548.445                   107442250.7530   83721175.9720

  23022223.508    23022228.398                   120982719.1290   94272373.3290

  23130042.125    23130047.586    23130051.711   121549432.9310   94713770.1610
  90767364.5650
  20943980.734    20943985.109                   110061464.9670   85762187.4910

  22588872.125    22588878.008    22588881.750   118705411.8110   92497742.7680
  88643694.4590
  23506971.391    23506977.027                   123529948.7930   96257166.1950

  24603484.023    24603489.340    24603494.574   129292387.6990  100747163.8070
  96549365.3650
  20057340.352    20057344.164                   105402295.9170   82131576.8780

  21232310.148    21232317.094    21232317.156   111576691.4130   86942947.7250
  83320320.8790
 22  5  2  1 50 30.0000000  0 10G02G05G07G11G13G14G15G18G20G30
  23614648.922    23614653.328                   124096053.2160   96698130.3950

  20444944.516    20444948.840                   107439100.6660   83718721.3660

  23043345.664    23043349.527                   121093710.8490   94358860.3580

  23154129.008    23154134.258    23154137.914   121676012.4070   94812403.4820
  90861888.1340
  20941620.336    20941624.582                   110049062.2820   85752523.0840

  22581581.555    22581587.113    22581590.680   118667097.7910   92467887.7290
  88615083.3730
  23495897.555    23495903.738                   123471757.5050   96211822.4330

  24596670.969    24596675.066    24596679.648   129256577.3510  100719259.6090
  96522623.8610
  20068174.766    20068178.941                   105459232.7480   82175943.2380

  21247866.398    21247873.273    21247873.184   111658439.3140   87006647.3830
  83381366.3800
 22  5  2  1 51  0.0000000  0 10G02G05G07G11G13G14G15G18G20G30
  23635827.688    23635831.070                   124207344.2360   96784850.6390

  20444438.203    20444442.797                   107436441.3270   83716649.1530

  23064495.992    23064500.875                   121204864.4580   94445473.5370

  23178246.813    23178252.746    23178258.660   121802760.0610   94911167.8710
  90956537.3250
  20939305.742    20939309.520                   110036895.6620   85743042.6100

  22574359.477    22574364.988    22574369.484   118629147.8690   92438316.3800
  88586744.1720
  23484840.781    23484845.031                   123413644.9990   96166540.0060

  24589938.945    24589945.336    24589950.527   129221213.9550  100691703.7200
  96496216.1240
  20079115.023    20079118.625                   105516721.7760   82220739.8610

  21263493.492    21263500.434    21263500.281   111740560.6540   87070638.0250
  83442690.7430
 22  5  2  1 51 30.0000000  0 10G02G05G07G11G13G14G15G18G20G30
  23657035.977    23657039.457                   124318793.9360   96871694.4870

  20444026.453    20444030.852                   107434275.8880   83714961.8010

  23085679.664    23085683.320                   121316179.9330   94532212.8600

  23202396.445    23202405.336    23202408.414   121929674.4860   95010062.1990
  91051311.0380
  20937035.414    20937039.578                   110024967.1180   85733747.6480

  22567208.125    22567213.535    22567217.801   118591566.4580   92409032.1940
  88558680.1700
  23473797.188    23473802.332                   123355614.1100   96121321.1710

  24583294.523    24583301.426    24583306.801   129186301.2380  100664498.9330
  96470144.9300
  20090159.789    20090163.855                   105574764.2180   82265967.7220

  21279191.453    21279198.512    21279198.336   111823055.1240   87134919.4170
  83504293.7420
 22  5  2  1 52  0.0000000  0 10G02G05G07G11G13G14G15G18G20G30
  23678273.117    23678276.309                   124430398.5460   96958659.0720

  20443708.672    20443713.012                   107432605.9190   83713660.5380

  23106891.594    23106896.457                   121427654.8050   94619076.3750

  23226580.336    23226585.863    23226591.426   122056752.0860   95109083.7040
  91146206.6120
  20934810.656    20934814.688                   110013276.3220   85724637.9520

  22560127.500    22560132.668    22560136.801   118554355.8480   92380036.9390
  88530893.0550
  23462768.102    23462774.863                   123297664.7660   96076165.8710

  24576738.648    24576744.172    24576749.242   129151840.6680  100637646.5500
  96444411.4020
  20101309.953    20101314.113                   105633358.8750   82311625.8920

  21294960.375    21294967.332    21294967.098   111905920.2710   87199489.6610
  83566173.5520
 22  5  2  1 52 30.0000000  0 10G02G05G07G11G13G14G15G18G20G30
  23699539.266    23699543.508                   124542155.8130   97045742.6020

  20443485.117    20443489.953                   107431433.7300   83712747.1510

  23128134.711    23128139.754                   121539287.4960   94706062.8320

  23250794.781    23250800.043    23250803.402   122183990.2230   95208230.2430
  91241222.0550
  20932631.008    20932635.445                   110001823.5130   85715713.7010

  22553118.281    22553122.813    22553127.098   118517519.2770   92351333.1400
  88503385.2600
  23451756.141    23451763.008                   123239797.9620   96031074.9180

  24570267.891    24570272.773    24570278.246   129117834.7520  100611148.4600
  96419017.3890
  20112565.250    20112569.367                   105692506.3330   82357714.7940

  21310799.453    21310806.195    21310806.223   111989154.6000   87264347.5720
  83628329.0570
 22  5  2  1 53  0.0000000  0 10G02G05G07G11G13G14G15G18G20G30
  23720834.563    23720838.117                   124654059.9540   97132940.5800

  20443356.305    20443361.219                   107430756.9690   83712219.8110

  23149407.016    23149411.914                   121651072.7470   94793168.1940

  23275035.641    23275041.578    23275044.863   122311382.3500   95307496.7970
  91336352.4920
  20930496.508    20930500.848                   109990605.3890   85706972.3170

  22546179.141    22546184.441    22546188.840   118481056.0650   92322920.2860
  88476156.2720
  23440761.508    23440766.195                   123182010.7830   95986045.9990

  24563881.305    24563888.484    24563892.996   129084282.0150  100585003.5400
  96393961.7940
  20123925.133    20123929.105                   105752202.7580   82404231.4850

  21326707.781    21326714.438    21326714.430   112072752.7460   87329488.9830
  83690756.2290
 22  5  2  1 53 30.0000000  0 10G02G05G07G11G13G14G15G18G20G30
  23742155.609    23742160.352                   124766109.4310   97220251.7870

  20443322.836    20443327.449                   107430579.8070   83712081.7690

  23170707.906    23170712.656                   121763010.5210   94880392.4100

  23299307.297    23299312.441    23299316.523   122438927.0630   95406882.2540
  91431596.9050
  20928406.984    20928411.141                   109979623.9100   85698415.3360

  22539311.281    22539317.059    22539321.918   118444970.6580   92294801.8140
  88449209.4190
  23429780.594    23429785.289                   123124305.9370   95941081.2440

  24557585.086    24557590.641    24557594.957   129051186.2400  100559214.5500
  96369247.4050
  20135389.891    20135393.969                   105812449.6900   82451177.1290

  21342684.867    21342691.617    21342691.637   112156714.4220   87394913.6510
  83753454.8800
 22  5  2  1 54  0.0000000  0 10G02G05G07G11G13G14G15G18G20G30
  23763506.844    23763510.852                   124878303.6240   97307675.8190

  20443384.953    20443389.402                   107430905.5580   83712335.6050

  23192038.438    23192043.137                   121875101.2860   94967735.8520

  23323607.492    23323612.645    23323615.848   122566623.7200   95506386.1040
  91526954.7450
  20926362.328    20926366.703                   109968881.3050   85690044.4840

  22532516.844    22532522.754    22532527.316   118409268.2380   92266981.7660
  88422548.5550
  23418815.813    23418820.840                   123066686.5410   95896183.0490

  24551375.008    24551380.902    24551384.863   129018551.6170  100533785.0300
  96344877.4480
  20146959.609    20146963.711                   105873248.9850   82498553.1910

  21358732.070    21358738.281    21358738.242   112241040.1310   87460621.9920
  83816425.3570
 22  5  2  1 54 30.0000000  0 10G02G05G07G11G13G14G15G18G20G30
  23784884.727    23784887.879                   124990638.6440   97395209.5120

  20443542.688    20443547.238                   107431734.7300   83712981.7160

  23213396.641    23213401.723                   121987342.1550   95055196.2300

  23347935.500    23347940.082    23347944.344   122694468.0100   95606004.9900
  91622422.8790
  20924363.609    20924367.797                   109958376.7240   85681859.1140

  22525796.633    22525802.680    22525807.090   118373950.3040   92239461.3280
  88396174.8080
  23407866.375    23407872.559                   123009151.8840   95851350.8880

  24545252.133    24545258.824    24545262.320   128986379.0520  100508715.5250
  96320852.4870
  20158634.523    20158638.074                   105934599.0490   82546358.4220

  21374847.172    21374853.836    21374853.762   112325726.6280   87526611.4650
  83879665.2750
 22  5  2  1 55  0.0000000  0 10G02G05G07G11G13G14G15G18G20G30
  23806286.680    23806290.164                   125103111.8630   97482850.9580

  20443796.625    20443801.070                   107433069.1930   83714021.5600

  23234784.195    23234788.930                   122099731.1000   95142772.0150

  23372289.875    23372295.715    23372299.781   122822456.8170   95705736.4610
  91717998.8490
  20922409.523    20922414.063                   109948110.0240   85673859.1080

  22519148.734    22519155.566    22519159.715   118339019.5510   92212242.5820
  88370090.1770
  23396934.586    23396940.180                   122951702.4590   95806585.1600

  24539217.328    24539224.859    24539227.781   128954670.4490  100484007.5530
  96297174.0210
  20170413.578    20170417.574                   105996499.6130   82594592.6040

  21391030.336    21391037.473    21391037.453   112410771.9810   87592880.5590
  83943173.1540
 22  5  2  1 55 30.0000000  0 10G02G05G07G11G13G14G15G18G20G30
  23827716.805    23827719.402                   125215719.5860   97570597.1970

  20444146.500    20444151.117                   107434908.9100   83715455.1060

  23256199.500    23256203.422                   122212265.5810   95230461.1830

  23396671.055    23396677.414    23396681.914   122950586.0530   95805577.4000
  91813679.7330
  20920501.445    20920505.563                   109938080.0820   85666043.5790

  22512575.750    22512582.598    22512586.250   118304477.6880   92185326.8760
  88344295.9670
  23386018.445    23386024.023                   122894338.2650   95761885.8580

  24533271.836    24533279.277    24533282.426   128923426.6740  100459661.8460
  96273842.6650
  20182297.617    20182301.465                   106058949.4190   82643254.7840

  21407281.430    21407288.582    21407288.602   112496173.2040   87659426.9620
  84006946.7810
 22  5  2  1 56  0.0000000  0 10G02G05G07G11G13G14G15G18G20G30
  23849169.875    23849172.879                   125328460.3290   97658447.1320

  20444594.039    20444598.047                   107437257.6730   83717285.3150

  23277641.117    23277645.445                   122324945.0190   95318263.3150

  23421080.469    23421086.953    23421090.500   123078854.3840   95905526.6920
  91909464.4860
  20918637.750    20918642.395                   109928289.1470   85658414.2910

  22506078.922    22506084.344    22506088.184   118270329.1980   92158717.6950
  88318795.5060
  23375119.148    23375124.488                   122837061.5440   95717254.6860

  24527417.195    24527422.887    24527426.293   128892651.3880  100435681.1010
  96250861.1740
  20194285.617    20194289.691                   106121949.1440   82692345.4690

  21423600.828    21423607.598    21423607.563   112581930.1080   87726250.5200
  84070986.0330
 22  5  2  1 56 30.0000000  0 10G02G05G07G11G13G14G15G18G20G30
  23870647.844    23870651.039                   125441330.6240   97746397.9560

  20445137.445    20445142.047                   107440116.6380   83719513.0860

  23299110.758    23299115.266                   122437767.1390   95406176.6350

  23445516.000    23445520.965    23445525.305   123207258.0380   96005581.4470
  92005350.2660
  20916820.117    20916824.508                   109918736.7210   85650970.8510

  22499655.828    22499661.457    22499664.574   118236576.0490   92132416.5680
  88293590.2670
  23364235.398    23364241.988                   122779872.2600   95672691.6700

  24521647.547    24521655.961    24521659.426   128862345.8270  100412066.4460
  96228230.4290
  20206379.023    20206382.785                   106185498.0720   82741864.0990

  21439986.930    21439994.000    21439993.656   112668039.9530   87793349.0910
  84135288.8290
 22  5  2  1 57  0.0000000  0 10G02G05G07G11G13G14G15G18G20G30
  23892148.508    23892154.805                   125554327.9170   97834447.7200

  20445778.867    20445783.520                   107443486.4870   83722138.9420

  23320606.031    23320611.148                   122550730.3280   95494199.8700

  23469973.445    23469980.652    23469984.141   123335794.0740   96105739.3590
  92101334.9250
  20915047.766    20915052.230                   109909422.8390   85643713.2950

  22493308.711    22493313.738    22493317.328   118203221.0630   92106425.6930
  88268682.3490
  23353369.586    23353376.035                   122722771.3480   95628197.5100

  24515973.172    24515978.426    24515982.379   128832511.9240  100388819.3110
  96205951.9000
  20218576.203    20218580.344                   106249595.6600   82791810.2510

  21456439.516    21456446.711    21456446.746   112754500.9380   87860721.2850
  84199853.8400
 22  5  2  1 57 30.0000000  0 10G02G05G07G11G13G14G15G18G20G30
  23913672.859    23913679.938                   125667448.2410   97922593.3610

  20446517.797    20446522.156                   107447368.2370   83725163.6880

  23342129.602    23342133.898                   122663831.5980   95582330.6940

  23494456.977    23494465.016    23494469.074   123464458.2850   96205997.1930
  92197415.3260
  20913320.531    20913324.898                   109900346.0950   85636640.5140

  22487037.195    22487042.773    22487046.617   118170265.8550   92080746.3250
  88244072.9380
  23342520.938    23342527.000                   122665758.3620   95583771.8710

  24510385.688    24510391.273    24510394.691   128803150.4970  100365940.2920
  96184026.2290
  20230877.586    20230881.844                   106314240.6800   82842182.9850

  21472959.117    21472966.141    21472966.094   112841309.9600   87928364.6740
  84264678.7490
 22  5  2  1 58  0.0000000  0 10G02G05G07G11G13G14G15G18G20G30
  23935224.453    23935229.547                   125780689.1670   98010833.0130

  20447354.281    20447358.375                   107451763.6890   83728588.7150

  23363678.375    23363682.336                   122777069.8470   95670568.2640

  23518967.531    23518972.734    23518976.773   123593248.2890   96306352.9850
  92293589.6200
  20911638.969    20911642.852                   109891507.9180   85629753.6320

  22480843.102    22480848.332    22480852.098   118137713.5530   92055380.9180
  88219764.4420
  23331687.117    23331694.359                   122608834.5850   95539415.7450

  24504887.484    24504893.945    24504897.770   128774263.9630  100343431.3760
  96162455.1560
  20243283.406    20243287.492                   106379433.0990   82892982.2580

  21489543.938    21489551.215    21489550.914   112928465.6370   87996278.1890
  84329762.5350
 22  5  2  1 58 30.0000000  0 10G02G05G07G11G13G14G15G18G20G30
  23956797.328    23956800.863                   125894047.2870   98099163.9910

  20448288.219    20448292.625                   107456673.9390   83732414.8820

  23385251.180    23385256.348                   122890442.3330   95758910.4320

  23543498.016    23543504.336    23543507.887   123722160.0310   96406803.6550
  92389854.8260
  20910001.852    20910006.328                   109882907.1690   85623051.7640

  22474725.211    22474730.816    22474734.668   118105566.0490   92030330.9380
  88195758.2100
  23320872.859    23320878.914                   122551999.9150   95495129.0450

  24499481.547    24499487.410    24499491.551   128745853.2350  100321293.1480
  96141239.3990
  20255792.828    20255796.922                   106445171.1830   82944206.7260

  21506194.992    21506201.875    21506201.766   113015965.1170   88064459.5900
  84395103.0450
 22  5  2  1 59  0.0000000  0 10G02G05G07G11G13G14G15G18G20G30
  23978389.836    23978393.352                   126007519.8040   98187584.1070

  20449320.758    20449325.262                   107462100.1950   83736643.1270

  23406851.477    23406855.789                   123003947.4310   95847355.9380

  23568051.773    23568057.445    23568061.648   123851190.6430   96507346.9800
  92486208.8390
  20908410.320    20908414.871                   109874543.9970   85616535.0190

  22468685.758    22468691.051    22468694.840   118073826.0770   92005598.5240
  88172056.3130
  23310075.766    23310080.480                   122495255.5600   95450912.7460

  24494166.133    24494171.918    24494176.129   128717920.3370  100299527.2610
  96120380.4610
  20268405.961    20268410.238                   106511454.7240   82995856.2270

  21522911.211    21522917.563    21522917.430   113103806.5510   88132907.4540
  84460698.9180
 22  5  2  1 59 30.0000000  0 10G02G05G07G11G13G14G15G18G20G30
  24000004.453    24000008.180                   126121103.2510   98276090.6310

  20450451.883    20450456.492                   107468043.8410   83741274.5450

  23428475.750    23428479.941                   123117583.3820   95935903.4160

  23592628.102    23592633.152    23592637.895   123980336.8050   96607980.3010
  92582649.0770
  20906864.609    20906868.531                   109866418.3270   85610203.3400

  22462724.328    22462728.711    22462732.531   118042495.9650   91981185.4480
  88148660.4570
  23299294.203    23299299.789                   122438601.5620   95406766.8350

  24488942.219    24488947.672    24488951.855   128690466.7050  100278134.8640
  96099879.3760
  20281123.141    20281127.410                   106578282.8640   83047930.0900

  21539691.203    21539697.734    21539697.613   113191987.6400   88201619.9830
  84526548.4150
 22  5  2  2  0  0.0000000  0 10G02G05G07G11G13G14G15G18G20G30
  24021639.625    24021643.113                   126234798.0890   98364684.0190

  20451682.523    20451686.848                   107474509.3030   83746312.5710

  23450124.570    23450129.250                   123231350.7920   96024553.3320

  23617226.141    23617230.813    23617235.656   124109598.4620   96708703.6430
  92679175.6070
  20905364.039    20905368.137                   109858533.3990   85604059.2510

  22456840.563    22456845.789    22456850.023   118011581.3610   91957096.1730
  88125574.9150
  23288531.578    23288536.461                   122382041.8450   95362694.3810

  24483809.648    24483815.230    24483819.695   128663497.1990  100257119.6760
  96079739.8240
  20293944.125    20293948.391                   106645658.0630   83100430.2290

  21556535.891    21556542.969    21556542.906   113280509.4600   88270598.0170
  84592652.3550
 22  5  2  2  0 30.0000000  0 10G02G05G07G11G13G14G15G18G20G30
  24043294.813    24043299.047                   126348598.5790   98453359.7380

  20453011.422    20453016.191                   107481494.8220   83751755.8260

  23471797.961    23471802.551                   123345244.9810   96113302.0210

  23641844.438    23641849.539    23641854.031   124238969.3740   96809512.1040
  92775783.7060
  20903908.594    20903912.887                   109850886.1980   85598100.3980

  22451036.305    22451042.000    22451046.121   117981081.7430   91933330.2540
  88102799.2560
  23277786.109    23277790.898                   122325573.6500   95318693.2470

  24478769.664    24478775.543    24478779.648   128637010.5010  100236480.7110
  96059960.8260
  20306868.805    20306872.688                   106713576.1160   83153353.3770

  21573445.531    21573452.063    21573451.770   113369366.8810   88339837.5610
  84659006.9190
 22  5  2  2  1  0.0000000  0 10G02G05G07G11G13G14G15G18G20G30
  24064968.398    24064973.801                   126462502.9600   98542116.3660

  20454440.508    20454444.863                   107489002.6950   83757606.1150

  23493495.344    23493500.012                   123459265.3120   96202148.9930

  23666481.938    23666488.801    23666492.426   124368447.4700   96910404.0850
  92872471.8540
  20902499.102    20902503.176                   109843477.6170   85592327.4980

  22445312.375    22445317.707    22445321.652   117951000.6430   91909890.4500
  88080336.0940
  23267058.203    23267063.051                   122269198.9840   95274764.9890

  24473821.055    24473827.199    24473831.941   128611009.2060  100216219.9830
  96040544.2750
  20319896.563    20319900.719                   106782037.9290   83206700.2360

  21590417.570    21590424.586    21590424.582   113458558.8270   88409337.7720
  84725611.2980
 22  5  2  2  1 30.0000000  0 10G02G05G07G11G13G14G15G18G20G30
  24086662.039    24086667.457                   126576503.8220   98630948.2280

  20455968.008    20455972.523                   107497030.2610   83763861.3570

  23515215.570    23515220.305                   123573405.5550   96291089.4220

  23691140.906    23691147.145    23691150.570   124498025.5370   97011373.9210
  92969234.6490
  20901133.555    20901137.789                   109836303.6840   85586737.4270

  22439666.844    22439672.926    22439676.539   117921336.3860   91886775.4600
  88058184.2520
  23256346.836    23256352.375                   122212914.1610   95230906.7470

  24468965.086    24468971.500    24468975.734   128585490.8290  100196335.5670
  96021488.4080
  20333026.617    20333031.168                   106851038.6620   83260467.0320

  21607453.164    21607459.762    21607459.680   113548079.1210   88479093.8400
  84792460.8490
 22  5  2  2  2  0.0000000  0 10G02G05G07G11G13G14G15G18G20G30
  24108375.188    24108380.566                   126690601.7030   98719855.6560

  20457595.367    20457599.773                   107505581.9220   83770524.9880

  23536959.336    23536963.223                   123687667.3680   96380124.5730

  23715816.891    23715823.320    23715827.336   124627703.4940   97112421.6460
  93066072.0580
  20899813.773    20899817.816                   109829367.5440   85581332.6460

  22434101.578    22434108.039    22434112.125   117892094.6710   91863989.7380
  88036347.9150
  23245654.172    23245659.961                   122156723.3300   95187121.7570

  24464202.023    24464208.551    24464212.488   128560460.2580  100176831.2110
  96002796.7510
  20346260.609    20346264.469                   106920580.2550   83314655.2640

  21624550.906    21624557.746    21624557.496   113637928.8480   88549106.6110
  84859556.4230
 22  5  2  2  2 30.0000000  0 10G02G05G07G11G13G14G15G18G20G30
  24130107.102    24130110.035                   126804794.7930   98808837.3590

  20459323.023    20459327.344                   107514660.6080   83777599.2880

  23558725.242    23558729.703                   123802050.1390   96469253.9890

  23740511.906    23740519.371    23740523.641   124757479.7280   97213545.9420
  93162982.8360
  20898539.250    20898543.445                   109822670.8130   85576114.4260

  22428619.094    22428624.418    22428628.773   117863279.3720   91841536.2830
  88014830.0390
  23234979.797    23234985.230                   122100628.7200   95143411.7070

  24459532.000    24459538.121    24459542.383   128535920.5100  100157709.3300
  95984471.6000
  20359596.672    20359600.703                   106990663.4590   83369265.5460

  21641711.203    21641718.137    21641717.945   113728107.2950   88619375.5210
  84926897.4640
 22  5  2  2  3  0.0000000  0 10G02G05G07G11G13G14G15G18G20G30
  24151855.008    24151858.684                   126919081.8210   98897892.1820

  20461151.164    20461155.598                   107524268.5230   83785085.9770

  23580514.625    23580519.543                   123916553.6340   96558477.4650

  23765226.328    23765233.496    23765237.434   124887352.4690   97314745.4090
  93259965.6430
  20897310.789    20897314.980                   109816214.9080   85571083.8630

  22423217.352    22423223.309    22423227.609   117834894.2870   91819418.0550
  87993633.4070
  23224323.820    23224329.656                   122044631.8890   95099777.8660

  24454956.883    24454962.605    24454966.977   128511874.4570  100138972.1860
  95966515.1530
  20373036.563    20373040.199                   107061289.0650   83424298.4700

  21658934.008    21658940.801    21658940.883   113818613.7590   88689900.0290
  84994483.4500
 22  5  2  2  3 30.0000000  0 10G02G05G07G11G13G14G15G18G20G30
  24173619.039    24173623.090                   127033456.8610   98987015.5420

  20463080.203    20463084.336                   107534404.1410   83792983.8550

  23602325.664    23602330.613                   124031172.8810   96647791.1290

  23789957.578    23789964.055    23789968.938   125017315.6920   97416015.4320
  93357016.0480
  20896127.523    20896131.879                   109809996.7130   85566238.5160

  22417897.969    22417903.801    22417907.852   117806939.0480   91797634.7750
  87972757.7600
  23213686.000    23213692.098                   121988731.1290   95056218.9080

  24450473.477    24450480.805    24450484.895   128488320.9560  100120618.7980
  95948926.4830
  20386578.219    20386582.570                   107132453.0130   83479750.8910

  21676217.938    21676225.094    21676225.074   113909443.3780   88760676.3460
  85062310.7380
 22  5  2  2  4  0.0000000  0 10G02G05G07G11G13G14G15G18G20G30
  24195402.539    24195405.012                   127147920.3420   99076207.8400

  20465110.289    20465114.539                   107545071.9910   83801296.4640

  23624159.508    23624164.305                   124145909.5910   96737196.3350

  23814706.789    23814712.676    23814716.605   125147369.7350   97517356.1650
  93454134.2010
  20894990.141    20894994.465                   109804019.8800   85561581.2500

  22412661.008    22412666.555    22412670.887   117779419.3940   91776190.9040
  87952207.4030
  23203067.180    23203073.551                   121932930.1470   95012737.6730

  24446086.328    24446093.227    24446097.566   128465264.7530  100102652.9390
  95931709.2570
  20400223.289    20400227.633                   107204158.1390   83535624.9980

  21693564.016    21693571.254    21693571.227   114000597.3430   88831705.4000
  85130380.2510
 22  5  2  2  4 30.0000000  0 10G02G05G07G11G13G14G15G18G20G30
  24217199.352    24217201.988                   127262466.8800   99165464.8450

  20467241.523    20467245.563                   107556271.1040   83810023.0410

  23646014.078    23646018.977                   124260759.2280   96826689.5390

  23839470.789    23839477.754    23839481.156   125277508.8790   97618763.2260
  93551315.9150
  20893897.961    20893902.512                   109798281.7270   85557109.9660

  22407507.367    22407512.504    22407517.031   117752335.1760   91755086.3420
  87931982.1960
  23192468.039    23192473.813                   121877227.2520   94969332.8860

  24441795.023    24441800.539    24441804.402   128442705.0450  100085073.9520
  95914862.6990
  20413970.688    20413974.754                   107276400.5480   83591917.7690

  21710971.055    21710978.063    21710978.094   114092071.0200   88902983.5790
  85198688.4960
 22  5  2  2  5  0.0000000  0 10G02G05G07G11G13G14G15G18G20G30
  24239012.031    24239014.719                   127377093.7820   99254784.4620

  20469473.961    20469478.031                   107568002.5240   83819164.4070

  23667890.484    23667895.719                   124375720.2470   96916269.5470

  23864252.219    23864258.188    23864262.160   125407730.2650   97720234.3470
  93648559.0150
  20892851.750    20892856.207                   109792782.7880   85552825.0880

  22402436.336    22402442.371    22402446.383   117725688.9440   91734323.0630
  87912084.0530
  23181886.211    23181892.324                   121821623.2820   94926005.1800

  24437596.320    24437602.309    24437605.945   128420643.4160  100067883.0950
  95898388.1000
  20427820.594    20427824.324                   107349179.7550   83648628.8290

  21728438.500    21728445.445    21728445.293   114183862.5210   88974509.4140
  85267234.0860
 22  5  2  2  5 30.0000000  0 10G02G05G07G11G13G14G15G18G20G30
  24260839.273    24260843.816                   127491801.7600   99344167.2120

  20471808.242    20471812.773                   107580271.2580   83828724.4580

  23689789.617    23689793.543                   124490794.6720   97005937.9020

  23889047.617    23889054.281    23889058.211   125538034.4270   97821769.9120
  93745863.9200
  20891851.461    20891855.758                   109787526.5170   85548729.2990

  22397450.352    22397456.305    22397460.000   117699486.8110   91713905.8490
  87892517.5600
  23171324.711    23171330.766                   121766122.5490   94882757.8940

  24433493.891    24433500.180    24433503.848   128399085.0800  100051084.3680
  95882289.3670
  20441771.977    20441776.324                   107422498.7490   83705760.5040

  21745966.539    21745973.406    21745973.535   114275973.4210   89046284.1230
  85336018.1910
 22  5  2  2  6  0.0000000  0 10G02G05G07G11G13G14G15G18G20G30
  24282680.063    24282685.348                   127606582.4160   99433606.5850

  20474244.430    20474248.930                   107593073.0130   83838699.8420

  23711706.109    23711711.910                   124605975.2520   97095688.9970

  23913858.398    23913864.262    23913868.012   125668412.7810   97923363.3230
  93843224.2580
  20890896.641    20890900.590                   109782507.6040   85544818.4620

  22392548.547    22392553.941    22392557.691   117673725.7280   91693832.2870
  87873280.4100
  23160781.852    23160787.723                   121710720.3780   94839587.4350

  24429486.195    24429492.898    24429496.781   128378026.0810  100034674.7590
  95866563.5200
  20455826.102    20455830.156                   107496351.0770   83763307.7560

  21763553.563    21763561.055    21763560.887   114368396.2250   89118301.8810
  85405035.1930
 22  5  2  2  6 30.0000000  0 11G02G05G07G11G13G14G15G18G20G24G30
  24304536.297    24304541.445                   127721433.0140   99523100.4480

  20476782.094    20476786.566                   107606408.6400   83849091.2350

  23733643.703    23733649.789                   124721259.8950   97185521.1570

  23938683.914    23938687.762    23938691.090   125798862.0850   98025012.0320
  93940637.5720
  20889986.430    20889990.793                   109777726.0680   85541092.6020

  22387730.859    22387736.051    22387739.641   117648407.8210   91674104.0770
  87854374.2080
  23150258.406    23150264.004                   121655417.3370   94796494.2120

  24425573.383    24425580.746    24425584.355   128357467.7260  100018655.3030
  95851211.5040
  20469980.648    20469984.957                   107570735.4660   83821269.6030

  25650883.172    25650893.996    25650893.543   134796303.7161  105036119.8611
 100659606.5741
  21781200.320    21781207.305    21781207.473   114461128.6390   89190560.8920
  85474283.4110
 22  5  2  2  7  0.0000000  0 10G02G05G07G11G13G14G15G18G20G30
  24326403.375    24326408.137                   127836342.0130   99612639.7910

  20479419.945    20479424.434                   107620271.0210   83859893.0890

  23755599.859    23755605.395                   124836639.0130   97275426.9400

  23963517.742    23963523.066    23963526.180   125929371.1230   98126707.2260
  94038095.4860
  20889120.547    20889124.414                   109773173.5410   85537545.1890

  22382996.758    22383001.664    22383005.195   117623527.2560   91654716.6420
  87835794.5810
  23139751.672    23139757.488                   121600206.0610   94753472.4900

  24421756.328    24421762.641    24421766.125   128337403.2490  100003020.6400
  95836228.2930
  20484235.344    20484239.406                   107645642.8760   83879638.9960

  21798904.047    21798910.695    21798910.770   114554160.3530   89263053.1280
  85543755.1370
 22  5  2  2  7 30.0000000  0 11G02G05G07G11G13G14G15G18G20G24G30
  24348278.945    24348286.398                   127951308.8170   99702224.2130

  20482158.656    20482163.270                   107634663.7430   83871108.1890

  23777575.031    23777579.418                   124952112.3330   97365406.1450

  23988365.172    23988369.047    23988372.516   126059938.8500   98228448.1880
  94135597.2550
  20888297.719    20888301.980                   109768852.3540   85534178.0370

  22378346.242    22378350.750    22378354.805   117599088.4710   91635673.4510
  87817544.8740
  23129264.469    23129268.883                   121545089.2780   94710524.4150

  24418031.992    24418037.859    24418042.738   128317836.1810   99987773.5810
  95821616.5700
  20498589.500    20498593.477                   107721074.1500   83938416.5970

  25620408.102    25620417.965    25620419.301   134636159.1581  104911327.6491
 100540018.7461
  21816663.703    21816671.113    21816671.027   114647491.4410   89335778.6330
  85613450.4110
 22  5  2  2  8  0.0000000  0 11G02G05G07G11G13G14G15G18G20G24G30
  24070376.813    24070382.949                   126490915.9010   98564255.5860

  20185206.781    20185210.879                   106074168.6220   82655137.9660

  23499774.898    23499779.477                   123492263.2580   96227861.3830

  23713429.891    23713434.789    23713438.199   124615147.6990   97102636.7740
  93056694.6460
  20587726.977    20587731.617                   108189343.5600   84303391.9650

  22073986.344    22073992.188    22073996.367   115999674.1320   90389376.5790
  86623177.0430
  22819000.313    22819006.164                   119914647.0520   93440050.0040

  24114611.555    24114617.707    24114622.004   126723348.4320   98745315.6330
  94630927.6860
  20213251.273    20213255.258                   106221611.8830   82770004.4330

  25305395.672    25305406.047    25305406.973   132980757.8821  103621404.5101
  99303842.3710
  21534689.336    21534696.371    21534696.336   113165704.0440   88181139.0920
  84506920.8350
 22  5  2  2  8 30.0000000  0 11G02G05G07G11G13G14G15G18G20G24G30
  24092277.188    24092281.883                   126605997.5910   98653929.5150

  20188149.008    20188153.535                   106089631.8920   82667187.2630

  23521783.992    23521790.000                   123607927.8700   96317989.6490

  23738297.000    23738302.898    23738306.723   124745831.1090   97204467.8600
  93154282.7540
  20586994.438    20586998.840                   108185492.6610   84300391.2690

  22069506.969    22069512.668    22069516.613   115976133.2910   90371033.0810
  86605597.8640
  22808550.406    22808555.590                   119859728.9370   93397256.7210

  24111079.023    24111085.531    24111089.871   126704787.9330   98730852.9450
  94617067.5940
  20227805.781    20227809.543                   106298095.4870   82829602.0290

  25290189.125    25290199.359    25290201.023   132900849.4961  103559133.2031
  99244170.4950
  21552563.578    21552570.844    21552570.637   113259635.0010   88254332.0220
  84577064.0590
 22  5  2  2  9  0.0000000  0 10G02G05G07G11G13G14G15G18G20G30
  24114190.156    24114194.340                   126721147.9410   98743656.9260

  20191196.797    20191201.227                   106105647.4950   82679666.9420

  23543814.984    23543820.742                   123723700.7780   96408202.2830

  23763178.805    23763184.234    23763188.488   124876583.2900   97306352.5860
  93251922.2350
  20586309.711    20586314.020                   108181892.6240   84297586.0600

  22065116.813    22065122.203    22065125.691   115953060.3880   90353054.2190
  86588368.1270
  22798122.219    22798126.613                   119804926.7730   93354553.7740

  24107646.633    24107653.094    24107656.934   126686748.3330   98716796.1460
  94603596.4750
  20242462.492    20242466.793                   106375119.3910   82889620.6340

  21570497.750    21570504.652    21570504.578   113353878.3240   88327768.3630
  84647440.5510
 22  5  2  2  9 30.0000000  0 11G02G05G07G11G13G14G15G18G20G24G30
  24136115.469    24136119.082                   126836361.5180   98833433.5920

  20194349.477    20194353.777                   106122214.6120   82692576.3850

  23565865.734    23565871.469                   123839578.3100   96498496.4330

  23788071.836    23788077.914    23788082.594   125007398.8130   97408286.6390
  93349608.9910
  20585671.648    20585676.012                   108178540.9810   84294974.3950

  22060814.555    22060820.449    22060824.242   115930455.2810   90335439.8700
  86571487.6960
  22787714.453    22787720.281                   119750239.1020   93311940.0560

  24104312.117    24104318.785    24104323.063   126669228.5330   98703144.3550
  94590513.5310
  20257222.313    20257226.078                   106452679.9590   82950057.4320

  25259823.414    25259835.410    25259836.605
  99125014.1751
  21588490.547    21588497.324    21588497.133   113448429.4910   88401444.5830
  84718046.9170
 22  5  2  2 10  0.0000000  0 10G02G05G07G11G13G14G15G18G20G30
  24158051.797    24158054.555                   126951634.7340   98923256.7310

  20197607.016    20197611.273                   106139333.1180   82705915.4740

  23587936.008    23587941.402                   123955557.9020   96588870.1170

  23812975.461    23812983.355    23812987.723   125138273.9330   97510267.1680
  93447340.2540
  20585081.141    20585085.332                   108175437.2280   84292555.8940

  22056602.234    22056608.113    22056611.797   115908319.5540   90318191.2580
  86554957.7990
  22777329.391    22777335.035                   119695665.7000   93269415.3420

  24101077.336    24101083.836    24101087.902   126652229.2100   98689898.1720
  94577819.2840
  20272083.289    20272087.281                   106530775.4040   83010911.0070

  21606541.508    21606547.969    21606547.859   113543285.7450   88475358.5350
  84788881.1200
 22  5  2  2 10 30.0000000  0 10G02G05G07G11G13G14G15G18G20G30
  24179997.734    24180000.867                   127066963.0610   99013122.8230

  20200969.063    20200973.656                   106157002.3310   82719683.6860

  23610025.797    23610030.531                   124071635.6930   96679320.3190

  23837890.953    23837898.207    23837903.102   125269203.5630   97612290.1160
  93545112.2440
  20584537.344    20584541.516                   108172579.2010   84290328.8650

  22052480.195    22052485.039    22052488.750   115886653.4560   90301308.6040
  86538778.5790
  22766966.203    22766971.672                   119641205.4920   93226978.8700

  24097941.391    24097947.902    24097951.750   126635749.7560   98677057.0410
  94565513.2130
  20287045.391    20287049.395                   106609402.4010   83072178.7810

  21624648.977    21624655.891    21624655.719   113638443.0520   88549507.0690
  84859940.1310
 22  5  2  2 11  0.0000000  0 10G02G05G07G11G13G14G15G18G20G30
  24201951.727    24201956.176                   127182339.7110   99103026.5700

  20204435.820    20204440.262                   106175219.5650   82733878.9350

  23632133.156    23632137.273                   124187806.5270   96769843.0300

  23862815.891    23862823.359    23862827.895   125400181.1730   97714350.4670
  93642920.0420
  20584039.789    20584043.898                   108169963.8690   84288290.9550

  22048445.969    22048451.105    22048455.016   115865455.6550   90284790.8570
  86522949.0670
  22756623.539    22756629.445                   119586855.8680   93184628.5650

  24094904.023    24094910.121    24094914.113   126619787.8520   98664619.2380
  94553593.6550
  20302107.828    20302112.063                   106688556.4750   83133857.2610

  21642812.789    21642819.777    21642819.531   113733895.7310   88623885.7680
  84931219.7080
 22  5  2  2 11 30.0000000  0 11G02G05G07G11G13G14G15G18G20G24G30
  24223915.039    24223919.406                   127297760.1060   99192964.3720

  20208006.148    20208011.125                   106193984.1180   82748500.6540

  23654255.063    23654260.988                   124304067.0440   96860435.6200

  23887747.969    23887756.074    23887760.508   125531201.9740   97816444.4790
  93740760.1190
  20583587.492    20583591.703                   108167588.9310   84286440.3520

  22044501.016    22044506.926    22044510.414   115844726.6450   90268638.3990
  86507469.6350
  22746301.711    22746307.746                   119532615.8060   93142363.6260

  24091964.836    24091971.578    24091975.082   126604343.0930   98652584.3680
  94542060.2730
  20317270.039    20317274.273                   106768234.9790   83195944.3890

  25199285.453                    25199295.434   132423160.3591
  98887439.2981
  21661032.617    21661039.367    21661039.352   113829639.9950   88698491.6620
  85002717.0280
 22  5  2  2 12  0.0000000  0 11G02G05G07G11G13G14G15G18G20G24G30
  24245886.016    24245891.469                   127413222.9020   99282935.2470

  20211682.063    20211686.445                   106213298.0930   82763550.5000

  23676395.164    23676401.188                   124420416.6200   96951097.6190

  23912689.047    23912696.957    23912701.738   125662264.2740   97918570.8540
  93838631.1880
  20583182.000    20583185.996                   108165456.6580   84284778.8450

  22040646.414    22040652.117    22040656.113   115824469.9240   90252853.9590
  86492342.8760
  22736002.273    22736007.398                   119478487.3040   93100185.5990

  24089123.891    24089131.152    24089134.789   126589418.0720   98640954.5000
  94530914.9630
  20332532.648    20332536.348                   106848437.8680   83258440.1360

  25184187.789                    25184199.223   132343827.6301
  98828197.3190
  21679307.422    21679314.238    21679314.168   113925675.0930   88773324.1960
  85074431.5320
 22  5  2  2 12 30.0000000  0 11G02G05G07G11G13G14G15G18G20G24G30
  24267865.930    24267869.844                   127528721.6430   99372934.0930

  20215461.602    20215465.902                   106233158.8720   82779026.4280

  23698552.656    23698557.785                   124536850.1430   97041824.9920

  23937635.820    23937644.113    23937648.039   125793361.3880   98020724.3140
  93936528.2470
  20582821.313    20582825.633                   108163563.2140   84283303.4380

  22036881.023    22036886.863    22036891.109   115804683.9910   90237436.3630
  86477567.6890
  22725722.188    22725728.012                   119424467.3780   93058092.2070

  24086383.156    24086389.285    24086393.367   126575010.2940   98629727.7160
  94520155.9450
  20347892.820    20347897.449                   106929160.2930   83321340.7020

  25169107.273    25169116.395    25169117.215   132264574.9790  103063315.7981
  98769015.0870
  21697636.516    21697643.363    21697643.438   114021995.2480   88848378.8470
  85146358.9000
 22  5  2  2 13  0.0000000  0 11G02G05G07G11G13G14G15G18G20G24G30
  24289852.008    24289857.285                   127644259.1580   99462963.1220

  20219346.172    20219350.445                   106253572.6040   82794933.2310

  23720724.789    23720731.563                   124653371.6180   97132620.9270

  23962591.000    23962597.824    23962602.715   125924496.0630   98122907.0670
  94034453.3570
  20582507.875    20582511.910                   108161914.2680   84282018.5430

  22033207.305    22033212.590    22033216.875   115785376.8450   90222391.8460
  86463150.0390
  22715463.977    22715469.668                   119370562.8580   93016088.7140

  24083740.766    24083748.082    24083751.320   126561126.9060   98618909.4790
  94509788.5010
  20363354.094    20363358.258                   107010407.0810   83384649.8730

  25154041.188    25154052.051    25154052.680   132185409.5031  103001628.4121
  98709898.0180
  21716021.023    21716027.363    21716027.426   114118604.2390   88923658.5630
  85218501.9530
 22  5  2  2 13 30.0000000  0 11G02G05G07G11G13G14G15G18G20G24G30
  24311845.109    24311849.359                   127759832.9230   99553020.4660

  20223336.500    20223340.652                   106274541.2020   82811272.3930

  23742915.352    23742921.570                   124769979.6210   97223484.2660

  23987551.742    23987559.195    23987563.414   126055665.4990   98225116.8850
  94132404.4410
  20582240.484    20582244.938                   108160510.2220   84280924.4790

  22029624.406    22029630.141    22029634.324   115766550.8340   90207722.2360
  86449091.6640
  22705229.070    22705233.949                   119316774.7110   92974175.9220

  24081199.445    24081206.141    24081209.523   126547769.1600   98608500.8910
  94499813.6090
  20378914.180    20378918.539                   107092177.1080   83448366.7610

  25138994.508    25139004.359    25139004.855   132106333.0311  102940010.1971
  98650847.3430
  21734459.305    21734466.074    21734466.156   114215500.1150   88999161.8270
  85290859.2480
 22  5  2  2 14  0.0000000  0 11G02G05G07G11G13G14G15G18G20G24G30
  24333845.047    24333848.480                   127875436.5910   99643101.0870

  20227431.555    20227435.871                   106296061.7090   82828041.6080

  23765120.656    23765126.590                   124886669.2270   97314411.2180

  24012518.219    24012525.625    24012529.785   126186863.3480   98327348.8550
  94230376.7410
  20582019.508    20582023.566                   108159347.6720   84280018.6030

  22026134.031    22026139.258    22026143.152   115748204.6830   90193426.5560
  86435391.6310
  22695014.844    22695020.176                   119263100.3120   92932351.7570

  24078756.539    24078763.891    24078767.422   126534935.0400   98598500.3010
  94490229.6870
  20394572.906    20394577.457                   107174465.0180   83512487.1870

  25123963.180                    25123974.324   132027343.6340
  98591861.7690
  21752951.461    21752958.238    21752958.297   114312677.5060   89074884.4510
  85363426.7600
 22  5  2  2 14 30.0000000  0 11G02G05G07G11G13G14G15G18G20G24G30
  24355848.586    24355852.441                   127991066.6670   99733202.3200

  20231631.883    20231635.918                   106318134.4450   82845241.1380

  23787341.383    23787346.918                   125003437.8420   97405399.7530

  24037489.492    24037495.926    24037500.133   126318085.9170   98429600.0710
  94328367.4740
  20581844.172    20581848.180                   108158426.3410   84279300.6820

  22022734.094    22022739.625    22022743.598   115730339.8120   90179505.9040
  86422051.0290
  22684823.391    22684828.207                   119209540.0530   92890616.5180

  24076413.570    24076421.105    24076424.762   126522624.9370   98588908.0180
  94481037.1170
  20410331.227    20410334.527                   107257269.4430   83577010.0990

  25108947.805                    25108958.965   131948441.5600
  98532941.4410
  21771496.242    21771503.852    21771503.477   114410133.6050   89150824.2530
  85436202.4050
 22  5  2  2 15  0.0000000  0 11G02G05G07G11G13G14G15G18G20G24G30
  24377858.516    24377862.223                   128106722.7280   99823323.7760

  20235937.500    20235942.027                   106340762.6300   82862873.4740

  23809577.336    23809582.504                   125120286.2220   97496450.4070

  24062464.320    24062472.039    24062476.070   126449332.4590   98531869.9740
  94426376.1080
  20581715.078    20581719.047                   108157748.5120   84278772.5130

  22019427.070    22019432.465    22019436.246   115712960.6140   90165963.6790
  86409073.0550
  22674653.672    22674658.074                   119156096.9550   92848972.6050

  24074172.297    24074178.285    24074182.500   126510842.2940   98579726.7300
  94472238.3690
  20426185.711    20426190.484                   107340591.2750   83641936.1840

  25093951.492                    25093961.652   131869630.5560
  98474089.0300
  21790095.008    21790102.020    21790102.273   114507868.6390   89226981.4000
  85509186.3280
 22  5  2  2 15 30.0000000  0 11G02G05G07G11G13G14G15G18G20G24G30
  24399871.469    24399875.207                   128222401.8860   99913463.2850

  20240349.453    20240353.859                   106363946.3300   82880938.6870

  23831827.008    23831832.484                   125237212.1890   97587561.5520

  24087443.938    24087450.480    24087454.707   126580599.6880   98634156.0240
  94524400.1470
  20581632.469    20581636.309                   108157313.7940   84278433.7740

  22016212.266    22016218.113    22016221.930   115696068.7780   90152801.2180
  86396459.0490
  22664505.500    22664510.430                   119102771.2380   92807420.1340

  24072031.719    24072037.449    24072041.070   126499587.8260   98570957.0080
  94463834.0720
  20442139.633    20442144.148                   107424428.9450   83707264.2190

  25078971.234                    25078982.164   131790911.6530
  98415305.5170
  21808746.422    21808753.176    21808752.949   114605880.1290   89303353.9680
  85582376.7030
 22  5  2  2 16  0.0000000  0 11G02G05G07G11G13G14G15G18G20G24G30
  24421887.969    24421892.020                   128338099.4670  100003617.0880

  20244867.063    20244871.293                   106387685.4180   82899436.6810

  23854091.367    23854096.789                   125354212.8000   97678730.8300

  24112426.164    24112433.344    24112437.129   126711883.0590   98736454.6040
  94622436.2830
  20581595.469    20581599.742                   108157120.8840   84278283.4530

  22013090.234    22013096.629    22013100.203   115679664.8530   90140018.9700
  86384209.3850
  22654380.016    22654385.020                   119049562.1560   92765958.5500

  24069990.070    24069996.059    24069999.805   126488861.1530   98562598.5790
  94455823.8880
  20458191.227    20458195.566                   107508779.3430   83772991.7830

  25064008.211    25064017.941    25064020.320   131712284.4050  102632957.5201
  98356590.4200
  21827448.883    21827455.871    21827455.949   114704164.5690   89379939.2350
  85655770.9100
 22  5  2  2 16 30.0000000  0 11G02G05G07G11G13G14G15G18G20G24G30
  24443907.484    24443911.824                   128453812.0170  100093782.5820

  20249490.172    20249494.238                   106411979.8350   82918367.3760

  23876370.047    23876375.414                   125471286.1770   97769956.8520

  24137411.406    24137418.281    24137422.121   126843179.2710   98838763.2350
  94720482.0430
  20581605.586    20581608.980                   108157169.5080   84278321.3420

  22010062.031    22010068.375    22010071.648   115663750.5920   90127618.2550
  86372325.3700
  22644276.313    22644282.000                   118996470.3660   92724588.3520

  24068049.352    24068055.641    24068059.355   126478663.0870   98554652.0590
  94448208.4570
  20474340.016    20474344.145                   107593641.0340   83839117.7530

  25049064.664    25049074.023    25049075.848   131633749.9940  102571761.9561
  98297944.6190
  21846203.297    21846210.473    21846210.395   114802719.5390   89456735.2990
  85729367.1370
 22  5  2  2 17  0.0000000  0 11G02G05G07G11G13G14G15G18G20G24G30
  24465928.531    24465933.719                   128569536.4890  100183957.3720

  20254218.930    20254223.063                   106436830.0650   82937731.1880

  23898662.023    23898667.723                   125588429.8830   97861237.6570

  24162397.625    24162404.746    24162409.047   126974484.8100   98941079.1510
  94818534.8080
  20581660.188    20581664.039                   108157459.3000   84278547.1560

  22007127.461    22007133.176    22007136.789   115648327.4350   90115600.2320
  86360808.0980
  22634196.055    22634201.770                   118943496.3250   92683309.9100

  24066209.211    24066215.320    24066219.270   126468994.0970   98547117.7860
  94440988.1110
  20490585.203    20490589.668                   107679012.1370   83905640.6800

  25034137.391    25034146.824    25034148.949   131555309.0901  102510639.2271
  98239368.7150
  21865008.383    21865015.867    21865015.766   114901542.4160   89533740.1070
  85803163.4050
 22  5  2  2 17 30.0000000  0 11G02G05G07G11G13G14G15G18G20G24G30
  24487952.164    24487957.297                   128685272.3910  100274141.0600

  20259054.445    20259058.453                   106462239.2290   82957530.5300

  23920967.773    23920972.844                   125705644.8500   97952573.9620

  24187386.391    24187393.281    24187396.891   127105799.1830   99043401.9830
  94916594.0870
  20581761.742    20581765.742                   108157992.8820   84278962.9380

  22004286.797    22004292.391    22004296.430   115633399.8540   90103968.3750
  86349660.8860
  22624138.859    22624144.332                   118890643.1720   92642125.6850

  24064469.508    24064476.688    24064480.766   126459857.6120   98539998.4300
  94434165.4130
  20506928.203    20506932.449                   107764893.6850   83972561.3490

  25019229.438    25019239.180    25019239.352   131476965.4800  102449592.3061
  98180865.4100
  21883865.016    21883871.980    21883872.012   115000633.5790   89610953.9840
  85877160.0260
 22  5  2  2 18  0.0000000  0 11G02G05G07G11G13G14G15G18G20G24G30
  24509976.664    24509982.480                   128801017.3650  100364331.8260

  20263995.609    20263999.992                   106488208.0300   82977765.9470

  23943286.891    23943291.102                   125822929.6440   98043964.6890

  24212375.602    24212382.578    24212386.531   127237119.5420   99145729.4270
  95014657.9130
  20581909.391    20581913.637                   108158770.5080   84279568.8810

  22001540.742    22001546.188    22001550.340   115618969.9120   90092724.2830
  86338885.3270
  22614104.555    22614109.578                   118837912.0290   92601036.5210

  24062832.695    24062839.262    24062843.441   126451254.8960   98533295.0320
  94427741.3040
  20523367.594    20523371.961                   107851284.4400   84039878.7970

  25004340.227    25004349.324    25004349.684   131398720.6060  102388622.2110
  98122435.8270
  21902771.695    21902778.953    21902779.195   115099991.1110   89688375.4150
  85951355.5580
 22  5  2  2 18 30.0000000  0 11G02G05G07G11G13G14G15G18G20G24G30
  24532000.625    24532008.488                   128916765.6190  100454525.1890

  20269043.453    20269047.891                   106514734.7230   82998436.0840

  23965616.141    23965622.145                   125940280.1100   98135406.6210

  24237364.797    24237371.520    24237375.934   127368440.3120   99248057.2150
  95112722.0190
  20582103.602    20582107.723                   108159789.7040   84280363.0630

  21998888.953    21998895.020    21998899.168   115605037.0050   90081867.4910
  86328480.8990
  22604092.883    22604097.629                   118785301.0430   92560040.9760

  24061298.203    24061304.027    24061307.750   126443184.2370   98527006.2310
  94421714.5420
  20539903.438    20539907.641                   107938180.1670   84107589.7320

  24989468.359    24989478.445    24989479.027
  98064079.0510
  21921728.984    21921736.207    21921735.965   115199610.3290   89766000.7720
  86025746.5150
 22  5  2  2 19  0.0000000  0 11G02G05G07G11G13G14G15G18G20G24G30
  24554028.438    24554035.289                   129032516.1900  100544720.3330

  20274198.070    20274202.586                   106541821.8010   83019542.8910

  23987961.547    23987965.305                   126057696.2470   98226899.7190

  24262353.102    24262361.164    24262365.047   127499760.2720   99350384.3710
  95210785.5240
  20582343.594    20582347.844                   108161052.1610   84281346.8030

  21996333.000    21996339.023    21996343.250   115591604.8240   90071400.8750
  86318450.3910
  22594105.289    22594109.910                   118732812.9070   92519141.1830

  24059864.125    24059869.723    24059873.859   126435648.3890   98521134.1410
  94416087.1240
  20556535.430    20556539.523                   108025581.2290   84175694.4450

  24974615.961    24974627.727    24974627.543   131242526.4321  102266912.6311
  98005797.4130
  21940735.922    21940742.941    21940742.879   115299490.9740   89843829.8310
  86100332.6820
 22  5  2  2 19 30.0000000  0 11G02G05G07G11G13G14G15G18G20G24G30
  24576054.898    24576061.875                   129148268.1350  100634916.5980

  20279459.336    20279464.012                   106569471.1390   83041087.8220

  24010316.906    24010321.965                   126175178.0520   98318443.9740

  24287343.086    24287350.277    24287354.473   127631078.1650   99452709.9550
  95308847.4590
  20582630.609    20582634.766                   108162559.7580   84282521.5600

  21993873.148    21993878.770    21993883.055   115578676.9340   90061327.2140
  86308796.4820
  22584139.828    22584145.531                   118680450.0350   92478338.9880

  24058532.570    24058538.234    24058542.258   126428649.9660   98515680.8300
  94410861.0310
  20573263.297    20573267.461                   108113487.7510   84244193.0100

  24959783.977                    24959795.828   131164583.1911
  97947593.1870
  21959792.156    21959799.098    21959799.086   115399632.5400   89921862.1980
  86175113.7130
 22  5  2  2 20  0.0000000  0 11G02G05G07G11G13G14G15G18G20G24G30
  24598083.094    24598089.262                   129264018.4500  100725111.5230

  20284828.305    20284832.688                   106597683.3380   83063071.3460

  24032686.039    24032690.305                   126292723.9500   98410038.1570

  24312331.445    24312338.363    24312342.391   127762390.7940   99555031.3620
  95406905.4930
  20582964.180    20582968.426                   108164312.5230   84283887.3580

  21991509.258    21991515.184    21991519.129   115566255.0430   90051647.8400
  86299520.4110
  22574199.898    22574204.957                   118628212.8950   92437634.7590

  24057302.367    24057307.922    24057312.477   126422189.6140   98510646.8130
  94406036.7900
  20590087.094    20590091.660                   108201898.2520   84313084.3010

  24944971.859    24944981.395    24944984.168   131086744.6311  102145526.4941
  97889467.1220
  21978897.617    21978904.645    21978904.680   115500032.8030   90000096.1560
  86250087.9170
 22  5  2  2 20 30.0000000  0 11G02G05G07G11G13G14G15G18G20G24G30
  24620109.977    24620114.230                   129379763.6980  100815302.5450

  20290304.555    20290308.297                   106626458.6650   83085493.6650

  24055065.555    24055069.719                   126410331.9130   98501680.6990

  24337316.727    24337324.496    24337327.992   127893694.7370   99657346.0290
  95504957.0350
  20583343.719    20583348.586                   108166309.7790   84285443.6750

  21989241.789    21989247.758    21989251.707   115554340.3710   90042363.6960
  86290623.1110
  22564284.063    22564288.574                   118576102.2110   92397029.0640

  24056175.906    24056181.734    24056185.691   126416267.6800   98506032.3640
  94401614.5970
  20607006.719    20607011.094                   108290810.4510   84382366.5170

  24930179.820    24930190.551    24930191.656   131009011.3841  102084955.1481
  97831419.6930
  21998052.250    21998059.258    21998059.027   115600689.1000   90078529.6110
  86325253.3090
 22  5  2  2 21  0.0000000  0 11G02G05G07G11G13G14G15G18G20G24G30
  24642134.313    24642138.848                   129495503.7920  100905489.5480

  20295887.258    20295891.902                   106655800.1250   83108357.1320

  24077456.484    24077462.512                   126528002.6400   98593372.1800

  24362299.672    24362308.465    24362312.598   128024989.4680   99759653.5320
  95603001.6880
  20583771.414    20583775.492                   108168554.7070   84287192.9690

  21987072.086    21987078.055    21987081.648   115542937.3900   90033478.2700
  86282107.9220
  22554391.695    22554396.660                   118524121.3010   92356524.5000

  24055152.750    24055158.133    24055162.105   126410887.5040   98501840.0390
  94397596.9710
  20624022.391    20624026.195                   108380225.3260   84452040.4310

  24915409.508    24915418.863    24915419.691   130931387.1881  102024468.9101
  97773453.6930
  22017255.328    22017262.125    22017262.145   115701601.9240   90157162.9670
  86400610.2720
 22  5  2  2 21 30.0000000  0 11G02G05G07G11G13G14G15G18G20G24G30
  24664155.484    24664161.273                   129611232.2480  100995667.4940

  20301577.984    20301582.449                   106685704.6620   83131659.3620

  24099859.320    24099865.184                   126645731.1700   98685108.6850

  24387281.539    24387290.637    24387293.488   128156268.9160   99861949.0830
  95701034.9640
  20584245.086    20584249.105                   108171043.6570   84289132.4170

  21984999.469    21985005.383    21985008.617   115532044.7010   90024990.4820
  86273973.7850
  22544523.570    22544529.391                   118472267.6670   92316119.0790

  24054230.445    24054236.949    24054240.477   126406046.8240   98498068.0830
  94393982.2110
  20641132.102    20641135.879                   108470138.2560   84522102.4370

  24900655.359    24900667.551    24900668.293   130853870.1830  101964066.1760
  97715567.7830
  22036506.203    22036513.063    22036513.117   115802766.0110   90235992.0990
  86476154.8460
 22  5  2  2 22  0.0000000  0 11G02G05G07G11G13G14G15G18G20G24G30
  24686177.945    24686181.570                   129726948.3810  101085835.8510

  20307376.414    20307380.723                   106716174.7960   83155402.3100

  24122273.789    24122279.566                   126763517.6110   98776890.3250

  24412261.688    24412268.398    24412273.402   128287531.7981   99964231.7521
  95799055.8840
  20584765.688    20584769.629                   108173778.5580   84291263.5090

  21983023.898    21983030.078    21983033.652   115521665.7370   90016902.9970
  86266223.2940
  22534681.094    22534686.773                   118420544.0210   92275814.9640

  24053412.797    24053418.453    24053422.598   126401748.0850   98494718.4320
  94390772.1490
  20658336.180    20658340.703                   108560549.1450   84592552.4690

  24885927.094    24885937.008    24885937.648   130776463.3101  101903749.3141
  97657764.0900
  22055805.352    22055811.609    22055811.543   115904180.9040   90315016.6750
  86551886.7300
 22  5  2  2 22 30.0000000  0 11G02G05G07G11G13G14G15G18G20G24G30
  24708195.133    24708199.324                   129842647.2960  101175990.7420

  20313282.469    20313286.359                   106747208.9440   83179584.7530

  24144698.328    24144703.961                   126881358.6920   98868714.5510

  24437235.625    24437242.965    24437247.410   128418773.1320  100066497.6680
  95897060.6850
  20585332.367    20585336.609                   108176757.5630   84293584.8210

  21981147.539    21981152.660    21981156.191   115511800.3130   90009215.6750
  86258856.2600
  22524862.438    22524868.578                   118368949.2550   92235611.2960

  24052696.992    24052703.160    24052707.426   126397990.0550   98491790.0930
  94387965.8300
  20675635.000    20675639.484                   108651454.5950   84663387.8580

  24871218.953    24871227.277    24871228.410   130699165.8130  101843517.5840
  97600042.0490
  22075150.008    22075157.285    22075157.402   116005842.5620   90394233.5430
  86627802.8860
 22  5  2  2 23  0.0000000  0 11G02G05G07G11G13G14G15G18G20G24G30
  24730207.734    24730211.188                   129958325.2620  101266129.3940

  20319294.852    20319299.324                   106778806.7590   83204206.4210

  24167133.859    24167137.914                   126999252.0230   98960579.4820

  24462205.992    24462212.547    24462217.109   128549989.2720  100168743.9840
  95995046.6870
  20585945.406    20585949.844                   108179980.1860   84296095.9590

  21979367.305    21979373.199    21979376.941   115502449.4100   90001929.2710
  86251873.4800
  22515069.531    22515075.258                   118317483.2230   92195507.9240

  24052085.422    24052091.367    24052095.441   126394772.7290   98489283.1380
  94385563.3070
  20693027.852    20693031.598                   108742852.0060   84734606.6090

  24856528.742    24856539.500    24856540.258   130621978.2661  101783371.5471
  97542402.1530
  22094542.477    22094549.152    22094549.250   116107748.1970   90473640.5130
  86703901.2260
 22  5  2  2 23 30.0000000  0 11G02G05G07G11G13G14G15G18G20G24G30
  24752216.078    24752220.801                   130073984.8880  101356253.7200

  20325415.594    20325420.629                   106810974.2370   83229271.9800

  24189578.055    24189583.148                   127117201.2320   99052487.9760

  24487171.664    24487177.988    24487182.297   128681182.7600  100270972.6010
  96093015.7440
  20586606.242    20586610.336                   108183451.7770   84298801.1040

  21977687.070    21977692.914    21977696.816   115493620.2830   89995049.4490
  86245280.3150
  22505302.523    22505307.086                   118266152.3750   92155509.8940

  24051576.086    24051583.367    24051587.332   126392102.2980   98487202.3000
  94383569.1570
  20710514.453    20710518.523                   108834745.2810   84806211.7470

  24841863.203    24841873.184    24841874.414   130544907.3001  101723316.3541
  97484849.3170
  22113981.352    22113988.488    22113988.230   116209901.1510   90553240.2040
  86780184.2650
 22  5  2  2 24  0.0000000  0 11G02G05G07G11G13G14G15G18G20G24G30
  24774221.500    24774226.016                   130189622.9540  101446361.2510

  20331645.695    20331650.391                   106843711.3880   83254781.4380

  24212031.828    24212038.121                   127235204.4420   99144438.5040

  24512132.117    24512138.016    24512143.203   128812350.0600  100373180.8050
  96190965.2850
  20587313.539    20587318.184                   108187171.9280   84301699.9180

  21976106.875    21976112.191    21976116.063   115485314.0010   89988577.0330
  86239077.5800
  22495559.906    22495564.895                   118214957.1420   92115617.5400

  24051172.484    24051178.742    24051183.176   126389978.8430   98485547.6650
  94381983.4960
  20728095.758    20728099.238                   108927132.3130   84878201.6250

  24827220.234    24827229.012    24827231.063   130467953.4291  101663352.4361
  97427383.9090
  22133467.516    22133474.125    22133473.781   116312298.7710   90633030.5370
  86856649.9920
 22  5  2  2 24 30.0000000  0 11G02G05G07G11G13G14G15G18G20G24G30
  24796222.227    24796226.449                   130305235.1220  101536448.5750

  20337983.656    20337988.113                   106877016.7030   83280733.6300

  24234496.391    24234502.855                   127353258.2730   99236428.5150

  24537087.117    24537093.105    24537098.309   128943486.5770  100475365.0930
  96288891.8320
  20588068.711    20588073.242                   108191139.1470   84304791.2630

  21974625.969    21974631.004    21974634.926   115477530.4980   89982511.9790
  86233265.2350
  22485842.547    22485848.582                   118163896.5310   92075830.0760

  24050871.992    24050878.719    24050883.039   126388401.4420   98484318.5400
  94380805.5690
  20745768.773    20745773.254                   109020009.5480   84950573.4790

  24812598.250    24812608.871    24812609.656   130391116.5340  101603479.6510
  97370005.7970
  22152998.531    22153005.844    22153005.625   116414937.2770   90713008.5770
  86933295.6200
 22  5  2  2 25  0.0000000  0 11G02G05G07G11G13G14G15G18G20G24G30
  24818215.180    24818221.559                   130420820.0580  101626514.6480

  20344430.008    20344434.414                   106910891.9870   83307129.9370

  24256972.172    24256977.918                   127471362.7110   99328457.9230

  24562034.570    24562040.684    24562045.867   129074590.9600  100577524.2810
  96386794.3880
  20588871.313    20588875.469                   108195354.6940   84308076.1140

  21973244.336    21973250.207    21973254.027   115470273.0640   89976856.8630
  86227845.7470
  22476151.859    22476157.859                   118112973.0440   92036149.4710

  24050676.453    24050682.660    24050687.328   126387372.1950   98483516.5640
  94380037.0140
  20763536.156    20763540.473                   109113376.7470   85023327.1210

  24797998.414    24798009.613    24798010.699   130314399.1140  101543699.8310
  97312716.9530
  22172575.438    22172582.840    22172582.777   116517816.1670   90793173.9270
  87010120.7400
 22  5  2  2 25 30.0000000  0 11G02G05G07G11G13G14G15G18G20G24G30
  24840206.102    24840210.895                   130536371.0490  101716554.2870

  20350983.797    20350988.375                   106945333.7250   83333967.6520

  24279454.742    24279460.664                   127589512.2880   99420522.5020

  24586975.773    24586983.105    24586987.109   129205656.3400  100679653.1520
  96484667.8130
  20589720.164    20589724.313                   108199815.2390   84311551.8640

  21971963.141    21971968.570    21971972.629   115463539.3150   89971609.7920
  86222817.3300
  22466487.992    22466492.898                   118062183.6990   91996573.3900

  24050584.328    24050590.105    24050594.762   126386887.8480   98483139.1440
  94379675.3200
  20781395.633    20781399.910                   109207228.3000   85096458.1870

  24783423.492    24783432.383    24783433.770   130237798.3960  101484011.0790
  97255515.1930
  22192197.398    22192204.727    22192204.426   116620929.3740   90873521.8650
  87087120.8450
 22  5  2  2 26  0.0000000  0 11G02G05G07G11G13G14G15G18G20G24G30
  24862184.969    24862191.891                   130651886.0740  101806566.0010

  20357645.977    20357650.375                   106980343.1130   83361247.6870

  24301947.172    24301952.520                   127707706.2440   99512621.6810

  24611908.766    24611916.164    24611920.387   129336680.5840  100781749.8760
  96582510.5350
  20590615.492    20590619.773                   108204521.4810   84315219.0640

  21970781.672    21970787.465    21970791.320   115457331.6980   89966772.7060
  86218181.7970
  22456849.227    22456853.641                   118011530.2110   91957103.1920

  24050596.617    24050601.992    24050606.453   126386949.7450   98483187.3790
  94379721.5530
  20799347.125    20799351.090                   109301563.1100   85169965.8120

  24768866.938    24768878.551    24768879.699   130161316.5690  101424414.9691
  97198402.2930
  22211862.625    22211870.477    22211870.633   116724275.5860   90954051.3680
  87164294.9560
 22  5  2  2 26 30.0000000  0 11G02G05G07G11G13G14G15G18G20G24G30
  24884160.586    24884167.773                   130767364.8020  101896549.4460

  20364416.781    20364420.988                   107015923.0810   83388972.3260

  24324447.391    24324453.262                   127825945.3470   99604756.0420

  24636834.289    24636841.367    24636844.793   129467663.0730  100883814.1250
  96680322.1040
  20591558.148    20591562.836                   108209476.0590   84319079.7850

  21969701.648    21969706.961    21969710.938   115451654.1690   89962348.6780
  86213942.1070
  22447236.328    22447240.945                   117961015.6120   91917741.2060

  24050712.016    24050718.363    24050722.918   126387560.8130   98483663.5720
  94380177.8880
  20817390.430    20817394.461                   109396381.7550   85243850.4500

  24754336.070    24754347.219    24754348.551   130084957.2630  101364914.2510
  97141380.7590
  22231573.867    22231581.281    22231581.070   116827855.1750   91034762.7250
  87241643.3240
 22  5  2  2 27  0.0000000  0 11G02G05G07G11G13G14G15G18G20G24G30
  24906128.617    24906135.176                   130882805.1140  101986502.8930

  20371295.945    20371300.473                   107052074.5910   83417142.3240

  24346956.281    24346961.363                   127944229.1470   99696925.2310

  24661751.211    24661758.391    24661762.160   129598602.0330  100985844.4020
  96778101.1800
  20592548.508    20592552.926                   108214679.9330   84323134.7510

  21968722.945    21968728.055    21968731.605   115446509.4420   89958339.8190
  86210100.2860
  22437650.813    22437654.836                   117910642.0000   91878489.0820

  24050933.133    24050939.680    24050944.063   126388722.8300   98484569.0200
  94381045.6260
  20835525.375    20835529.941                   109491684.0070   85318111.9310

  24739830.445    24739840.613    24739841.098   130008722.6660  101305510.7140
  97084452.4110
  22251329.031    22251335.879    22251335.773   116931667.1370   91115655.1500
  87319165.2280
 22  5  2  2 27 30.0000000  0 11G02G05G07G11G13G14G15G18G20G24G30
  24928088.789    24928094.195                   130998201.4250  102076422.1110

  20378283.813    20378287.914                   107088794.4910   83445755.2290

  24369473.500    24369477.328                   128062553.2590   99789125.8100

  24686658.453    24686665.461    24686669.914   129729491.5520  101087836.2140
  96875843.2720
  20593585.719    20593590.148                   108220130.3310   84327381.8220

  21967844.656    21967849.883    21967853.848   115441895.8740   89954744.8540
  86206655.1120
  22428090.508    22428095.848                   117860407.1500   91839345.0610

  24051259.852    24051265.426    24051269.055   126390433.0800   98485901.7320
  94382322.7870
  20853752.070    20853756.301                   109587464.5330   85392746.0890

  24725346.766    24725356.508    24725356.488   129932610.8800  101246202.9120
  97027615.7640
  22271126.891    22271134.297    22271133.738   117035706.3380   91196724.6390
  87396856.8130
 22  5  2  2 28  0.0000000  0 11G02G05G07G11G13G14G15G18G20G24G30
  24950038.953    24950044.480                   131113549.8880  102166304.0540

  20385379.086    20385383.594                   107126082.4510   83474810.7720

  24391995.984    24392000.762                   128180914.7380   99881355.5790

  24711557.219    24711562.566    24711566.582   129860327.4240  101189786.1820
  96973545.3040
  20594669.766    20594673.891                   108225826.0780   84331820.0680

  21967067.516    21967073.414    21967077.188   115437813.8040   89951564.0240
  86203606.8210
  22418557.461    22418562.883                   117810311.0020   91800309.1300

  24051688.641    24051695.004    24051699.168   126392690.9700   98487661.1060
  94384008.8660
  20872069.492    20872073.117                   109683720.2870   85467750.5550

  24710886.219    24710895.582    24710895.777   129856621.9050  101186990.7590
  96970870.7880
  22290967.898    22290974.633    22290974.426   117139969.4340   91277968.5960
  87474715.6130
 22  5  2  2 28 30.0000000  0 11G02G05G07G11G13G14G15G18G20G24G30
  24971981.078    24971985.043                   131228849.9250  102256148.2180

  20392583.500    20392587.883                   107163940.0910   83504310.2210

  24414526.406    24414531.871                   128299313.5310   99973614.3520

  24736444.438    24736449.426    24736453.355   129991108.4360  101291693.3730
  97071206.3900
  20595800.711    20595804.949                   108231769.0420   84336450.9560

  21966392.828    21966398.398    21966402.273   115434266.4360   89948799.8510
  86200957.8200
  22409050.570    22409056.969                   117760356.1480   91761383.3120

  24052221.586    24052228.949    24052233.367   126395498.4380   98489848.7340
  94386105.3610
  20890476.273    20890480.668                   109780451.2370   85543125.3130

  24696450.813    24696460.352    24696459.473   129780758.4780  101127876.5090
  96914219.6220
  22310850.664    22310857.645    22310857.699   117244456.0140   91359386.6970
  87552741.2820
 22  5  2  2 29  0.0000000  0 11G02G05G07G11G13G14G15G18G20G24G30
  24993909.914    24993916.375                   131344100.9650  102345954.2170

  20399896.156    20399901.148                   107202370.8870   83534256.2860

  24437064.070    24437069.730                   128417751.7770  100065903.8640

  24761320.078    24761326.305    24761330.340   130121835.0320  101393558.1630
  97168826.8170
  20596979.500    20596983.633                   108237962.4870   84341277.0200

  21965820.242    21965825.777    21965829.648   115431258.3960   89946455.9430
  86198711.5860
  22399573.141    22399578.434                   117710546.4620   91722570.5990

  24052863.023    24052868.793    24052872.723   126398859.3400   98492467.6270
  94388615.1500
  20908974.383    20908978.637                   109877658.8600   85618871.4840

  24682040.680    24682049.121    24682048.453   129705025.3200  101068863.6730
  96857665.6600
  22330776.523    22330783.641    22330783.637   117349167.3270   91440979.9070
  87630934.7720
 22  5  2  2 29 30.0000000  0 11G02G05G07G11G13G14G15G18G20G24G30
  25015831.383    25015837.195                   131459297.9630  102435718.1600

  20407318.305    20407322.637                   107241372.0200   83564646.7790

  24459610.148    24459614.570                   128536224.9090  100158220.5720

  24786185.711    24786191.555    24786195.273   130252501.6620  101495376.2360
  97266402.4000
  20598204.938    20598208.871                   108244403.9390   84346296.3440

  21965350.039    21965355.879    21965359.566   115428788.4950   89944531.3680
  86196867.1970
  22390121.172    22390126.977                   117660880.2960   91683869.7290

  24053606.414    24053613.414    24053617.355   126402771.4630   98495516.0450
  94391536.5060
  20927561.625    20927566.254                   109975338.2240   85694985.2580

  24667652.109    24667662.023    24667662.000   129629420.7240  101009951.0810
  96801207.7090
  22350744.203    22350751.516    22350751.430   117454098.5950   91522744.5130
  87709292.5210
