     2.11           OBSERVATION DATA    M (MIXED)           RINEX VERSION / TYPE
Mdb2Rinex 5.6.29X   Unknown             20230402 185023 UTC PGM / RUN BY / DATE
gfzrnx-1.15-8044    HEADER EDIT         20230306 170320 UTC COMMENT
SNR is mapped to RINEX snr flag value [1-9]                 COMMENT
LX:     < 12dBHz -> 1; 12-17dBHz -> 2; 18-23dBHz -> 3       COMMENT
       24-29dBHz -> 4; 30-35dBHz -> 5; 36-41dBHz -> 6       COMMENT
       42-47dBHz -> 7; 48-53dBHz -> 8; >= 54dBHz -> 9       COMMENT
Map of observations from RINEX 3 to RINEX 2.11              COMMENT
 G: C1C->C1 C2W->P2 C5Q->C5 L1C->L1 L2W->L2 L5Q->L5         COMMENT
GRA1                                                        MARKER NAME
IGN & IECA          Unknown                                 OBSERVER / AGENCY
1871505             LEICA GR50          4.61/7.811          REC # / TYPE / VERS
102601              LEIAT504        LEIS                    ANT # / TYPE
  5077918.0120  -319155.7070  3834700.9350                  APPROX POSITION XYZ
        0.0000        0.0000        0.0000                  ANTENNA: DELTA H/E/N
     6    C1    P2    C5    L1    L2    L5                  # / TYPES OF OBSERV
     1.000                                                  INTERVAL
  2023    03    06    16    00   00.0000000     GPS         TIME OF FIRST OBS
  2023    03    06    16    59   59.0000000     GPS         TIME OF LAST OBS
    12                                                      # OF SATELLITES
   G02   879   872         853   853                        PRN / # OF OBS
   G07  2936  2929        2908  2907                        PRN / # OF OBS
   G08  3600  3600  3600  3600  3600  3600                  PRN / # OF OBS
   G10  3600  3600  3424  3600  3600  3424                  PRN / # OF OBS
   G16  3600  3600        3600  3600                        PRN / # OF OBS
   G18  3600  3600  3600  3600  3600  3600                  PRN / # OF OBS
   G21  1595  1248        1594  1248                        PRN / # OF OBS
   G23  3600  3600  3600  3600  3600  3600                  PRN / # OF OBS
   G26  3600  3600  3600  3600  3600  3600                  PRN / # OF OBS
   G27  3600  3600  3600  3600  3600  3600                  PRN / # OF OBS
   G28   228     4         168     4                        PRN / # OF OBS
   G31  1857  1829        1816  1810                        PRN / # OF OBS
                                                            END OF HEADER
 23  3  6 16  0  0.0000000  0  9G02G08G10G16G18G23G26G27G31
  25226569.020    25226576.500                   132566735.2360  103298910.4660

  24206485.160    24206503.080    24206503.640   127206008.5950   99121661.9410
  94991554.2310
  23796756.960    23796796.860                   125053157.9190   97444143.2370

  20880974.280    20880978.940                   109730401.1580   85504302.2390

  21335599.140    21335605.100    21335609.220   112119785.9140   87366273.5980
  83725764.5500
  22729713.540    22729724.740    22729729.260   119446074.4060   93074930.2080
  89196465.6980
  20274134.360    20274142.460    20274141.120   106541451.2780   83019430.8350
  79560298.7740
  21492724.820    21492733.560    21492733.720   112945324.8730   88009476.5150
  84342339.7830
  23907143.940    23907168.300                   125632590.2170   97895465.7520

 23  3  6 16  0  1.0000000  0  9G02G08G10G16G18G23G26G27G31
  25227182.780    25227190.300                   132569960.6460  103301423.7640

  24205985.780    24206003.700    24206004.280   127203384.4900   99119617.1940
  94989594.6820
  23796183.480    23796223.360                   125050144.4740   97441795.1460

  20880663.280    20880667.940                   109728766.8760   85503028.7730

  21335978.100    21335984.060    21335988.180   112121777.3700   87367825.3840
  83727251.6800
  22729335.160    22729346.360    22729350.860   119444086.0180   93073380.8290
  89194980.8770
  20274278.120    20274286.240    20274284.880   106542206.7470   83020019.5140
  79560862.9230
  21492392.560    21492401.300    21492401.460   112943578.8850   88008116.0060
  84341035.9560
  23907799.980    23907824.360                   125636037.4700   97898151.8620

 23  3  6 16  0  2.0000000  0  9G02G08G10G16G18G23G26G27G31
  25227796.600    25227804.080                   132573186.2000  103303937.1830

  24205486.440    24205504.380    24205504.960   127200760.5350   99117572.5740
  94987635.2670
  23795610.040    23795649.900                   125047131.2340   97439447.2120

  20880352.380    20880357.040                   109727133.0780   85501755.6870

  21336357.160    21336363.120    21336367.260   112123769.3700   87369377.5900
  83728739.2150
  22728956.880    22728968.060    22728972.580   119442098.1570   93071831.8520
  89193496.4370
  20274422.000    20274430.100    20274428.760   106542962.8050   83020608.6480
  79561427.5080
  21492060.380    21492069.100    21492069.280   112941833.2230   88006755.7520
  84339732.3850
  23908456.040    23908480.420                   125639484.8550   97900838.0700

 23  3  6 16  0  3.0000000  0  9G02G08G10G16G18G23G26G27G31
  25228410.440    25228417.940                   132576411.9220  103306450.7340

  24204987.160    24205005.100    24205005.700   127198136.9330   99115528.2330
  94985676.0810
  23795036.660    23795076.500                   125044118.2730   97437099.4940

  20880041.580    20880046.240                   109725499.8810   85500483.0660

  21336736.360    21336742.300    21336746.440   112125762.0330   87370930.3100
  83730227.2380
  22728578.740    22728589.900    22728594.400   119440110.9230   93070283.3650
  89192012.4690
  20274566.000    20274574.120    20274572.760   106543719.5800   83021198.3380
  79561992.6320
  21491728.280    21491737.000    21491737.180   112940087.9960   88005395.8400
  84338429.1340
  23909112.140    23909136.540                   125642932.5020   97903524.4870

 23  3  6 16  0  4.0000000  0  9G02G08G10G16G18G23G26G27G31
  25229024.300    25229031.780                   132579637.7020  103308964.3190

  24204487.900    24204505.860    24204506.460   127195513.4300   99113483.9620
  94983717.0070
  23794463.300    23794503.120                   125041105.4590   97434751.8920

  20879730.880    20879735.540                   109723867.1260   85499210.7910

  21337115.640    21337121.580    21337125.720   112127755.1830   87372483.4120
  83731715.6280
  22728200.660    22728211.820    22728216.320   119438124.1750   93068735.2600
  89190528.8750
  20274710.120    20274718.240    20274716.880   106544476.9150   83021788.4690
  79562558.1760
  21491396.220    21491404.940    21491405.140   112938343.0670   88004036.1560
  84337126.1040
  23909768.260    23909792.680                   125646380.2550   97906210.9860

 23  3  6 16  0  5.0000000  0  9G02G08G10G16G18G23G26G27G31
  25229638.160    25229645.620                   132582863.5210  103311477.9400

  24203988.720    24204006.660    24204007.240   127192890.0870   99111439.8030
  94981758.0230
  23793889.980    23793929.780                   125038092.8020   97432404.4100

  20879420.260    20879424.920                   109722234.8010   85497938.8520

  21337495.020    21337500.960    21337505.100   112129748.8150   87374036.8910
  83733204.3840
  22727822.680    22727833.840    22727838.340   119436137.8930   93067187.5140
  89189045.6330
  20274854.340    20274862.440    20274861.100   106545234.7930   83022379.0220
  79563124.1200
  21491064.220    21491072.940    21491073.140   112936598.4060   88002676.6860
  84335823.2810
  23910424.420    23910448.840                   125649828.1050   97908897.5570

 23  3  6 16  0  6.0000000  0  9G02G08G10G16G18G23G26G27G31
  25230252.040    25230259.520                   132586089.5690  103313991.7400

  24203489.560    24203507.520    24203508.080   127190267.0780   99109395.9200
  94979799.2810
  23793316.720    23793356.460                   125035080.4480   97430057.1660

  20879109.760    20879114.400                   109720603.1000   85496667.3990

  21337874.520    21337880.460    21337884.600   112131743.1200   87375590.8950
  83734693.6380
  22727444.840    22727455.980    22727460.480   119434152.2830   93065640.2930
  89187562.8710
  20274998.700    20275006.800    20275005.460   106545993.4080   83022970.1520
  79563690.6160
  21490732.300    21490741.020    21490741.240   112934854.2040   88001317.5720
  84334520.7980
  23911080.620    23911105.060                   125653276.2300   97911584.3470

 23  3  6 16  0  7.0000000  0  9G02G08G10G16G18G23G26G27G31
  25230865.960    25230873.420                   132589315.6820  103316505.5990

  24202990.440    24203008.400    24203008.960   127187644.1950   99107352.1110
  94977840.6660
  23792743.480    23792783.200                   125032068.2930   97427710.0840

  20878799.340    20878804.000                   109718971.8680   85495396.3110

  21338254.120    21338260.060    21338264.200   112133737.9520   87377145.3100
  83736183.2760
  22727067.080    22727078.240    22727082.700   119432167.1910   93064093.4740
  89186080.5070
  20275143.180    20275151.280    20275149.940   106546752.6030   83023561.7330
  79564257.5430
  21490400.440    21490409.180    21490409.400   112933110.3210   87999958.7040
  84333218.5520
  23911736.840    23911761.300                   125656724.4820   97914271.2330

 23  3  6 16  0  8.0000000  0  9G02G08G10G16G18G23G26G27G31
  25231479.860    25231487.360                   132592541.7430  103319019.4160

  24202491.340    24202509.300    24202509.840   127185021.4180   99105308.3880
  94975882.0790
  23792170.240    23792209.960                   125029056.1560   97425363.0110

  20878488.980    20878493.640                   109717340.9730   85494125.4880

  21338633.820    21338639.740    21338643.860   112135733.1730   87378700.0300
  83737673.2140
  22726689.400    22726700.540    22726705.020   119430182.4690   93062546.9440
  89184598.4170
  20275287.740    20275295.840    20275294.500   106547512.2500   83024153.6630
  79564824.8140
  21490068.620    21490077.360    21490077.600   112931366.6290   87998599.9900
  84331916.4460
  23912393.080    23912417.540                   125660172.7420   97916958.1270

 23  3  6 16  0  9.0000000  0  9G02G08G10G16G18G23G26G27G31
  25232093.760    25232101.280                   132595767.8810  103321533.3000

  24201992.260    24202010.240    24202010.760   127182398.7530   99103264.7640
  94973923.6290
  23791597.040    23791636.760                   125026044.1700   97423016.0540

  20878178.720    20878183.380                   109715710.5220   85492855.0110

  21339013.600    21339019.520    21339023.640   112137728.9040   87380255.1410
  83739163.5240
  22726311.820    22726322.940    22726327.400   119428198.2330   93061000.7940
  89183116.6860
  20275432.400    20275440.500    20275439.160   106548272.4560   83024746.0300
  79565392.4930
  21489736.860    21489745.600    21489745.840   112929623.2110   87997241.4840
  84330614.5510
  23913049.340    23913073.800                   125663621.1280   97919645.1170

 23  3  6 16  0 10.0000000  0  9G02G08G10G16G18G23G26G27G31
  25232707.680    25232715.200                   132598994.0310  103324047.1770

  24201493.200    24201511.160    24201511.720   127179776.2480   99101221.2600
  94971965.2610
  23791023.880    23791063.540                   125023032.2960   97420669.1780

  20877868.540    20877873.200                   109714080.4950   85491584.8610

  21339393.460    21339399.380    21339403.500   112139725.1010   87381810.6160
  83740654.1920
  22725934.320    22725945.440    22725949.900   119426214.4730   93059455.0150
  89181635.3150
  20275577.180    20275585.260    20275583.920   106549033.1930   83025338.8100
  79565960.5820
  21489405.160    21489413.880    21489414.140   112927880.0580   87995883.1870
  84329312.8470
  23913705.600    23913730.080                   125667069.5660   97922332.1480

 23  3  6 16  0 11.0000000  0  9G02G08G10G16G18G23G26G27G31
  25233321.560    25233329.080                   132602220.0470  103326560.9540

  24200994.140    24201012.060    24201012.640   127177153.6360   99099177.6760
  94970006.8400
  23790450.700    23790490.340                   125020020.4200   97418322.3090

  20877558.400    20877563.060                   109712450.7400   85490314.9230

  21339773.380    21339779.300    21339783.420   112141721.6170   87383366.3410
  83742145.0900
  22725556.880    22725568.000    22725572.440   119424230.9970   93057909.4620
  89180154.1750
  20275722.020    20275730.100    20275728.760   106549794.3250   83025931.8980
  79566528.9560
  21489073.460    21489082.180    21489082.460   112926137.0280   87994524.9840
  84328011.2360
  23914361.840    23914386.340                   125670517.9540   97925019.1450

 23  3  6 16  0 12.0000000  0  9G02G08G10G16G18G23G26G27G31
  25233935.440    25233942.940                   132605445.9740  103329074.6590

  24200495.080    24200512.980    24200513.580   127174531.0920   99097134.1520
  94968048.4220
  23789877.540    23789917.140                   125017008.5700   97415975.4560

  20877248.320    20877252.980                   109710821.2720   85489045.2090

  21340153.380    21340159.280    21340163.400   112143718.4840   87384922.3390
  83743636.2600
  22725179.500    22725190.620    22725195.060   119422247.8940   93056364.1970
  89178673.2820
  20275866.940    20275875.020    20275873.680   106550555.8640   83026525.3000
  79567097.6290
  21488741.800    21488750.520    21488750.820   112924394.1400   87993166.8940
  84326709.7350
  23915018.080    23915042.600                   125673966.2880   97927706.0960

 23  3  6 16  0 13.0000000  0  9G02G08G10G16G18G23G26G27G31
  25234549.280    25234556.800                   132608671.7170  103331588.2270

  24199996.000    24200013.920    24200014.500   127171908.4070   99095090.5210
  94966089.9600
  23789304.340    23789343.920                   125013996.6230   97413628.5290

  20876938.280    20876942.960                   109709192.0160   85487775.6600

  21340533.420    21340539.320    21340543.440   112145715.6070   87386478.5390
  83745127.6210
  22724802.160    22724813.280    22724817.720   119420265.0190   93054819.1080
  89177192.5880
  20276011.920    20276020.000    20276018.660   106551317.7200   83027118.9570
  79567666.5560
  21488410.140    21488418.860    21488419.180   112922651.3000   87991808.8400
  84325408.2750
  23915674.300    23915698.820                   125677414.4890   97930392.9440

 23  3  6 16  0 14.0000000  0  9G02G08G10G16G18G23G26G27G31
  25235163.100    25235170.600                   132611897.3080  103334101.6770

  24199496.900    24199514.820    24199515.400   127169285.6740   99093046.8350
  94964131.4490
  23788731.160    23788770.700                   125010984.6170   97411281.5590

  20876628.280    20876632.960                   109707563.0000   85486506.2980

  21340913.520    21340919.420    21340923.540   112147713.0200   87388034.9630
  83746619.1930
  22724424.880    22724436.000    22724440.420   119418282.4360   93053274.2460
  89175712.0820
  20276156.940    20276165.040    20276163.700   106552079.9190   83027712.8760
  79568235.7220
  21488078.500    21488087.220    21488087.540   112920908.5380   87990450.8500
  84324106.8620
  23916330.500    23916355.060                   125680862.5840   97933079.7070

 23  3  6 16  0 15.0000000  0  9G02G08G10G16G18G23G26G27G31
  25235776.920    25235784.400                   132615123.0120  103336615.2100

  24198997.840    24199015.760    24199016.360   127166663.1670   99091003.3310
  94962173.1050
  23788158.000    23788197.520                   125007972.8570   97408934.7820

  20876318.380    20876323.060                   109705934.5120   85485237.3480

  21341293.720    21341299.620    21341303.740   112149711.0080   87389591.8350
  83748111.1990
  22724047.720    22724058.820    22724063.240   119416300.4180   93051729.8210
  89174232.0190
  20276302.120    20276310.200    20276308.860   106552842.7680   83028307.3020
  79568805.3870
  21487746.940    21487755.660    21487755.980   112919166.1450   87989093.1450
  84322805.7380
  23916986.720    23917011.300                   125684310.8700   97935766.6210

 23  3  6 16  0 16.0000000  0  9G02G08G10G16G18G23G26G27G31
  25236390.780    25236398.220                   132618348.8340  103339128.8420

  24198498.840    24198516.700    24198517.340   127164040.8440   99088959.9730
  94960214.8830
  23787584.900    23787624.360                   125004961.3040   97406588.1640

  20876008.580    20876013.260                   109704306.5120   85483968.7810

  21341674.020    21341679.940    21341684.040   112151709.5450   87391149.1360
  83749603.6110
  22723670.660    22723681.740    22723686.160   119414318.9300   93050185.8040
  89172752.3470
  20276447.400    20276455.480    20276454.160   106553606.2250   83028902.2030
  79569375.5020
  21487415.440    21487424.140    21487424.500   112917424.0980   87987735.7120
  84321504.8590
  23917643.000    23917667.560                   125687759.3080   97938453.6550

 23  3  6 16  0 17.0000000  0  9G02G08G10G16G18G23G26G27G31
  25237004.640    25237012.080                   132621574.6630  103341642.4750

  24197999.840    24198017.720    24198018.360   127161418.6100   99086916.6840
  94958256.7390
  23787011.820    23787051.240                   125001949.8980   97404241.6590

  20875698.880    20875703.540                   109702678.9510   85482700.5540

  21342054.420    21342060.340    21342064.440   112153708.5710   87392706.8170
  83751096.3830
  22723293.680    22723304.760    22723309.180   119412337.9060   93048642.1590
  89171273.0350
  20276592.780    20276600.880    20276599.540   106554370.2290   83029497.5290
  79569946.0150
  21487083.980    21487092.680    21487093.060   112915682.3140   87986378.4840
  84320204.1820
  23918299.280    23918323.840                   125691207.8380   97941140.7560

 23  3  6 16  0 18.0000000  0  9G02G08G10G16G18G23G26G27G31
  25237618.440    25237625.900                   132624800.2410  103344155.9060

  24197500.800    24197518.660    24197519.320   127158796.2290   99084873.2830
  94956298.4570
  23786438.700    23786478.120                   124998938.2870   97401894.9920

  20875389.180    20875393.840                   109701051.4880   85481432.4010

  21342434.860    21342440.760    21342444.860   112155707.7500   87394264.6180
  83752589.2800
  22722916.740    22722927.820    22722932.200   119410357.0490   93047098.6440
  89169793.8200
  20276738.220    20276746.300    20276744.960   106555134.4390   83030093.0160
  79570516.6950
  21486752.520    21486761.220    21486761.600   112913940.4930   87985021.2250
  84318903.4750
  23918955.500    23918980.100                   125694656.1400   97943827.6830

 23  3  6 16  0 19.0000000  0  9G02G08G10G16G18G23G26G27G31
  25238232.220    25238239.720                   132628025.7950  103346669.3230

  24197001.780    24197019.640    24197020.300   127156173.9030   99082829.9200
  94954340.2490
  23785865.600    23785904.980                   124995926.7520   97399548.3850

  20875079.560    20875084.220                   109699424.4130   85480164.5510

  21342815.380    21342821.280    21342825.360   112157707.3430   87395822.7410
  83754082.4860
  22722539.860    22722550.940    22722555.320   119408376.6130   93045555.4530
  89168314.9270
  20276883.740    20276891.820    20276890.480   106555899.1570   83030688.9000
  79571087.7470
  21486421.100    21486429.800    21486430.180   112912198.8820   87983664.1300
  84317602.9260
  23919611.720    23919636.360                   125698104.4780   97946514.6340

 23  3  6 16  0 20.0000000  0  9G02G08G10G16G18G23G26G27G31
  25238845.980    25238853.440                   132631251.0650  103349182.5140

  24196502.740    24196520.600    24196521.260   127153551.4170   99080786.4430
  94952381.9100
  23785292.460    23785331.780                   124992915.0520   97397201.6500

  20874769.960    20874774.620                   109697797.4620   85478896.7990

  21343195.920    21343201.820    21343205.900   112159707.1420   87397381.0260
  83755575.8310
  22722163.020    22722174.100    22722178.480   119406396.3370   93044012.3910
  89166836.1650
  20277029.300    20277037.380    20277036.040   106556664.1090   83031284.9640
  79571658.9740
  21486089.660    21486098.360    21486098.780   112910457.2500   87982307.0180
  84316302.3550
  23920267.920    23920292.560                   125701552.6040   97949201.4220

 23  3  6 16  0 21.0000000  0  9G02G08G10G16G18G23G26G27G31
  25239459.720    25239467.180                   132634476.3880  103351695.7480

  24196003.720    24196021.600    24196022.240   127150929.0780   99078743.0780
  94950423.6820
  23784719.340    23784758.640                   124989903.4960   97394855.0270

  20874460.440    20874465.120                   109696170.9550   85477629.3930

  21343576.560    21343582.460    21343586.540   112161707.4370   87398939.6910
  83757069.5520
  22721786.280    22721797.360    22721801.740   119404416.5470   93042469.7080
  89165357.7660
  20277174.980    20277183.060    20277181.720   106557429.6260   83031881.4710
  79572230.6260
  21485758.300    21485767.000    21485767.420   112908715.9180   87980950.1360
  84315002.0150
  23920924.140    23920948.800                   125705000.8140   97951888.2750

 23  3  6 16  0 22.0000000  0  9G02G08G10G16G18G23G26G27G31
  25240073.520    25240080.960                   132637701.9340  103354209.1670

  24195504.740    24195522.640    24195523.260   127148307.0470   99076699.9370
  94948465.6800
  23784146.300    23784185.580                   124986892.2560   97392508.6480

  20874151.040    20874155.720                   109694545.0580   85476362.4600

  21343957.340    21343963.240    21343967.320   112163708.3780   87400498.8660
  83758563.7650
  22721409.680    22721420.740    22721425.100   119402437.4210   93040927.5410
  89163879.8480
  20277320.780    20277328.880    20277327.540   106558195.8630   83032478.5360
  79572802.8120
  21485427.000    21485435.720    21485436.140   112906975.0350   87979593.6060
  84313702.0150
  23921580.420    23921605.080                   125708449.3180   97954575.3560

 23  3  6 16  0 23.0000000  0  9G02G08G10G16G18G23G26G27G31
  25240687.340    25240694.780                   132640927.6740  103356722.7330

  24195005.840    24195023.740    24195024.360   127145685.2780   99074657.0040
  94946507.8850
  23783573.320    23783612.560                   124983881.3200   97390162.5080

  20873841.760    20873846.440                   109692919.7700   85475096.0010

  21344338.220    21344344.140    21344348.200   112165709.9820   87402058.5590
  83760058.4690
  22721033.180    22721044.240    22721048.600   119400458.9290   93039385.8670
  89162402.4160
  20277466.740    20277474.820    20277473.480   106558962.8220   83033076.1630
  79573375.5370
  21485095.800    21485104.520    21485104.940   112905234.5960   87978237.4200
  84312402.3290
  23922236.740    23922261.420                   125711898.0660   97957262.6310

 23  3  6 16  0 24.0000000  0  9G02G08G10G16G18G23G26G27G31
  25241301.160    25241308.620                   132644153.3520  103359236.2400

  24194506.920    24194524.820    24194525.440   127143063.5990   99072614.1450
  94944550.1330
  23783000.340    23783039.520                   124980870.4210   97387816.3960

  20873532.520    20873537.200                   109691294.7820   85473829.7790

  21344719.180    21344725.100    21344729.160   112167711.9560   87403618.5370
  83761553.4360
  22720656.760    22720667.820    22720672.160   119398480.7950   93037844.4760
  89160925.2480
  20277612.760    20277620.840    20277619.500   106559730.2120   83033674.1290
  79573948.5860
  21484764.640    21484773.340    21484773.780   112903494.3130   87976881.3590
  84311102.7760
  23922893.040    23922917.740                   125715346.8200   97959949.9080

 23  3  6 16  0 25.0000000  0  9G02G08G10G16G18G23G26G27G31
  25241915.020    25241922.460                   132647379.1890  103361749.8770

  24194008.080    24194025.900    24194026.600   127140442.1080   99070571.4340
  94942592.5720
  23782427.400    23782466.560                   124977859.7900   97385470.4950

  20873223.420    20873228.080                   109689670.3840   85472564.0150

  21345100.260    21345106.180    21345110.240   112169714.5420   87405178.9920
  83763048.8840
  22720280.460    22720291.500    22720295.860   119396503.3010   93036303.5840
  89159448.5580
  20277758.920    20277767.000    20277765.660   106560498.2800   83034272.6240
  79574522.1440
  21484433.540    21484442.260    21484442.700   112901754.4540   87975525.6250
  84309803.5350
  23923549.400    23923574.120                   125718795.7860   97962637.3510

 23  3  6 16  0 26.0000000  0  9G02G08G10G16G18G23G26G27G31
  25242528.880    25242536.320                   132650605.0160  103364263.5090

  24193509.260    24193527.100    24193527.740   127137820.7470   99068528.8350
  94940635.0580
  23781854.480    23781893.620                   124974849.2330   97383124.6490

  20872914.360    20872919.040                   109688046.3390   85471298.5290

  21345481.440    21345487.340    21345491.400   112171717.5490   87406739.7740
  83764544.6330
  22719904.240    22719915.260    22719919.620   119394526.1910   93034762.9830
  89157972.1580
  20277905.180    20277913.260    20277911.920   106561266.8400   83034871.4990
  79575096.0660
  21484102.480    21484111.200    21484111.660   112900014.7910   87974170.0490
  84308504.4410
  23924205.780    23924230.500                   125722244.7950   97965324.8240

 23  3  6 16  0 27.0000000  0  9G02G08G10G16G18G23G26G27G31
  25243142.760    25243150.200                   132653830.9250  103366777.2100

  24193010.440    24193028.280    24193028.920   127135199.5560   99066486.3630
  94938677.6770
  23781281.600    23781320.700                   124971838.8810   97380778.9630

  20872605.420    20872610.080                   109686422.7940   85470033.4290

  21345862.700    21345868.600    21345872.660   112173721.1000   87408300.9780
  83766040.7950
  22719528.100    22719539.120    22719543.480   119392549.6260   93033222.8100
  89156496.1630
  20278051.540    20278059.620    20278058.280   106562035.9850   83035470.8310
  79575670.4300
  21483771.500    21483780.220    21483780.680   112898275.4660   87972814.7350
  84307205.6010
  23924862.160    23924886.900                   125725693.9190   97968012.3920

 23  3  6 16  0 28.0000000  0  9G02G08G10G16G18G23G26G27G31
  25243756.620    25243764.100                   132657056.8730  103369290.9340

  24192511.640    24192529.440    24192530.140   127132578.4890   99064443.9730
  94936720.4050
  23780708.760    23780747.800                   124968828.6700   97378433.3900

  20872296.540    20872301.220                   109684799.6840   85468768.6720

  21346244.040    21346249.960    21346254.020   112175725.1420   87409862.5670
  83767537.3160
  22719152.060    22719163.060    22719167.440   119390573.5380   93031683.0160
  89155020.5350
  20278198.020    20278206.100    20278204.760   106562805.6960   83036070.6030
  79576245.2090
  21483440.580    21483449.300    21483449.760   112896536.4330   87971459.6460
  84305906.9720
  23925518.600    23925543.340                   125729143.1560   97970700.0460

 23  3  6 16  0 29.0000000  0  9G02G08G10G16G18G23G26G27G31
  25244370.500    25244377.980                   132660282.7900  103371804.6390

  24192012.860    24192030.660    24192031.360   127129957.4430   99062401.6100
  94934763.1420
  23780135.900    23780174.920                   124965818.4860   97376087.8340

  20871987.740    20871992.420                   109683176.9080   85467504.1710

  21346625.480    21346631.400    21346635.440   112177729.5620   87411424.4550
  83769034.1200
  22718776.100    22718787.100    22718791.460   119388597.8230   93030143.5100
  89153545.1560
  20278344.560    20278352.640    20278351.320   106563575.8530   83036670.7240
  79576820.3230
  21483109.660    21483118.380    21483118.880   112894797.5600   87970104.6870
  84304608.4710
  23926175.020    23926199.760                   125732592.3830   97973387.6890

 23  3  6 16  0 30.0000000  0  9G02G08G10G16G18G23G26G27G31
  25244984.320    25244991.780                   132663508.4800  103374318.1480

  24191514.060    24191531.840    24191532.540   127127336.2440   99060359.1220
  94932805.7840
  23779563.040    23779602.020                   124962808.2210   97373742.2140

  20871678.960    20871683.640                   109681554.3110   85466239.8140

  21347006.960    21347012.880    21347016.920   112179734.2260   87412986.5280
  83770531.1060
  22718400.160    22718411.160    22718415.540   119386622.3290   93028604.1720
  89152069.9730
  20278491.180    20278499.260    20278497.920   106564346.3040   83037271.0750
  79577395.6620
  21482778.760    21482787.500    21482787.980   112893058.7340   87968749.7620
  84303310.0020
  23926831.400    23926856.160                   125736041.4540   97976075.2140

 23  3  6 16  0 31.0000000  0  9G02G08G10G16G18G23G26G27G31
  25245598.080    25245605.560                   132666733.8760  103376831.4440

  24191015.240    24191033.060    24191033.700   127124714.9490   99058316.5700
  94930848.3170
  23778990.160    23779029.100                   124959797.7870   97371396.4620

  20871370.220    20871374.900                   109679931.8580   85464975.5670

  21347388.460    21347394.380    21347398.420   112181739.0510   87414548.7290
  83772028.2210
  22718024.260    22718035.280    22718039.640   119384647.0160   93027064.9760
  89150594.9130
  20278637.840    20278645.920    20278644.580   106565116.9990   83037871.6150
  79577971.1770
  21482447.860    21482456.600    21482457.100   112891319.8620   87967394.8020
  84302011.4980
  23927487.740    23927512.500                   125739490.3080   97978762.5730

 23  3  6 16  0 32.0000000  0  9G02G08G10G16G18G23G26G27G31
  25246211.880    25246219.420                   132669959.4380  103379344.8620

  24190516.460    24190534.240    24190534.900   127122093.8390   99056274.1490
  94928891.0310
  23778417.280    23778456.200                   124956787.5710   97369050.8870

  20871061.560    20871066.260                   109678309.9230   85463711.7210

  21347770.080    21347776.000    21347780.040   112183744.4830   87416111.4050
  83773525.7760
  22717648.480    22717659.480    22717663.860   119382672.2770   93025526.2320
  89149120.2860
  20278784.620    20278792.700    20278791.380   106565888.3360   83038472.6570
  79578547.1810
  21482117.040    21482125.760    21482126.280   112889581.3700   87966040.1370
  84300713.2820
  23928144.120    23928168.880                   125742939.3380   97981450.0650

 23  3  6 16  0 33.0000000  0  9G02G08G10G16G18G23G26G27G31
  25246825.700    25246833.220                   132673185.1420  103381858.3960

  24190017.740    24190035.520    24190036.140   127119473.0400   99054231.9860
  94926933.9370
  23777844.480    23777883.380                   124953777.6230   97366705.5180

  20870753.040    20870757.720                   109676688.5450   85462448.3140

  21348151.820    21348157.720    21348161.760   112185750.4880   87417674.5260
  83775023.7700
  22717272.800    22717283.820    22717288.180   119380698.1360   93023987.9510
  89147646.0900
  20278931.520    20278939.600    20278938.280   106566660.3350   83039074.2100
  79579123.6700
  21481786.280    21481795.020    21481795.520   112887843.2770   87964685.7850
  84299415.3560
  23928800.540    23928825.320                   125746388.5830   97984137.7250

 23  3  6 16  0 34.0000000  0  9G02G08G10G16G18G23G26G27G31
  25247439.500    25247447.020                   132676410.7220  103384371.8310

  24189519.000    24189536.800    24189537.380   127116852.1940   99052189.7870
  94924976.8130
  23777271.660    23777310.540                   124950767.6360   97364360.1140

  20870444.540    20870449.240                   109675067.4290   85461185.1090

  21348533.600    21348539.520    21348543.560   112187756.8160   87419237.8960
  83776522.0040
  22716897.200    22716908.200    22716912.560   119378724.2950   93022449.9050
  89146172.1330
  20279078.500    20279086.580    20279085.260   106567432.7150   83039676.0630
  79579700.4410
  21481455.540    21481464.300    21481464.800   112886105.2920   87963331.5140
  84298117.5180
  23929456.940    23929481.740                   125749837.7490   97986825.3210

 23  3  6 16  0 35.0000000  0  9G02G08G10G16G18G23G26G27G31
  25248052.780    25248060.280                   132679633.5200  103386883.0990

  24189019.760    24189037.520    24189038.120   127114228.6570   99050145.4970
  94923017.7080
  23776698.360    23776737.180                   124947754.9980   97362012.6470

  20870135.600    20870140.280                   109673443.9460   85459920.0600

  21348914.960    21348920.880    21348924.900   112189760.8260   87420799.4630
  83778018.4960
  22716521.120    22716532.140    22716536.480   119376748.1310   93020910.0430
  89144696.4320
  20279225.060    20279233.140    20279231.800   106568202.8300   83040276.1520
  79580275.5270
  21481124.320    21481133.080    21481133.600   112884364.7720   87961975.2660
  84296817.7770
  23930112.820    23930137.620                   125753284.1880   97989510.7950

 23  3  6 16  0 36.0000000  0  9G02G08G10G16G18G23G26G27G31
  25248666.280    25248673.800                   132682857.4890  103389395.2850

  24188520.780    24188538.500    24188539.100   127111606.4280   99048102.2080
  94921059.5380
  23776125.280    23776164.080                   124944743.6110   97359666.1560

  20869826.960    20869831.640                   109671822.0190   85458656.2220

  21349296.600    21349302.540    21349306.560   112191766.4450   87422362.2820
  83779516.2020
  22716145.380    22716156.380    22716160.720   119374773.5720   93019371.4360
  89143221.9420
  20279371.920    20279380.000    20279378.680   106568974.6210   83040877.5480
  79580851.8650
  21480793.380    21480802.120    21480802.660   112882625.6470   87960620.1080
  84295519.0930
  23930768.920    23930793.740                   125756731.8530   97992197.2260

 23  3  6 16  0 37.0000000  0 10G02G08G10G16G18G23G26G27G28G31
  25249280.040    25249287.580                   132686082.9380  103391908.6220

  24188022.080    24188039.780    24188040.380   127108985.7310   99046060.1130
  94919102.5440
  23775552.500    23775591.280                   124941733.8360   97357320.9230

  20869518.680    20869523.360                   109670201.9730   85457393.8490

  21349678.640    21349684.560    21349688.580   112193773.9710   87423926.5880
  83781015.3340
  22715769.980    22715780.980    22715785.320   119372800.9050   93017834.3030
  89141748.8500
  20279519.180    20279527.240    20279525.920   106569748.3910   83041480.4820
  79581429.6740
  21480462.760    21480471.500    21480472.040   112880888.2430   87959266.2910
  84294221.6850
  24570103.800                                   129116266.2281

  23931425.340    23931450.160                   125760181.0410   97994884.8390

 23  3  6 16  0 38.0000000  0  9G02G08G10G16G18G23G26G27G31
  25249893.940    25249901.480                   132689308.9810  103394422.4110

  24187523.520    24187541.180    24187541.800   127106365.7730   99044018.5990
  94917146.1030
  23774979.860    23775018.600                   124938724.7850   97354976.2500

  20869210.580    20869215.260                   109668582.9280   85456132.2590

  21350060.860    21350066.780    21350070.800   112195782.5710   87425491.7290
  83782515.2590
  22715394.800    22715405.800    22715410.140   119370829.3110   93016298.0040
  89140276.5770
  20279666.640    20279674.700    20279673.380   106570523.2930   83042084.2990
  79582008.3350
  21480132.300    21480141.060    21480141.580   112879151.6980   87957913.1430
  84292924.9200
  23932081.860    23932106.700                   125763630.8980   97997572.9740

 23  3  6 16  0 39.0000000  0  9G02G08G10G16G18G23G26G27G31
  25250507.920    25250515.480                   132692535.4670  103396936.5630

  24187025.040    24187042.680    24187043.300   127103746.3110   99041977.4460
  94915190.0180
  23774407.320    23774446.020                   124935716.2350   97352631.9750

  20868902.640    20868907.320                   109666964.6930   85454871.2990

  21350443.260    21350449.180    21350453.200   112197792.0370   87427057.5460
  83784015.8220
  22715019.760    22715030.780    22715035.100   119368858.5750   93014762.3780
  89138804.9320
  20279814.280    20279822.340    20279821.020   106571299.1070   83042688.8280
  79582587.6760
  21479801.960    21479810.720    21479811.260   112877415.8130   87956560.5070
  84291628.6380
  23932738.480    23932763.340                   125767081.2200   98000261.4750

 23  3  6 16  0 40.0000000  0  9G02G08G10G16G18G23G26G27G31
  25251121.920    25251129.460                   132695762.0720  103399450.7990

  24186526.600    24186544.240    24186544.860   127101127.1040   99039936.5110
  94913234.1260
  23773834.820    23773873.500                   124932707.9190   97350287.8730

  20868594.800    20868599.480                   109665346.9930   85453610.7580

  21350825.760    21350831.680    21350835.680   112199802.0510   87428623.7910
  83785516.8220
  22714644.860    22714655.860    22714660.160   119366888.4070   93013227.1950
  89137333.7100
  20279962.040    20279970.100    20279968.760   106572075.5810   83043293.8720
  79583167.5030
  21479471.700    21479480.460    21479481.000   112875680.2820   87955208.1520
  84290332.6350
  23933395.140    23933420.000                   125770531.7160   98002950.1100

 23  3  6 16  0 41.0000000  0  9G02G08G10G16G18G23G26G27G31
  25251735.900    25251743.460                   132698988.6400  103401965.0070

  24186028.180    24186045.840    24186046.420   127098507.9420   99037895.6180
  94911278.2860
  23773262.340    23773301.000                   124929699.6950   97347943.8440

  20868287.020    20868291.720                   109663729.6480   85452350.4910

  21351208.320    21351214.260    21351218.260   112201812.4930   87430190.3660
  83787018.1190
  22714270.020    22714281.000    22714285.300   119364918.6360   93011692.3120
  89135862.7950
  20280109.880    20280117.940    20280116.620   106572852.5170   83043899.2730
  79583747.6820
  21479141.460    21479150.240    21479150.780   112873944.9620   87953855.9560
  84289036.7870
  23934051.820    23934076.680                   125773982.2460   98005638.7690

 23  3  6 16  0 42.0000000  0  9G02G08G10G16G18G23G26G27G31
  25252349.900    25252357.460                   132702215.2560  103404479.2450

  24185529.800    24185547.440    24185548.020   127095888.9270   99035854.8450
  94909322.5300
  23772689.880    23772728.520                   124926691.6130   97345599.9330

  20867979.340    20867984.020                   109662112.7550   85451090.5740

  21351590.980    21351596.920    21351600.920   112203823.4380   87431757.3380
  83788519.7890
  22713895.260    22713906.260    22713910.540   119362949.3690   93010157.8270
  89134392.2420
  20280257.840    20280265.900    20280264.560   106573630.0120   83044505.1130
  79584328.2780
  21478811.300    21478820.080    21478820.620   112872209.9380   87952503.9960
  84287741.1500
  23934708.480    23934733.380                   125777432.8750   98008327.5080

 23  3  6 16  0 43.0000000  0  9G02G08G10G16G18G23G26G27G31
  25252963.880    25252971.460                   132705441.8450  103406993.4660

  24185031.400    24185049.060    24185049.640   127093269.9670   99033814.1180
  94907366.8270
  23772117.440    23772156.040                   124923683.5830   97343256.0560

  20867671.720    20867676.420                   109660496.2140   85449830.9340

  21351973.740    21351979.680    21351983.680   112205834.7840   87433324.6180
  83790021.7720
  22713520.580    22713531.580    22713535.860   119360980.5100   93008623.6610
  89132921.9920
  20280405.880    20280413.940    20280412.620   106574407.9860   83045111.3290
  79584909.2380
  21478481.160    21478489.940    21478490.480   112870475.1090   87951152.1850
  84286445.6710
  23935365.180    23935390.040                   125780883.5020   98011016.2440

 23  3  6 16  0 44.0000000  0  9G02G08G10G16G18G23G26G27G31
  25253577.860    25253585.460                   132708668.3550  103409507.6280

  24184533.000    24184550.660    24184551.240   127090651.0020   99031773.3780
  94905411.1140
  23771544.980    23771583.580                   124920675.6270   97340912.2420

  20867364.180    20867368.860                   109658880.0070   85448571.5540

  21352356.560    21352362.500    21352366.480   112207846.5040   87434892.1920
  83791524.0260
  22713145.980    22713156.960    22713161.240   119359012.0000   93007089.7630
  89131452.0230
  20280554.020    20280562.080    20280560.740   106575186.4010   83045717.8820
  79585490.5100
  21478151.060    21478159.840    21478160.400   112868740.4460   87949800.5010
  84285150.3010
  23936021.860    23936046.740                   125784334.1270   98013704.9810

 23  3  6 16  0 45.0000000  0  9G02G08G10G16G18G23G26G27G31
  25254191.800    25254199.400                   132711894.6240  103412021.6000

  24184034.580    24184052.240    24184052.820   127088031.8980   99029732.5360
  94903455.2870
  23770972.540    23771011.100                   124917667.4740   97338568.2710

  20867056.640    20867061.320                   109657263.9440   85447312.2840

  21352739.420    21352745.360    21352749.340   112209858.4230   87436459.9190
  83793026.4310
  22712771.420    22712782.400    22712786.660   119357043.6950   93005556.0250
  89129982.1860
  20280702.180    20280710.260    20280708.920   106575965.0770   83046324.6440
  79586071.9910
  21477820.960    21477829.760    21477830.300   112867005.7770   87948448.8150
  84283854.9370
  23936678.500    23936703.400                   125787784.5810   98016393.5830

 23  3  6 16  0 46.0000000  0  9G02G08G10G16G18G23G26G27G31
  25254805.760    25254813.380                   132715120.9240  103414535.5980

  24183536.200    24183553.820    24183554.440   127085412.9060   99027691.7660
  94901499.5860
  23770400.080    23770438.620                   124914659.5050   97336224.4440

  20866749.200    20866753.880                   109655648.3230   85446053.3610

  21353122.360    21353128.300    21353132.300   112211870.8260   87438028.0250
  83794529.2040
  22712396.940    22712407.920    22712412.180   119355075.8730   93004022.6680
  89128512.7230
  20280850.460    20280858.540    20280857.200   106576744.2960   83046931.8260
  79586653.8770
  21477490.920    21477499.720    21477500.260   112865271.4000   87947097.3540
  84282559.7940
  23937335.160    23937360.060                   125791235.0760   98019082.2150

 23  3  6 16  0 47.0000000  0  9G02G08G10G16G18G23G26G27G31
  25255419.680    25255427.280                   132718347.0450  103417049.4590

  24183037.780    24183055.400    24183056.020   127082793.8310   99025650.9300
  94899543.8000
  23769827.660    23769866.160                   124911651.4540   97333880.5480

  20866441.800    20866446.480                   109654032.9150   85444794.6050

  21353505.360    21353511.300    21353515.280   112213883.4830   87439596.3300
  83796032.1600
  22712022.520    22712033.460    22712037.760   119353108.3170   93002489.5130
  89127043.4540
  20280998.800    20281006.880    20281005.560   106577523.8390   83047539.2600
  79587236.0010
  21477160.880    21477169.680    21477170.220   112863537.0640   87945745.9290
  84281264.6730
  23937991.800    23938016.700                   125794685.4720   98021770.7700

 23  3  6 16  0 48.0000000  0  9G02G08G10G16G18G23G26G27G31
  25256033.560    25256041.160                   132721573.0850  103419563.2500

  24182539.400    24182557.000    24182557.620   127080174.8130   99023610.1390
  94897588.0310
  23769255.200    23769293.680                   124908643.4190   97331536.6720

  20866134.440    20866139.140                   109652417.8270   85443536.0950

  21353888.420    21353894.380    21353898.360   112215896.5140   87441164.9270
  83797535.3970
  22711648.140    22711659.100    22711663.380   119351141.1000   93000956.6270
  89125574.4400
  20281147.240    20281155.300    20281153.980   106578303.8150   83048147.0310
  79587818.4510
  21476830.880    21476839.660    21476840.220   112861802.8870   87944394.6260
  84279969.6800
  23938648.440    23938673.360                   125798135.8310   98024459.2960

 23  3  6 16  0 49.0000000  0 10G02G08G10G16G18G23G26G27G28G31
  25256647.480    25256655.060                   132724799.1750  103422077.0720

  24182041.020    24182058.580    24182059.260   127077555.8980   99021569.4500
  94895632.3820
  23768682.780    23768721.220                   124905635.5340   97329192.9100

  20865827.200    20865831.880                   109650803.1860   85442277.9350

  21354271.580    21354277.540    21354281.520   112217910.0390   87442733.9060
  83799039.0090
  22711273.880    22711284.820    22711289.120   119349174.3760   92999424.1210
  89124105.8080
  20281295.760    20281303.840    20281302.520   106579084.3530   83048755.2430
  79588401.3220
  21476500.920    21476509.720    21476510.280   112860069.0140   87943043.5600
  84278674.9070
  24578339.160                                   129159545.6540

  23939305.100    23939330.000                   125801586.2980   98027147.9100

 23  3  6 16  0 50.0000000  0  9G02G08G10G16G18G23G26G27G31
  25257261.360    25257268.940                   132728025.1290  103424590.7950

  24181542.640    24181560.220    24181560.900   127074937.0060   99019528.7700
  94893676.7240
  23768110.360    23768148.780                   124902627.6750   97326849.1690

  20865520.000    20865524.680                   109649188.8280   85441019.9960

  21354654.820    21354660.780    21354664.740   112219923.9020   87444303.1480
  83800542.8610
  22710899.680    22710910.580    22710914.900   119347207.9970   92997891.8840
  89122637.4080
  20281444.380    20281452.440    20281451.120   106579865.2930   83049363.7660
  79588984.4840
  21476170.980    21476179.800    21476180.340   112858335.2570   87941692.5850
  84277380.2220
  23939961.740    23939986.640                   125805036.7020   98029836.4710

 23  3  6 16  0 51.0000000  0  9G02G08G10G16G18G23G26G27G31
  25257875.260    25257882.840                   132731251.1840  103427104.6030

  24181044.300    24181061.900    24181062.560   127072318.2250   99017488.1890
  94891721.1530
  23767537.980    23767576.380                   124899619.9530   97324505.5320

  20865212.880    20865217.560                   109647574.9520   85439762.4280

  21355038.140    21355044.100    21355048.060   112221938.2780   87445872.7870
  83802047.0970
  22710525.580    22710536.480    22710540.800   119345242.1360   92996360.0520
  89121169.3950
  20281593.100    20281601.160    20281599.840   106580646.8170   83049972.7430
  79589568.0850
  21475841.120    21475849.940    21475850.480   112856601.8180   87940341.8550
  84276085.7710
  23940618.400    23940643.320                   125808487.2340   98032525.1340

 23  3  6 16  0 52.0000000  0  9G02G08G10G16G18G23G26G27G31
  25258489.180    25258496.780                   132734477.3820  103429618.5170

  24180546.000    24180563.600    24180564.260   127069699.7010   99015447.7920
  94889765.7680
  23766965.640    23767004.020                   124896612.4600   97322162.0780

  20864905.860    20864910.540                   109645961.5950   85438505.2690

  21355421.580    21355427.540    21355431.500   112223953.2370   87447442.8810
  83803551.7720
  22710151.600    22710162.480    22710166.780   119343276.8420   92994828.6640
  89119701.8210
  20281741.940    20281750.000    20281748.680   106581428.9740   83050582.2140
  79590152.1670
  21475511.320    21475520.140    21475520.680   112854868.7440   87938991.4140
  84274791.6020
  23941275.100    23941300.040                   125811937.9530   98035213.9400

 23  3  6 16  0 53.0000000  0  9G02G08G10G16G18G23G26G27G31
  25259103.040    25259110.680                   132737703.2830  103432132.2040

  24180047.640    24180065.220    24180065.920   127067080.9360   99013407.1970
  94887810.2510
  23766393.260    23766431.600                   124893604.8290   97319818.5150

  20864598.880    20864603.560                   109644348.3810   85437248.2190

  21355805.060    21355811.000    21355814.980   112225968.3700   87449013.1150
  83805056.5810
  22709777.640    22709788.500    22709792.820   119341311.7240   92993297.4060
  89118234.3660
  20281890.820    20281898.900    20281897.580   106582211.3830   83051191.8850
  79590736.4320
  21475181.520    21475190.340    21475190.880   112853135.6440   87937640.9500
  84273497.4140
  23941931.760    23941956.680                   125815388.4520   98037902.5770

 23  3  6 16  0 54.0000000  0  9G02G08G10G16G18G23G26G27G31
  25259716.900    25259724.540                   132740929.1760  103434645.8910

  24179549.320    24179566.940    24179567.620   127064462.2990   99011366.7130
  94885854.7790
  23765820.900    23765859.240                   124890597.3040   97317475.0320

  20864291.960    20864296.640                   109642735.5340   85435991.4580

  21356188.600    21356194.540    21356198.520   112227983.9180   87450583.6690
  83806561.6980
  22709403.760    22709414.600    22709418.920   119339347.0260   92991766.4830
  89116767.2300
  20282039.800    20282047.880    20282046.560   106582994.2750   83051801.9270
  79591321.0600
  21474851.760    21474860.600    21474861.120   112851402.7800   87936290.6690
  84272203.3880
  23942588.440    23942613.360                   125818838.9920   98040591.2440

 23  3  6 16  0 55.0000000  0  9G02G08G10G16G18G23G26G27G31
  25260330.780    25260338.440                   132744155.1550  103437159.6430

  24179051.060    24179068.660    24179069.340   127061843.8850   99009326.4050
  94883899.4610
  23765248.600    23765286.920                   124887589.9950   97315131.7190

  20863985.140    20863989.820                   109641123.2000   85434735.0950

  21356572.260    21356578.180    21356582.180   112230000.0280   87452154.6600
  83808067.2310
  22709029.980    22709040.820    22709045.140   119337382.8700   92990235.9820
  89115300.5060
  20282188.900    20282196.980    20282195.660   106583777.7910   83052412.4590
  79591906.1440
  21474522.060    21474530.900    21474531.440   112849670.2480   87934940.6470
  84270909.6220
  23943245.120    23943270.060                   125822289.6850   98043280.0300

 23  3  6 16  0 56.0000000  0  9G02G08G10G16G18G23G26G27G31
  25260944.680    25260952.340                   132747381.1850  103439673.4300

  24178552.800    24178570.380    24178571.080   127059225.6010   99007286.1940
  94881944.2700
  23764676.340    23764714.600                   124884582.8030   97312788.4920

  20863678.400    20863683.080                   109639511.2890   85433479.0650

  21356956.000    21356961.920    21356965.920   112232016.6090   87453726.0220
  83809573.1210
  22708656.300    22708667.120    22708671.440   119335419.1950   92988705.8530
  89113834.1370
  20282338.100    20282346.180    20282344.860   106584561.8470   83053023.4100
  79592491.6430
  21474192.420    21474201.260    21474201.780   112847937.9910   87933590.8410
  84269616.0590
  23943901.820    23943926.780                   125825740.4380   98045968.8670

 23  3  6 16  0 57.0000000  0  9G02G08G10G16G18G23G26G27G31
  25261558.580    25261566.240                   132750607.3670  103442187.3260

  24178054.580    24178072.180    24178072.880   127056607.5790   99005246.1890
  94879989.2670
  23764104.120    23764142.320                   124881575.8900   97310445.4860

  20863371.780    20863376.440                   109637899.9430   85432223.4700

  21357339.860    21357345.780    21357349.780   112234033.7910   87455297.8500
  83811079.4560
  22708282.720    22708293.540    22708297.880   119333456.1290   92987176.1980
  89112368.2150
  20282487.440    20282495.500    20282494.200   106585346.5660   83053634.8770
  79593077.6320
  21473862.840    21473871.700    21473872.220   112846206.1440   87932241.3520
  84268322.7930
  23944558.580    23944583.540                   125829191.4410   98048657.8930

 23  3  6 16  0 58.0000000  0  9G02G08G10G16G18G23G26G27G31
  25262172.540    25262180.200                   132753833.7170  103444701.3650

  24177556.440    24177574.020    24177574.740   127053989.7910   99003206.3600
  94878034.4550
  23763531.940    23763570.140                   124878569.2480   97308102.6930

  20863065.260    20863069.920                   109636289.1610   85430968.3160

  21357723.840    21357729.760    21357733.760   112236051.5850   87456870.1550
  83812586.2520
  22707909.280    22707920.080    22707924.400   119331493.6620   92985647.0110
  89110902.7440
  20282636.880    20282644.960    20282643.640   106586131.9730   83054246.8780
  79593664.1320
  21473533.360    21473542.220    21473542.720   112844474.6780   87930892.1620
  84267029.8270
  23945215.380    23945240.320                   125832642.6330   98051347.0680

 23  3  6 16  0 59.0000000  0  9G02G08G10G16G18G23G26G27G31
  25262786.480    25262794.160                   132757060.0040  103447215.3530

  24177058.280    24177075.880    24177076.600   127051372.0840   99001166.5990
  94876079.6900
  23762959.780    23762997.940                   124875562.6450   97305759.9280

  20862758.800    20862763.460                   109634678.7220   85429713.4320

  21358107.900    21358113.800    21358117.800   112238069.7760   87458442.7710
  83814093.3390
  22707535.900    22707546.680    22707551.020   119329531.5900   92984118.1290
  89109437.5740
  20282786.440    20282794.500    20282793.200   106586917.8240   83054859.2300
  79594250.9710
  21473203.900    21473212.760    21473213.260   112842743.4220   87929543.1340
  84265737.0050
  23945872.160    23945897.120                   125836093.8330   98054036.2490

 23  3  6 16  1  0.0000000  0  9G02G08G10G16G18G23G26G27G31
  25263400.400    25263408.060                   132760286.1510  103449729.2420

  24176560.100    24176577.720    24176578.440   127048754.2960   98999126.7790
  94874124.8560
  23762387.580    23762425.720                   124872556.0080   97303417.1410

  20862452.380    20862457.060                   109633068.5310   85428458.7420

  21358492.000    21358497.900    21358501.900   112240088.2640   87460015.6190
  83815600.6440
  22707162.580    22707173.360    22707177.680   119327569.7960   92982589.4650
  89107972.6150
  20282936.040    20282944.120    20282942.800   106587704.0350   83055471.8620
  79594838.0740
  21472874.460    21472883.340    21472883.820   112841012.2430   87928194.1690
  84264444.2490
  23946528.940    23946553.920                   125839544.9300   98056725.3560

 23  3  6 16  1  1.0000000  0  9G02G08G10G16G18G23G26G27G31
  25264014.280    25264021.960                   132763512.1050  103452242.9660

  24176061.940    24176079.560    24176080.280   127046136.4480   98997086.9070
  94872169.9850
  23761815.380    23761853.500                   124869549.2980   97301074.2950

  20862146.020    20862150.680                   109631458.5590   85427204.2210

  21358876.160    21358882.060    21358886.060   112242107.0040   87461588.6660
  83817108.1470
  22706789.300    22706800.060    22706804.400   119325608.2800   92981061.0210
  89106507.8490
  20283085.720    20283093.800    20283092.480   106588490.5770   83056084.7520
  79595425.4250
  21472545.040    21472553.920    21472554.400   112839281.1320   87926845.2570
  84263151.5320
  23947185.720    23947210.660                   125842995.9040   98059414.3610

 23  3  6 16  1  2.0000000  0  9G02G08G10G16G18G23G26G27G31
  25264628.140    25264635.820                   132766737.9920  103454756.6470

  24175563.760    24175581.380    24175582.100   127043518.6070   98995047.0520
  94870215.1060
  23761243.220    23761281.300                   124866542.6240   97298731.4730

  20861839.700    20861844.380                   109629848.9100   85425949.9510

  21359260.380    21359266.280    21359270.300   112244126.1260   87463162.0030
  83818615.9260
  22706416.100    22706426.860    22706431.180   119323647.1300   92979532.8590
  89105043.3680
  20283235.480    20283243.560    20283242.240   106589277.5640   83056697.9860
  79596013.1060
  21472215.640    21472224.520    21472225.000   112837550.1760   87925496.4640
  84261858.9460
  23947842.480    23947867.420                   125846446.8380   98062103.3360

 23  3  6 16  1  3.0000000  0  9G02G08G10G16G18G23G26G27G31
  25265242.040    25265249.700                   132769963.9690  103457270.3930

  24175065.640    24175083.240    24175083.980   127040900.9450   98993007.3400
  94868260.3820
  23760671.080    23760709.100                   124863536.1360   97296388.7970

  20861533.500    20861538.160                   109628239.7610   85424696.0700

  21359644.720    21359650.600    21359654.620   112246145.7750   87464735.7540
  83820124.1080
  22706043.000    22706053.760    22706058.080   119321686.5130   92978005.1090
  89103579.2800
  20283385.360    20283393.440    20283392.120   106590065.1570   83057311.6930
  79596601.2360
  21471886.320    21471895.200    21471895.660   112835819.5580   87924147.9330
  84260566.6080
  23948499.240    23948524.200                   125849897.9460   98064792.4470

 23  3  6 16  1  4.0000000  0  9G02G08G10G16G18G23G26G27G31
  25265855.900    25265863.560                   132773189.8880  103459784.0980

  24174567.520    24174585.100    24174585.880   127038283.3650   98990967.6890
  94866305.7010
  23760098.940    23760136.940                   124860529.7150   97294046.1700

  20861227.340    20861232.000                   109626630.9470   85423442.4530

  21360029.140    21360035.000    21360039.040   112248165.8160   87466309.8110
  83821632.5800
  22705669.940    22705680.720    22705685.040   119319726.2770   92976477.6650
  89102115.4850
  20283535.320    20283543.380    20283542.080   106590853.1840   83057925.7380
  79597189.7070
  21471557.020    21471565.900    21471566.380   112834089.1230   87922799.5460
  84259274.4040
  23949156.000    23949180.980                   125853349.0360   98067481.5450

 23  3  6 16  1  5.0000000  0  9G02G08G10G16G18G23G26G27G31
  25266469.780    25266477.400                   132776415.7840  103462297.7790

  24174069.420    24174087.000    24174087.780   127035665.8290   98988928.0760
  94864351.0710
  23759526.820    23759564.780                   124857523.3830   97291703.6100

  20860921.260    20860925.940                   109625022.5200   85422189.1340

  21360413.620    21360419.500    21360423.520   112250186.2900   87467884.2050
  83823141.3780
  22705297.000    22705307.780    22705312.100   119317766.4980   92974950.5710
  89100652.0060
  20283685.380    20283693.440    20283692.140   106591641.7200   83058540.1800
  79597778.5470
  21471227.780    21471236.660    21471237.120   112832358.9280   87921451.3450
  84257982.3790
  23949812.800    23949837.760                   125856800.1730   98070170.6810

 23  3  6 16  1  6.0000000  0  9G02G08G10G16G18G23G26G27G31
  25267083.640    25267091.260                   132779641.6370  103464811.4390

  24173571.320    24173588.940    24173589.680   127033048.3720   98986888.5050
  94862396.4940
  23758954.700    23758992.640                   124854517.1160   97289361.1050

  20860615.260    20860619.920                   109623414.4430   85420936.0880

  21360798.180    21360804.040    21360808.080   112252207.1670   87469458.9140
  83824650.4700
  22704924.140    22704934.900    22704939.220   119315807.0900   92973423.7650
  89099188.8340
  20283835.520    20283843.580    20283842.280   106592430.7240   83059154.9860
  79598367.7350
  21470898.560    21470907.460    21470907.900   112830628.9180   87920103.2890
  84256690.4960
  23950469.560    23950494.560                   125860251.3090   98072859.8150

 23  3  6 16  1  7.0000000  0 10G02G08G10G16G18G23G26G27G28G31
  25267697.540    25267705.140                   132782867.6560  103467325.2220

  24173073.260    24173090.880    24173091.640   127030431.1250   98984849.1000
  94860442.0730
  23758382.660    23758420.560                   124851511.1020   97287018.8000

  20860309.360    20860314.020                   109621806.9250   85419683.4790

  21361182.860    21361188.720    21361192.760   112254228.6320   87471034.0790
  83826160.0030
  22704551.380    22704562.120    22704566.460   119313848.2990   92971897.4430
  89097726.0980
  20283985.800    20283993.860    20283992.560   106593220.3960   83059770.3150
  79598957.4210
  21470569.420    21470578.320    21470578.760   112828899.3020   87918755.5400
  84255398.9040
  24590688.260                                   129224443.7740

  23951126.380    23951151.380                   125863702.6490   98075549.1040

 23  3  6 16  1  8.0000000  0  9G02G08G10G16G18G23G26G27G31
  25268311.420    25268319.000                   132786093.5650  103469838.9230

  24172575.220    24172592.820    24172593.600   127027813.9260   98982809.7300
  94858487.6680
  23757810.620    23757848.480                   124848505.1190   97284676.5140

  20860003.520    20860008.180                   109620199.7250   85418431.1190

  21361567.620    21361573.460    21361577.500   112256250.4620   87472609.5320
  83827669.8100
  22704178.680    22704189.420    22704193.780   119311889.8420   92970371.3850
  89096263.6410
  20284136.140    20284144.200    20284142.900   106594010.4900   83060385.9710
  79599547.4200
  21470240.320    21470249.220    21470249.640   112827169.8540   87917407.9230
  84254107.4270
  23951783.200    23951808.200                   125867153.9540   98078238.3650

 23  3  6 16  1  9.0000000  0  9G02G08G10G16G18G23G26G27G31
  25268925.260    25268932.840                   132789319.4100  103472352.5710

  24172077.200    24172094.760    24172095.560   127025196.7450   98980770.3600
  94856533.2980
  23757238.560    23757276.420                   124845499.1650   97282334.2540

  20859697.740    20859702.400                   109618592.8500   85417179.0090

  21361952.420    21361958.260    21361962.320   112258272.6580   87474185.2700
  83829179.8930
  22703806.060    22703816.800    22703821.140   119309931.7760   92968845.6250
  89094801.4510
  20284286.580    20284294.640    20284293.340   106594801.0110   83061001.9580
  79600137.7460
  21469911.240    21469920.140    21469920.560   112825440.5560   87916060.4220
  84252816.0780
  23952440.000    23952465.000                   125870605.2140   98080927.5960

 23  3  6 16  1 10.0000000  0  9G02G08G10G16G18G23G26G27G31
  25269539.100    25269546.660                   132792545.1430  103474866.1210

  24171579.160    24171596.740    24171597.520   127022579.5510   98978730.9840
  94854578.9030
  23756666.520    23756704.340                   124842493.2170   97279991.9970

  20859392.020    20859396.680                   109616986.2520   85415927.1170

  21362337.300    21362343.140    21362347.200   112260295.1760   87475761.2590
  83830690.2090
  22703433.500    22703444.240    22703448.600   119307974.0340   92967320.1160
  89093339.5050
  20284437.100    20284445.140    20284443.840   106595591.9300   83061618.2570
  79600728.3660
  21469582.180    21469591.080    21469591.500   112823711.3840   87914713.0170
  84251524.8230
  23953096.800    23953121.800                   125874056.4300   98083616.7890

 23  3  6 16  1 11.0000000  0  9G02G08G10G16G18G23G26G27G31
  25270152.940    25270160.480                   132795770.8550  103477379.6600

  24171081.120    24171098.760    24171099.500   127019962.4400   98976691.6770
  94852624.5740
  23756094.500    23756132.280                   124839487.3710   97277649.8220

  20859086.360    20859091.020                   109615380.0510   85414675.5330

  21362722.260    21362728.080    21362732.160   112262318.1360   87477337.5870
  83832200.8650
  22703061.020    22703071.780    22703076.120   119306016.7250   92965794.9440
  89091877.8880
  20284587.700    20284595.760    20284594.460   106596383.3650   83062234.9550
  79601319.3680
  21469253.160    21469262.080    21469262.480   112821982.4410   87913365.7900
  84250233.7310
  23953753.600    23953778.620                   125877507.6900   98086306.0170

 23  3  6 16  1 12.0000000  0  9G02G08G10G16G18G23G26G27G31
  25270766.760    25270774.280                   132798996.5790  103479893.2200

  24170583.100    24170600.700    24170601.500   127017345.4010   98974652.4380
  94850670.3190
  23755522.480    23755560.240                   124836481.6160   97275307.7170

  20858780.780    20858785.440                   109613774.2610   85413424.2690

  21363107.300    21363113.120    21363117.200   112264341.5510   87478914.2760
  83833711.8580
  22702688.640    22702699.380    22702703.740   119304059.8700   92964270.1310
  89090416.6160
  20284738.400    20284746.460    20284745.160   106597175.3090   83062852.0570
  79601910.7590
  21468924.200    21468933.120    21468933.520   112820253.7650   87912018.7720
  84248942.8370
  23954410.420    23954435.460                   125880959.0050   98088995.2930

 23  3  6 16  1 13.0000000  0  9G02G08G10G16G18G23G26G27G31
  25271380.620    25271388.080                   132802222.2380  103482406.7210

  24170085.100    24170102.700    24170103.500   127014728.4200   98972613.2360
  94848716.0830
  23754950.480    23754988.200                   124833475.9090   97272965.6510

  20858475.280    20858479.940                   109612168.8030   85412173.2650

  21363492.420    21363498.240    21363502.320   112266365.3440   87480491.2560
  83835223.1290
  22702316.320    22702327.060    22702331.420   119302103.3920   92962745.6140
  89088955.6170
  20284889.180    20284897.240    20284895.940   106597967.6980   83063469.4980
  79602502.4740
  21468595.260    21468604.200    21468604.580   112818525.2470   87910671.8820
  84247652.0660
  23955067.240    23955092.260                   125884410.3000   98091684.5470

 23  3  6 16  1 14.0000000  0  9G02G08G10G16G18G23G26G27G31
  25271994.460    25272001.900                   132805448.0080  103484920.3070

  24169587.120    24169604.700    24169605.540   127012111.6570   98970574.2180
  94846762.0010
  23754378.520    23754416.200                   124830470.4500   97270623.7750

  20858169.860    20858174.520                   109610563.8550   85410922.6580

  21363877.640    21363883.460    21363887.540   112268389.6780   87482068.6610
  83836734.8150
  22701944.120    22701954.840    22701959.240   119300147.4620   92961221.5220
  89087495.0420
  20285040.100    20285048.140    20285046.860   106598760.6950   83064087.4190
  79603094.6520
  21468266.400    21468275.340    21468275.720   112816797.0840   87909325.2650
  84246361.5610
  23955724.080    23955749.100                   125887861.7600   98094373.9350

 23  3  6 16  1 15.0000000  0  9G02G08G10G16G18G23G26G27G31
  25272608.320    25272615.760                   132808673.8450  103487433.9450

  24169089.220    24169106.760    24169107.600   127009495.0770   98968535.3350
  94844808.0730
  23753806.600    23753844.260                   124827465.1710   97268282.0380

  20857864.540    20857869.200                   109608959.3930   85409672.4290

  21364262.980    21364268.780    21364272.860   112270414.5610   87483646.4920
  83838246.8890
  22701572.020    22701582.740    22701587.120   119298192.0790   92959697.8590
  89086034.8580
  20285191.120    20285199.160    20285197.880   106599554.3110   83064705.8190
  79603687.2770
  21467937.600    21467946.540    21467946.920   112815069.2470   87907978.9000
  84245071.2890
  23956380.940    23956405.980                   125891313.3620   98097063.4320

 23  3  6 16  1 16.0000000  0  9G02G08G10G16G18G23G26G27G31
  25273222.180    25273229.560                   132811899.5860  103489947.5150

  24168591.280    24168608.820    24168609.660   127006878.4270   98966496.4010
  94842854.1030
  23753234.680    23753272.300                   124824459.8980   97265940.3100

  20857559.280    20857563.940                   109607355.2150   85408422.4220

  21364648.360    21364654.160    21364658.240   112272439.7550   87485224.5630
  83839759.2090
  22701199.960    22701210.680    22701215.080   119296237.0040   92958174.4360
  89084574.9050
  20285342.200    20285350.260    20285348.980   106600348.3050   83065324.5150
  79604280.1940
  21467608.820    21467617.760    21467618.140   112813341.5330   87906632.6320
  84243781.1190
  23957037.780    23957062.840                   125894764.8930   98099752.8750

 23  3  6 16  1 17.0000000  0  9G02G08G10G16G18G23G26G27G31
  25273836.000    25273843.400                   132815125.3290  103492461.0850

  24168093.340    24168110.880    24168111.760   127004261.9080   98964457.5700
  94840900.2270
  23752662.780    23752700.380                   124821454.7320   97263598.6630

  20857254.100    20857258.740                   109605751.4670   85407172.7530

  21365033.840    21365039.620    21365043.720   112274465.4160   87486803.0000
  83841271.8780
  22700828.000    22700838.740    22700843.140   119294282.4090   92956651.3870
  89083115.3160
  20285493.400    20285501.460    20285500.160   106601142.8320   83065943.6250
  79604873.5120
  21467280.080    21467289.040    21467289.400   112811614.0660   87905286.5600
  84242491.1370
  23957694.640    23957719.720                   125898216.4730   98102442.3530

 23  3  6 16  1 18.0000000  0  9G02G08G10G16G18G23G26G27G31
  25274449.840    25274457.220                   132818351.0480  103494974.6350

  24167595.460    24167613.000    24167613.840   127001645.4840   98962418.8030
  94838946.3990
  23752090.900    23752128.480                   124818449.6530   97261257.0860

  20856948.980    20856953.640                   109604148.0800   85405923.3640

  21365419.380    21365425.160    21365429.280   112276491.4870   87488381.7570
  83842784.8570
  22700456.120    22700466.860    22700471.260   119292328.2140   92955128.6500
  89081656.0360
  20285644.680    20285652.740    20285651.460   106601937.8450   83066563.1140
  79605467.1870
  21466951.400    21466960.360    21466960.700   112809886.8310   87903940.6640
  84241201.3200
  23958351.500    23958376.600                   125901668.0990   98105131.8640

 23  3  6 16  1 19.0000000  0  9G02G08G10G16G18G23G26G27G31
  25275063.720    25275071.080                   132821576.9170  103497488.2990

  24167097.600    24167115.140    24167116.000   126999029.3010   98960380.2340
  94836992.7640
  23751519.060    23751556.620                   124815444.8480   97258915.7220

  20856643.960    20856648.620                   109602545.2490   85404674.4070

  21365805.060    21365810.840    21365814.940   112278518.1680   87489960.9880
  83844298.2790
  22700084.380    22700095.100    22700099.500   119290374.6280   92953606.3860
  89080197.1980
  20285796.100    20285804.160    20285802.880   106602733.5290   83067183.1270
  79606061.3640
  21466622.780    21466631.760    21466632.080   112808159.9840   87902595.0740
  84239911.7920
  23959008.420    23959033.520                   125905119.9220   98107821.5300

 23  3  6 16  1 20.0000000  0  9G02G08G10G16G18G23G26G27G31
  25275677.600    25275684.960                   132824802.9340  103500002.0760

  24166599.780    24166617.320    24166618.180   126996413.3420   98958341.8530
  94835039.3120
  23750947.280    23750984.820                   124812440.2860   97256574.5490

  20856339.060    20856343.720                   109600942.9730   85403425.8830

  21366190.840    21366196.600    21366200.720   112280545.4260   87491540.6710
  83845812.1470
  22699712.720    22699723.460    22699727.860   119288421.6420   92952084.5820
  89078738.7990
  20285947.640    20285955.700    20285954.420   106603529.8640   83067803.6460
  79606656.0260
  21466294.240    21466303.220    21466303.540   112806433.5130   87901249.7720
  84238622.5480
  23959665.360    23959690.460                   125908571.9330   98110511.3440

 23  3  6 16  1 21.0000000  0  9G02G08G10G16G18G23G26G27G31
  25276291.540    25276298.900                   132828029.1100  103502515.9760

  24166102.000    24166119.560    24166120.420   126993797.6610   98956303.6600
  94833086.0550
  23750375.560    23750413.060                   124809436.0040   97254233.5940

  20856034.260    20856038.940                   109599341.2590   85402177.7960

  21366576.740    21366582.500    21366586.600   112282573.2920   87493120.8240
  83847326.4530
  22699341.180    22699351.920    22699356.320   119286469.2510   92950563.2470
  89077280.8630
  20286099.300    20286107.360    20286106.080   106604326.8740   83068424.6900
  79607251.1900
  21465965.780    21465974.760    21465975.060   112804707.4650   87899904.8070
  84237333.6240
  23960322.360    23960347.480                   125912024.1840   98113201.3420

 23  3  6 16  1 22.0000000  0  9G02G08G10G16G18G23G26G27G31
  25276905.420    25276912.800                   132831255.0220  103505029.6710

  24165604.220    24165621.760    24165622.640   126991181.8300   98954265.3460
  94831132.6850
  23749803.780    23749841.260                   124806431.5470   97251892.5030

  20855729.500    20855734.160                   109597739.6770   85400929.8120

  21366962.660    21366968.420    21366972.520   112284601.3260   87494701.1100
  83848840.8990
  22698969.680    22698980.440    22698984.820   119284517.0290   92949042.0470
  89075823.0600
  20286251.020    20286259.080    20286257.800   106605124.1150   83069045.9180
  79607846.5380
  21465637.320    21465646.300    21465646.580   112802981.3570   87898559.7900
  84236044.6630
  23960979.300    23961004.420                   125915476.1830   98115891.1500

 23  3  6 16  1 23.0000000  0  9G02G08G10G16G18G23G26G27G31
  25277519.300    25277526.660                   132834480.9800  103507543.4010

  24165106.460    24165124.040    24165124.860   126988566.1290   98952227.1490
  94829179.4150
  23749232.040    23749269.500                   124803427.2510   97249551.5360

  20855424.800    20855429.480                   109596138.5380   85399682.1760

  21367348.680    21367354.440    21367358.540   112286629.8640   87496281.7890
  83850355.7070
  22698598.280    22698609.040    22698613.420   119282565.3140   92947521.2410
  89074365.6160
  20286402.840    20286410.900    20286409.620   106605921.9190   83069667.5810
  79608442.2950
  21465308.900    21465317.880    21465318.160   112801255.5530   87897215.0140
  84234755.9100
  23961636.260    23961661.380                   125918928.2840   98118581.0330

 23  3  6 16  1 24.0000000  0  9G02G08G10G16G18G23G26G27G31
  25278133.200    25278140.580                   132837706.9280  103510057.1290

  24164608.720    24164626.320    24164627.120   126985950.5400   98950189.0410
  94827226.2080
  23748660.320    23748697.760                   124800423.0790   97247210.6690

  20855120.200    20855124.860                   109594537.8130   85398434.8550

  21367734.800    21367740.540    21367744.640   112288658.8310   87497862.8000
  83851870.8500
  22698226.960    22698237.720    22698242.100   119280614.0410   92946000.7760
  89072908.5000
  20286554.760    20286562.800    20286561.540   106606720.2380   83070289.6470
  79609038.4480
  21464980.540    21464989.520    21464989.800   112799529.9970   87895870.4310
  84233467.3520
  23962293.200    23962318.360                   125922380.4400   98121270.9570

 23  3  6 16  1 25.0000000  0  9G02G08G10G16G18G23G26G27G31
  25278747.060    25278754.480                   132840932.8500  103512570.8300

  24164111.000    24164128.560    24164129.380   126983334.9640   98948150.9320
  94825273.0500
  23748088.620    23748126.040                   124797419.0010   97244869.8720

  20854815.660    20854820.340                   109592937.4570   85397187.8290

  21368120.980    21368126.720    21368130.820   112290688.2310   87499444.1500
  83853386.3120
  22697855.700    22697866.500    22697870.860   119278663.2060   92944480.6550
  89071451.7220
  20286706.760    20286714.820    20286713.540   106607519.0450   83070912.0950
  79609634.9600
  21464652.220    21464661.200    21464661.460   112797804.6630   87894526.0190
  84232178.9620
  23962950.180    23962975.360                   125925832.6360   98123960.9170

 23  3  6 16  1 26.0000000  0  9G02G08G10G16G18G23G26G27G31
  25279360.980    25279368.380                   132844159.0560  103515084.7520

  24163613.340    24163630.920    24163631.720   126980719.7670   98946113.1320
  94823320.1560
  23747516.980    23747554.380                   124794415.2940   97242529.3700

  20854511.240    20854515.920                   109591337.7800   85395941.3290

  21368507.300    21368513.040    21368517.140   112292718.3350   87501026.0500
  83854902.2950
  22697484.600    22697495.400    22697499.760   119276713.0760   92942961.0810
  89069995.4690
  20286858.920    20286866.980    20286865.700   106608318.6300   83071535.1460
  79610232.0510
  21464324.000    21464332.980    21464333.220   112796079.8320   87893181.9990
  84230890.9410
  23963607.240    23963632.400                   125929285.1550   98126651.1230

 23  3  6 16  1 27.0000000  0  9G02G08G10G16G18G23G26G27G31
  25279974.860    25279982.260                   132847384.9960  103517598.4640

  24163115.640    24163133.240    24163134.020   126978104.3960   98944075.1970
  94821367.1470
  23746945.320    23746982.740                   124791411.4680   97240188.7720

  20854206.860    20854211.540                   109589738.2340   85394694.9290

  21368893.660    21368899.380    21368903.500   112294748.6210   87502608.0910
  83856418.4130
  22697113.540    22697124.320    22697128.680   119274763.1240   92941441.6490
  89068539.3390
  20287011.120    20287019.180    20287017.900   106609118.4650   83072158.3900
  79610829.3220
  21463995.760    21464004.740    21464004.980   112794354.9720   87891837.9560
  84229602.9010
  23964264.220    23964289.400                   125932737.4370   98129341.1480

 23  3  6 16  1 28.0000000  0  9G02G08G10G16G18G23G26G27G31
  25280588.740    25280596.140                   132850610.9230  103520112.1750

  24162617.960    24162635.600    24162636.340   126975489.2150   98942037.4140
  94819414.2480
  23746373.700    23746411.080                   124788407.6980   97237848.2150

  20853902.540    20853907.220                   109588139.0870   85393448.8430

  21369280.100    21369285.820    21369289.920   112296779.3420   87504190.4670
  83857934.8630
  22696742.540    22696753.340    22696757.700   119272813.6160   92939922.5600
  89067083.5510
  20287163.420    20287171.480    20287170.220   106609918.8020   83072782.0290
  79611426.9760
  21463667.580    21463676.560    21463676.780   112792630.3560   87890494.1030
  84228315.0430
  23964921.220    23964946.420                   125936189.7590   98132031.2040

 23  3  6 16  1 29.0000000  0 10G02G08G10G16G18G23G26G27G28G31
  25281202.580    25281210.000                   132853836.7810  103522625.8310

  24162120.320    24162137.920    24162138.680   126972873.9960   98939999.5850
  94817461.3590
  23745802.100    23745839.440                   124785404.0430   97235507.7500

  20853598.300    20853602.980                   109586540.2920   85392203.0310

  21369666.620    21369672.320    21369676.420   112298810.4560   87505773.1530
  83859451.6000
  22696371.640    22696382.420    22696386.800   119270864.4970   92938403.7760
  89065628.0520
  20287315.820    20287323.860    20287322.600   106610719.5950   83073406.0240
  79612024.9700
  21463339.420    21463348.420    21463348.620   112790905.9320   87889150.3980
  84227027.3230
  24605776.260                                   129303735.3010

  23965578.220    23965603.440                   125939642.0890   98134721.2630

 23  3  6 16  1 30.0000000  0 10G02G08G10G16G18G23G26G27G28G31
  25281816.500    25281823.900                   132857062.8610  103525139.6530

  24161622.700    24161640.320    24161641.080   126970259.0910   98937962.0130
  94815508.6590
  23745230.560    23745267.840                   124782400.6830   97233167.5140

  20853294.160    20853298.860                   109584942.1070   85390957.6900

  21370053.260    21370058.960    21370063.060   112300842.2100   87507356.3340
  83860968.8170
  22696000.860    22696011.640    22696016.000   119268916.0270   92936885.4980
  89064173.0410
  20287468.340    20287476.380    20287475.120   106611521.1070   83074030.5760
  79612623.5010
  21463011.360    21463020.360    21463020.540   112789181.9490   87887807.0390
  84225739.9380
  24606462.000                                   129307338.9550

  23966235.280    23966260.520                   125943094.6890   98137411.5330

 23  3  6 16  1 31.0000000  0  9G02G08G10G16G18G23G26G27G31
  25282430.380    25282437.780                   132860288.8900  103527653.4420

  24161125.100    24161142.720    24161143.480   126967644.2160   98935924.4570
  94813556.0170
  23744659.000    23744696.260                   124779397.3850   97230827.3230

  20852990.100    20852994.800                   109583344.2690   85389712.6230

  21370439.980    21370445.660    21370449.760   112302874.3740   87508939.8380
  83862486.3400
  22695630.140    22695640.940    22695645.300   119266967.9720   92935367.5410
  89062718.3270
  20287620.960    20287629.000    20287627.740   106612323.0990   83074655.5010
  79613222.3870
  21462683.340    21462692.320    21462692.500   112787458.1660   87886463.8380
  84224452.6970
  23966892.320    23966917.580                   125946547.2820   98140101.8020

 23  3  6 16  1 32.0000000  0  9G02G08G10G16G18G23G26G27G31
  25283044.280    25283051.660                   132863514.8520  103530167.1840

  24160627.520    24160645.160    24160645.880   126965029.4110   98933886.9560
  94811603.4030
  23744087.460    23744124.700                   124776394.1350   97228487.1730

  20852686.100    20852690.800                   109581746.7750   85388467.8230

  21370826.760    21370832.440    21370836.540   112304906.9010   87510523.6260
  83864004.1500
  22695259.500    22695270.300    22695274.660   119265020.2990   92933849.8800
  89061263.9010
  20287773.660    20287781.700    20287780.440   106613125.5160   83075280.7630
  79613821.6030
  21462355.340    21462364.320    21462364.500   112785734.5540   87885120.7680
  84223165.5940
  23967549.360    23967574.620                   125949999.8530   98142792.0520

 23  3  6 16  1 33.0000000  0  9G02G08G10G16G18G23G26G27G31
  25283658.120    25283665.500                   132866740.5470  103532680.7140

  24160129.880    24160147.500    24160148.260   126962414.3760   98931849.2690
  94809650.6500
  23743515.900    23743553.100                   124773390.7040   97226146.8820

  20852382.140    20852386.840                   109580149.3990   85387223.1160

  21371213.560    21371219.240    21371223.340   112306939.6070   87512107.5520
  83865522.0690
  22694888.900    22694899.700    22694904.060   119263072.7880   92932332.3490
  89059809.6070
  20287926.400    20287934.440    20287933.180   106613928.1840   83075906.2180
  79614420.9890
  21462027.340    21462036.320    21462036.500   112784010.9100   87883777.6750
  84221878.4650
  23968206.360    23968231.640                   125953452.1930   98145482.1210

 23  3  6 16  1 34.0000000  0  9G02G08G10G16G18G23G26G27G31
  25284271.940    25284279.340                   132869966.1850  103535194.1960

  24159632.240    24159649.860    24159650.640   126959799.4290   98929811.6680
  94807697.9340
  23742944.360    23742981.540                   124770387.3830   97223806.6770

  20852078.240    20852082.940                   109578552.3860   85385978.6930

  21371600.440    21371606.120    21371610.240   112308972.7140   87513691.7920
  83867040.2990
  22694518.380    22694529.180    22694533.540   119261125.6920   92930815.1400
  89058355.6150
  20288079.220    20288087.280    20288086.020   106614731.3180   83076532.0360
  79615020.7330
  21461699.380    21461708.380    21461708.520   112782287.4710   87882434.7350
  84220591.4820
  23968863.360    23968888.660                   125956904.5470   98148172.2010

 23  3  6 16  1 35.0000000  0  9G02G08G10G16G18G23G26G27G31
  25284885.760    25284893.160                   132873191.8340  103537707.6900

  24159134.680    24159152.280    24159153.060   126957184.6280   98927774.1610
  94805745.3330
  23742372.820    23742409.980                   124767384.1590   97221466.5430

  20851774.400    20851779.120                   109576955.7990   85384734.6010

  21371987.420    21371993.100    21371997.200   112311006.2710   87515276.3810
  83868558.8580
  22694147.960    22694158.720    22694163.100   119259179.0510   92929298.2850
  89056901.9640
  20288232.160    20288240.200    20288238.940   106615534.9790   83077158.2650
  79615620.8630
  21461371.460    21461380.460    21461380.580   112780564.2820   87881091.9970
  84219304.6890
  23969520.400    23969545.700                   125960356.9920   98150862.3530

 23  3  6 16  1 36.0000000  0  9G02G08G10G16G18G23G26G27G31
  25285499.600    25285507.000                   132876417.5870  103540221.2580

  24158637.100    24158654.720    24158655.520   126954570.0300   98925736.8320
  94803792.8690
  23741801.320    23741838.460                   124764381.1500   97219126.5780

  20851470.680    20851475.380                   109575359.7050   85383490.8910

  21372374.500    21372380.180    21372384.280   112313040.3880   87516861.4050
  83870077.8340
  22693777.620    22693788.400    22693792.760   119257232.9670   92927781.8640
  89055448.7290
  20288385.200    20288393.260    20288392.000   106616339.2460   83077784.9660
  79616221.4520
  21461043.620    21461052.620    21461052.720   112778841.4400   87879749.5240
  84218018.1540
  23970177.440    23970202.740                   125963809.5690   98153552.6050

 23  3  6 16  1 37.0000000  0  9G02G08G10G16G18G23G26G27G31
  25286113.460    25286120.860                   132879643.3910  103542734.8630

  24158139.580    24158157.200    24158158.000   126951955.5500   98923699.5920
  94801840.5270
  23741229.880    23741267.000                   124761378.3310   97216786.7600

  20851167.040    20851171.740                   109573764.0740   85382247.5440

  21372761.680    21372767.340    21372771.460   112315074.9900   87518446.8100
  83871597.1900
  22693407.380    22693418.160    22693422.520   119255287.3920   92926265.8380
  89053995.8650
  20288538.360    20288546.420    20288545.160   106617144.0940   83078412.1190
  79616822.4810
  21460715.820    21460724.820    21460724.920   112777118.8970   87878407.2870
  84216731.8520
  23970834.520    23970859.820                   125967262.2500   98156242.9410

 23  3  6 16  1 38.0000000  0 10G02G08G10G16G18G23G26G27G28G31
  25286727.340    25286734.700                   132882869.3150  103545248.5660

  24157642.080    24157659.720    24157660.540   126949341.3040   98921662.5210
  94799888.3580
  23740658.460    23740695.560                   124758375.7170   97214447.1010

  20850863.500    20850868.200                   109572168.9790   85381004.6130

  21373148.960    21373154.620    21373158.740   112317110.1600   87520032.6550
  83873116.9590
  22693037.240    22693048.000    22693052.400   119253342.3830   92924750.2540
  89052543.4380
  20288691.640    20288699.680    20288698.440   106617949.5700   83079039.7600
  79617423.9650
  21460388.100    21460397.100    21460397.200   112775396.7250   87877065.3390
  84215445.8140
  24611947.020                                   129336164.4170

  23971491.600    23971516.940                   125970715.0820   98158933.3950

 23  3  6 16  1 39.0000000  0 10G02G08G10G16G18G23G26G27G28G31
  25287341.200    25287348.560                   132886095.3030  103547762.3250

  24157144.640    24157162.240    24157163.080   126946727.1940   98919625.5600
  94797936.2770
  23740087.080    23740124.140                   124755373.2550   97212107.5610

  20850560.040    20850564.760                   109570574.3170   85379762.0200

  21373536.340    21373542.000    21373546.120   112319145.8220   87521618.8840
  83874637.0980
  22692667.220    22692677.960    22692682.340   119251397.8540   92923235.0430
  89051091.3630
  20288845.020    20288853.080    20288851.820   106618755.6040   83079667.8380
  79618025.8770
  21460060.440    21460069.440    21460069.520   112773674.8250   87875723.6010
  84214159.9900
  24612632.640                                   129339767.4290

  23972148.720    23972174.080                   125974168.0370   98161623.9440

 23  3  6 16  1 40.0000000  0 10G02G08G10G16G18G23G26G27G28G31
  25287955.080    25287962.480                   132889321.3510  103550276.1280

  24156647.240    24156664.820    24156665.680   126944113.2950   98917588.7640
  94795984.3270
  23739515.740    23739552.760                   124752370.9980   97209768.1810

  20850256.680    20850261.380                   109568980.1290   85378519.7970

  21373923.800    21373929.460    21373933.580   112321181.9880   87523205.5070
  83876157.6020
  22692297.280    22692308.020    22692312.400   119249453.8480   92921720.2400
  89049639.6780
  20288998.520    20289006.560    20289005.320   106619562.2120   83080296.3600
  79618628.2090
  21459732.820    21459741.840    21459741.900   112771953.2470   87874382.1140
  84212874.3900
  24613318.260                                   129343370.5390

  23972805.860    23972831.240                   125977621.1000   98164314.5730

 23  3  6 16  1 41.0000000  0 10G02G08G10G16G18G23G26G27G28G31
  25288568.920    25288576.320                   132892547.0570  103552789.6720

  24156149.780    24156167.400    24156168.220   126941499.1670   98915551.7830
  94794032.2210
  23738944.340    23738981.320                   124749368.5050   97207428.6170

  20849953.340    20849958.040                   109567386.0350   85377277.6480

  21374311.300    21374316.960    21374321.080   112323218.2900   87524792.2360
  83877678.2220
  22691927.360    22691938.120    22691942.480   119247509.9870   92920205.5490
  89048188.1040
  20289152.060    20289160.100    20289158.840   106620369.0330   83080925.0520
  79619230.6970
  21459405.200    21459414.220    21459414.260   112770231.6000   87873040.5750
  84211588.7540
  24614003.760                                   129346973.2730

  23973462.940    23973488.320                   125981073.8840   98167004.9840

 23  3  6 16  1 42.0000000  0 10G02G08G10G16G18G23G26G27G28G31
  25289182.740    25289190.180                   132895772.7550  103555303.2030

  24155652.300    24155669.920    24155670.800   126938885.0920   98913514.8560
  94792080.1910
  23738372.980    23738409.940                   124746366.1400   97205089.1490

  20849650.060    20849654.760                   109565792.3270   85376035.8020

  21374698.880    21374704.540    21374708.660   112325255.0210   87526379.2950
  83879199.1470
  22691557.520    22691568.280    22691572.660   119245566.5460   92918691.1910
  89046736.8500
  20289305.680    20289313.720    20289312.480   106621176.3460   83081554.1250
  79619833.5630
  21459077.640    21459086.640    21459086.660   112768510.1660   87871699.2020
  84210303.2660
  24614689.320                                   129350575.9260

  23974120.060    23974145.440                   125984526.7130   98169695.4330

 23  3  6 16  1 43.0000000  0 10G02G08G10G16G18G23G26G27G28G31
  25289796.580    25289804.040                   132898998.5250  103557816.7940

  24155154.880    24155172.480    24155173.380   126936271.1950   98911478.0590
  94790128.2590
  23737801.660    23737838.580                   124743363.9640   97202749.8340

  20849346.880    20849351.580                   109564199.0980   85374794.3240

  21375086.560    21375092.220    21375096.320   112327292.2670   87527966.7560
  83880720.4690
  22691187.800    22691198.560    22691202.920   119243623.6440   92917177.2520
  89045285.9880
  20289459.420    20289467.460    20289466.220   106621984.2400   83082183.6520
  79620436.8580
  21458750.120    21458759.120    21458759.140   112766789.0550   87870358.0780
  84209018.0270
  24615374.840                                   129354178.5970

  23974777.200    23974802.560                   125987979.6630   98172385.9760

 23  3  6 16  1 44.0000000  0 10G02G08G10G16G18G23G26G27G28G31
  25290410.400    25290417.860                   132902224.2360  103560330.3390

  24154657.440    24154675.040    24154675.980   126933657.2980   98909441.2550
  94788176.3410
  23737230.360    23737267.220                   124740361.8280   97200410.5510

  20849043.760    20849048.460                   109562606.2020   85373553.1090

  21375474.320    21375479.960    21375484.080   112329329.8810   87529554.5040
  83882242.0680
  22690818.140    22690828.900    22690833.260   119241681.1120   92915663.6010
  89043835.3980
  20289613.240    20289621.280    20289620.040   106622792.5880   83082813.5300
  79621040.4900
  21458422.620    21458431.640    21458431.640   112765068.1200   87869017.0960
  84207732.9130
  24616060.320                                   129357781.0600

  23975434.300    23975459.700                   125991432.5790   98175076.4900

 23  3  6 16  1 45.0000000  0 10G02G08G10G16G18G23G26G27G28G31
  25291024.260    25291031.700                   132905450.0370  103562843.9550

  24154160.060    24154177.640    24154178.620   126931043.6270   98907404.6510
  94786224.5850
  23736659.080    23736695.920                   124737359.9260   97198071.4470

  20848740.740    20848745.460                   109561013.8310   85372312.3030

  21375862.180    21375867.820    21375871.920   112331368.0540   87531142.6920
  83883764.0740
  22690448.580    22690459.360    22690463.700   119239739.1400   92914150.3860
  89042385.2340
  20289767.180    20289775.240    20289773.980   106623601.5480   83083443.8880
  79621644.5820
  21458095.200    21458104.220    21458104.220   112763347.5400   87867676.3890
  84206448.0700
  24616745.880                                   129361383.6680

  23976091.460    23976116.840                   125994885.6700   98177767.1450

 23  3  6 16  1 46.0000000  0 10G02G08G10G16G18G23G26G27G28G31
  25291638.100    25291645.540                   132908675.9170  103565357.6290

  24153662.720    24153680.340    24153681.300   126928430.1430   98905368.2000
  94784272.9730
  23736087.840    23736124.660                   124734358.2160   97195732.4970

  20848437.820    20848442.520                   109559421.9340   85371071.8630

  21376250.120    21376255.780    21376259.860   112333406.7430   87532731.2760
  83885286.4730
  22690079.140    22690089.900    22690094.240   119237797.6990   92912637.5830
  89040935.4760
  20289921.220    20289929.280    20289928.040   106624411.1020   83084074.7100
  79622249.1250
  21457767.860    21457776.880    21457776.840   112761627.2780   87866335.9290
  84205163.4610
  24617431.420                                   129364986.2420

  23976748.620    23976774.020                   125998338.8880   98180457.8940

 23  3  6 16  1 47.0000000  0 10G02G08G10G16G18G23G26G27G28G31
  25292252.000    25292259.400                   132911901.9070  103567871.3940

  24153165.420    24153183.040    24153184.000   126925816.8460   98903331.8750
  94782321.5000
  23735516.660    23735553.440                   124731356.7420   97193393.7310

  20848134.980    20848139.700                   109557830.5460   85369831.8230

  21376638.160    21376643.840    21376647.920   112335445.9770   87534320.2900
  83886809.2710
  22689709.780    22689720.560    22689724.880   119235856.7960   92911125.2000
  89039486.1080
  20290075.400    20290083.460    20290082.200   106625221.2730   83084706.0100
  79622854.1170
  21457440.580    21457449.580    21457449.540   112759907.3660   87864995.7390
  84203879.1140
  24618117.000                                   129368588.9290

  23977405.820    23977431.240                   126001792.2580   98183148.7690

 23  3  6 16  1 48.0000000  0 10G02G08G10G16G18G23G26G27G28G31
  25292865.880    25292873.260                   132915127.9600  103570385.1990

  24152668.140    24152685.780    24152686.740   126923203.7220   98901295.6800
  94780370.1530
  23734945.500    23734982.240                   124728355.4020   97191055.0680

  20847832.240    20847836.960                   109556239.6370   85368592.1570

  21377026.320    21377031.980    21377036.080   112337485.7250   87535909.7060
  83888332.4590
  22689340.540    22689351.300    22689355.620   119233916.4140   92909613.2230
  89038037.1390
  20290229.680    20290237.740    20290236.480   106626032.0310   83085337.7650
  79623459.5470
  21457113.340    21457122.360    21457122.300   112758187.7520   87863655.7810
  84202594.9880
  24618802.520                                   129372191.5470

  23978063.040    23978088.480                   126005245.7440   98185839.7330

 23  3  6 16  1 49.0000000  0 10G02G08G10G16G18G23G26G27G28G31
  25293479.720    25293487.080                   132918353.7030  103572898.7650

  24152170.820    24152188.460    24152189.420   126920590.3870   98899259.3160
  94778418.6290
  23734374.300    23734411.020                   124725353.8880   97188716.2690

  20847529.520    20847534.240                   109554648.8200   85367352.5610

  21377414.500    21377420.180    21377424.240   112339525.6090   87537499.2250
  83889855.7530
  22688971.320    22688982.080    22688986.400   119231976.1990   92908101.3760
  89036588.2800
  20290384.000    20290392.060    20290390.800   106626842.9770   83085969.6710
  79624065.1280
  21456786.100    21456795.120    21456795.040   112756468.0790   87862315.7800
  84201310.8250
  24619487.980                                   129375793.8580

  23978720.220    23978745.660                   126008698.9800   98188530.5010

 23  3  6 16  1 50.0000000  0 10G02G08G10G16G18G23G26G27G28G31
  25294093.600    25294100.920                   132921579.5330  103575412.4090

  24151673.540    24151691.200    24151692.160   126917977.2180   98897223.0970
  94776467.2720
  23733803.160    23733839.820                   124722352.5980   97186377.6420

  20847226.880    20847231.620                   109553058.5040   85366113.3580

  21377802.780    21377808.460    21377812.520   112341566.0210   87539089.1570
  83891379.4350
  22688602.180    22688612.960    22688617.260   119230036.5030   92906589.9350
  89035139.8230
  20290538.440    20290546.500    20290545.240   106627654.5380   83086602.0570
  79624671.1600
  21456458.920    21456467.940    21456467.840   112754748.7470   87860976.0420
  84200026.9070
  24620173.460                                   129379396.1300

  23979377.420    23979402.880                   126012152.3480   98191221.3670

 23  3  6 16  1 51.0000000  0 10G02G08G10G16G18G23G26G27G28G31
  25294707.440    25294714.780                   132924805.3710  103577926.0590

  24151176.280    24151193.920    24151194.900   126915364.1890   98895186.9820
  94774515.9740
  23733232.020    23733268.640                   124719351.3980   97184039.0850

  20846924.340    20846929.060                   109551468.5930   85364874.4690

  21378191.160    21378196.840    21378200.900   112343606.8930   87540679.4450
  83892903.4590
  22688233.160    22688243.920    22688248.220   119228097.2740   92905078.8550
  89033691.7030
  20290692.980    20290701.040    20290699.780   106628466.6120   83087234.8420
  79625277.5790
  21456131.780    21456140.800    21456140.700   112753029.6490   87859636.4890
  84198743.1730
  24620858.960                                   129382998.3910

  23980034.640    23980060.100                   126015605.7810   98193912.2870

 23  3  6 16  1 52.0000000  0 10G02G08G10G16G18G23G26G27G28G31
  25295321.320    25295328.640                   132928031.2870  103580439.7580

  24150679.040    24150696.660    24150697.680   126912751.2750   98893150.9570
  94772564.8250
  23732660.900    23732697.500                   124716350.3760   97181700.6740

  20846621.880    20846626.620                   109549879.1580   85363635.9500

  21378579.620    21378585.300    21378589.360   112345648.2640   87542270.1210
  83894427.8550
  22687864.220    22687874.980    22687879.280   119226158.5520   92903568.1710
  89032243.9680
  20290847.620    20290855.680    20290854.420   106629279.2640   83087868.0730
  79625884.4330
  21455804.700    21455813.740    21455813.620   112751310.8690   87858297.1800
  84197459.6700
  24621544.400    24621544.640                   129386600.6810  100821109.4931

  23980691.880    23980717.340                   126019059.3250   98196603.2920

 23  3  6 16  1 53.0000000  0 10G02G08G10G16G18G23G26G27G28G31
  25295935.180    25295942.480                   132931257.1120  103582953.3820

  24150181.840    24150199.440    24150200.460   126910138.4450   98891115.0020
  94770613.6840
  23732089.840    23732126.380                   124713349.4170   97179362.3070

  20846319.480    20846324.220                   109548290.0450   85362397.6810

  21378968.140    21378973.840    21378977.880   112347690.0000   87543861.0830
  83895952.5250
  22687495.360    22687506.120    22687510.420   119224220.2030   92902057.7780
  89030796.5110
  20291002.360    20291010.400    20291009.160   106630092.3600   83088501.6540
  79626491.6070
  21455477.660    21455486.680    21455486.560   112749592.2490   87856958.0020
  84196176.2910
  24622229.860                                   129390202.8110

  23981349.100    23981374.580                   126022512.8260   98199294.2650

 23  3  6 16  1 54.0000000  0 10G02G08G10G16G18G23G26G27G28G31
  25296549.020    25296556.320                   132934482.8600  103585466.9540

  24149684.620    24149702.240    24149703.260   126907525.6170   98889079.0390
  94768662.5660
  23731518.740    23731555.260                   124710348.5130   97177023.9770

  20846017.140    20846021.880                   109546701.2800   85361159.6860

  21379356.740    21379362.440    21379366.480   112349732.1150   87545452.3370
  83897477.4880
  22687126.580    22687137.340    22687141.620   119222282.2590   92900547.6980
  89029349.3490
  20291157.160    20291165.220    20291163.980   106630905.9130   83089135.5890
  79627099.1230
  21455150.660    21455159.680    21455159.540   112747873.8230   87855618.9710
  84194893.0530
  24622915.260                                   129393804.7930

  23982006.320    23982031.820                   126025966.3280   98201985.2390

 23  3  6 16  1 55.0000000  0 10G02G08G10G16G18G23G26G27G28G31
  25297162.860    25297170.200                   132937708.6870  103587980.5850

  24149187.480    24149205.080    24149206.080   126904912.9950   98887043.2420
  94766711.5800
  23730947.680    23730984.160                   124707347.7770   97174685.7810

  20845714.900    20845719.640                   109545112.9850   85359922.0530

  21379745.440    21379751.140    21379755.180   112351774.7360   87547043.9880
  83899002.8250
  22686757.880    22686768.640    22686772.920   119220344.8200   92899038.0110
  89027902.5780
  20291312.080    20291320.140    20291318.900   106631720.0310   83089769.9650
  79627707.0760
  21454823.700    21454832.720    21454832.600   112746155.7000   87854280.1760
  84193610.0390
  24623600.660                                   129397406.8500

  23982663.580    23982689.080                   126029419.9560   98204676.3080

 23  3  6 16  1 56.0000000  0 10G02G08G10G16G18G23G26G27G28G31
  25297776.720    25297784.020                   132940934.5700  103590494.2620

  24148690.340    24148707.920    24148708.940   126902300.5020   98885007.5390
  94764760.6820
  23730376.660    23730413.120                   124704347.2150   97172347.7230

  20845412.740    20845417.480                   109543525.1470   85358684.7770

  21380134.240    21380139.940    21380143.980   112353817.8550   87548636.0260
  83900528.5180
  22686389.280    22686400.040    22686404.320   119218407.8790   92897528.7150
  89026456.1650
  20291467.120    20291475.180    20291473.920   106632534.7140   83090404.7810
  79628315.4350
  21454496.800    21454505.840    21454505.680   112744437.8470   87852941.5930
  84192327.2360
  24624286.060                                   129401008.7510

  23983320.860    23983346.340                   126032873.6310   98207367.4180

 23  3  6 16  1 57.0000000  0 10G02G08G10G16G18G23G26G27G28G31
  25298390.580    25298397.820                   132944160.3150  103593007.8260

  24148193.200    24148210.760    24148211.780   126899687.9420   98882971.7860
  94762809.7880
  23729805.660    23729842.060                   124701346.6610   97170009.6680

  20845110.640    20845115.380                   109541937.5980   85357447.7300

  21380523.080    21380528.800    21380532.820   112355861.2990   87550228.3220
  83902054.4710
  22686020.760    22686031.500    22686035.780   119216471.2910   92896019.6930
  89025010.0170
  20291622.220    20291630.280    20291629.040   106633349.8090   83091039.9220
  79628924.1120
  21454169.940    21454178.960    21454178.800   112742720.1550   87851603.1340
  84191044.5420
  24624971.420                                   129404610.5990

  23983978.120    23984003.600                   126036327.3000   98210058.5220

 23  3  6 16  1 58.0000000  0 10G02G08G10G16G18G23G26G27G28G31
  25299004.400    25299011.640                   132947385.9900  103595521.3430

  24147696.060    24147713.600    24147714.640   126897075.4280   98880936.0690
  94760858.8770
  23729234.640    23729271.020                   124698346.1250   97167671.6270

  20844808.580    20844813.340                   109540350.3570   85356210.9200

  21380912.020    21380917.720    21380921.740   112357905.0850   87551820.8810
  83903580.6700
  22685652.280    22685663.020    22685667.320   119214535.0310   92894510.9310
  89023564.1230
  20291777.420    20291785.480    20291784.220   106634165.2990   83091675.3660
  79629533.0760
  21453843.100    21453852.120    21453851.960   112741002.5750   87850264.7660
  84189761.9480
  24625656.840                                   129408212.2540

  23984635.360    23984660.860                   126039780.8810   98212749.5560

 23  3  6 16  1 59.0000000  0 10G02G08G10G16G18G23G26G27G28G31
  25299618.220    25299625.480                   132950611.7100  103598034.8870

  24147198.940    24147216.480    24147217.520   126894463.0940   98878900.4970
  94758908.1220
  23728663.660    23728700.000                   124695345.7680   97165333.7310

  20844506.640    20844511.380                   109538763.5990   85354974.4880

  21381301.040    21381306.740    21381310.760   112359949.3910   87553413.8460
  83905107.2640
  22685283.940    22685294.660    22685298.960   119212599.3200   92893002.5910
  89022118.6320
  20291932.700    20291940.780    20291939.520   106634981.3870   83092311.2770
  79630142.4980
  21453516.320    21453525.340    21453525.180   112739285.3480   87848926.6690
  84188479.5990
  24626342.180                                   129411813.9680

  23985292.640    23985318.140                   126043234.6000   98215440.7020

 23  3  6 16  2  0.0000000  0 10G02G08G10G16G18G23G26G27G28G31
  25300232.020    25300239.280                   132953837.2190  103600548.2680

  24146701.820    24146719.320    24146720.380   126891850.6610   98876864.8390
  94756957.2810
  23728092.660    23728128.980                   124692345.3340   97162995.7720

  20844204.720    20844209.480                   109537177.0380   85353738.2110

  21381690.100    21381695.800    21381699.820   112361993.9310   87555006.9940
  83906634.0270
  22684915.620    22684926.320    22684930.640   119210663.8590   92891494.4440
  89020673.3170
  20292088.060    20292096.140    20292094.880   106635797.7860   83092947.4300
  79630752.1370
  21453189.540    21453198.560    21453198.400   112737568.1340   87847588.5860
  84187197.2670
  24627027.480                                   129415415.3490

  23985949.880    23985975.380                   126046688.1470   98218131.7080

 23  3  6 16  2  1.0000000  0 10G02G08G10G16G18G23G26G27G28G31
  25300845.840    25300853.080                   132957062.8730  103603061.7670

  24146204.740    24146222.200    24146223.300   126889238.4200   98874829.3340
  94755006.6130
  23727521.720    23727558.000                   124689345.1270   97160657.9930

  20843902.920    20843907.660                   109535591.0160   85352502.3470

  21382079.280    21382084.980    21382089.000   112364039.0250   87556600.5720
  83908161.2080
  22684547.420    22684558.120    22684562.440   119208728.9390   92889986.7220
  89019228.4300
  20292243.540    20292251.600    20292250.360   106636614.8070   83093584.0640
  79631362.2480
  21452862.840    21452871.860    21452871.680   112735851.2850   87846250.7880
  84185915.2170
  24627712.840    24627717.560                   129419016.8720  100846386.4661

  23986607.160    23986632.660                   126050141.8720   98220822.8560

 23  3  6 16  2  2.0000000  0 10G02G08G10G16G18G23G26G27G28G31
  25301459.700    25301466.920                   132960288.6310  103605575.3450

  24145707.680    24145725.180    24145726.240   126886626.4360   98872794.0320
  94753056.0960
  23726950.820    23726987.060                   124686345.1930   97158320.4230

  20843601.200    20843605.940                   109534005.5140   85351266.8950

  21382468.560    21382474.240    21382478.280   112366084.6950   87558194.5990
  83909688.8240
  22684179.340    22684190.020    22684194.340   119206794.6270   92888479.4740
  89017783.9860
  20292399.140    20292407.220    20292405.960   106637432.4860   83094221.2160
  79631972.8520
  21452536.200    21452545.220    21452545.040   112734134.8140   87844913.2810
  84184633.4350
  24628398.160                                   129422618.3920

  23987264.480    23987289.980                   126053595.8010   98223514.1630

 23  3  6 16  2  3.0000000  0 10G02G08G10G16G18G23G26G27G28G31
  25302073.580    25302080.800                   132963514.5720  103608089.0610

  24145210.680    24145228.200    24145229.240   126884014.6940   98870758.9250
  94751105.8040
  23726379.980    23726416.180                   124683345.5130   97155983.0520

  20843299.600    20843304.340                   109532420.6080   85350031.9040

  21382857.960    21382863.660    21382867.680   112368130.9950   87559789.1160
  83911216.8880
  22683811.360    22683822.040    22683826.360   119204860.9260   92886972.7020
  89016339.9940
  20292554.860    20292562.940    20292561.680   106638250.8500   83094858.8980
  79632583.9620
  21452209.640    21452218.680    21452218.480   112732418.7640   87843576.1010
  84183351.9680
  24629083.500                                   129426219.9940

  23987921.840    23987947.340                   126057049.9150   98226205.6120

 23  3  6 16  2  4.0000000  0 10G02G08G10G16G18G23G26G27G28G31
  25302687.460    25302694.660                   132966740.5060  103610602.7760

  24144713.700    24144731.220    24144732.240   126881403.0730   98868723.9040
  94749155.5710
  23725809.160    23725845.340                   124680345.9710   97153645.7870

  20842998.080    20843002.820                   109530836.1040   85348797.2280

  21383247.420    21383253.120    21383257.160   112370177.7230   87561383.9700
  83912745.2970
  22683443.480    22683454.160    22683458.480   119202927.6850   92885466.2890
  89014896.3520
  20292710.680    20292718.780    20292717.520   106639069.7180   83095496.9750
  79633195.4570
  21451883.140    21451892.160    21451891.960   112730702.9530   87842239.1090
  84182070.6870
  24629768.860                                   129429821.5610

  23988579.200    23988604.700                   126060504.0920   98228897.1090

 23  3  6 16  2  5.0000000  0 10G02G08G10G16G18G23G26G27G28G31
  25303301.320    25303308.560                   132969966.3700  103613116.4380

  24144216.720    24144234.240    24144235.260   126878791.4750   98866688.8940
  94747205.3760
  23725238.340    23725274.480                   124677346.4570   97151308.5460

  20842696.620    20842701.380                   109529251.9400   85347562.8160

  21383636.980    21383642.680    21383646.720   112372224.8380   87562979.1200
  83914273.9850
  22683075.660    22683086.340    22683090.660   119200994.8330   92883960.1770
  89013452.9990
  20292866.600    20292874.680    20292873.420   106639889.0410   83096135.4070
  79633807.2850
  21451556.660    21451565.680    21451565.480   112728987.3150   87840902.2500
  84180789.5330
  24630454.160                                   129433423.0680

  23989236.560    23989262.060                   126063958.2480   98231588.5960

 23  3  6 16  2  6.0000000  0 10G02G08G10G16G18G23G26G27G28G31
  25303915.180    25303922.420                   132973192.1690  103615630.0410

  24143719.760    24143737.240    24143738.300   126876179.8960   98864653.9080
  94745255.1940
  23724667.540    23724703.640                   124674347.0240   97148971.3670

  20842395.220    20842399.980                   109527668.1090   85346328.6620

  21384026.620    21384032.300    21384036.340   112374272.3160   87564574.5550
  83915802.9380
  22682707.920    22682718.580    22682722.920   119199062.3520   92882454.3570
  89012009.9260
  20293022.600    20293030.680    20293029.420   106640708.8030   83096774.1820
  79634419.4450
  21451230.220    21451239.240    21451239.040   112727271.8560   87839565.5330
  84179508.5140
  24631139.460                                   129437024.4200

  23989893.920    23989919.420                   126067412.3800   98234280.0640

 23  3  6 16  2  7.0000000  0 10G02G08G10G16G18G23G26G27G28G31
  25304529.040    25304536.260                   132976417.8430  103618143.5540

  24143222.800    24143240.280    24143241.320   126873568.3530   98862618.9440
  94743305.0080
  23724096.720    23724132.820                   124671347.5840   97146634.1820

  20842093.880    20842098.640                   109526084.5590   85345094.7290

  21384416.300    21384421.980    21384426.020   112376320.1140   87566170.2420
  83917332.1410
  22682340.240    22682350.900    22682355.240   119197130.1930   92880948.7900
  89010567.1040
  20293178.660    20293186.760    20293185.500   106641528.9570   83097413.2610
  79635031.8990
  21450903.800    21450912.820    21450912.620   112725556.5100   87838228.9040
  84178227.5800
  24631824.700                                   129440625.5490

  23990551.240    23990576.760                   126070866.4180   98236971.4540

 23  3  6 16  2  8.0000000  0 10G02G08G10G16G18G23G26G27G28G31
  25305142.880    25305150.080                   132979643.6000  103620657.1200

  24142725.860    24142743.380    24142744.380   126870956.9500   98860584.0900
  94741354.9460
  23723525.980    23723562.020                   124668348.3720   97144297.1750

  20841792.640    20841797.400                   109524501.5110   85343861.1870

  21384806.080    21384811.780    21384815.800   112378368.4480   87567766.3420
  83918861.7330
  22681972.660    22681983.340    22681987.660   119195198.6080   92879443.6680
  89009124.6800
  20293334.860    20293342.940    20293341.680   106642349.7200   83098052.8170
  79635644.8030
  21450577.440    21450586.460    21450586.260   112723841.5080   87836892.5430
  84176946.8930
  24632510.000                                   129444226.7380

  23991208.620    23991234.140                   126074320.6370   98239662.9900

 23  3  6 16  2  9.0000000  0 10G02G08G10G16G18G23G26G27G28G31
  25305756.760    25305763.960                   132982869.4580  103623170.7740

  24142228.960    24142246.480    24142247.480   126868345.7910   98858549.4210
  94739405.0590
  23722955.240    23722991.240                   124665349.3710   97141960.3310

  20841491.500    20841496.260                   109522919.0020   85342628.0630

  21385195.960    21385201.660    21385205.700   112380417.3440   87569362.8850
  83920391.7570
  22681605.200    22681615.880    22681620.180   119193267.5850   92877938.9850
  89007682.6900
  20293491.160    20293499.260    20293497.980   106643171.1260   83098692.8740
  79636258.1870
  21450251.160    21450260.180    21450259.960   112722126.8820   87835556.4750
  84175666.5000
  24633195.300                                   129447827.9560

  23991866.040    23991891.540                   126077774.9950   98242354.6280

 23  3  6 16  2 10.0000000  0 10G02G08G10G16G18G23G26G27G28G31
  25306370.620    25306377.820                   132986095.2800  103625684.3930

  24141732.060    24141749.580    24141750.580   126865734.6510   98856514.7870
  94737455.2030
  23722384.540    23722420.520                   124662350.4540   97139623.5540

  20841190.420    20841195.180                   109521336.8530   85341395.2220

  21385585.940    21385591.620    21385595.680   112382466.6450   87570959.7400
  83921922.0760
  22681237.820    22681248.500    22681252.800   119191336.9660   92876434.6170
  89006241.0060
  20293647.560    20293655.640    20293654.380   106643992.9960   83099333.2870
  79636871.9180
  21449924.920    21449933.940    21449933.720   112720412.4500   87834220.5540
  84174386.2360
  24633880.580                                   129451429.0980

  23992523.420    23992548.940                   126081229.3660   98245046.2800

 23  3  6 16  2 11.0000000  0 10G02G08G10G16G18G23G26G27G28G31
  25306984.460    25306991.660                   132989321.1210  103628198.0460

  24141235.180    24141252.740    24141253.700   126863123.6310   98854480.2490
  94735505.4240
  23721813.860    23721849.800                   124659351.6650   97137286.8760

  20840889.420    20840894.180                   109519755.1130   85340162.7030

  21385976.000    21385981.680    21385985.720   112384516.3850   87572556.9420
  83923452.7290
  22680870.520    22680881.200    22680885.500   119189406.8100   92874930.6100
  89004799.6730
  20293804.060    20293812.140    20293810.880   106644815.3900   83099974.1140
  79637486.0420
  21449598.720    21449607.740    21449607.520   112718698.2660   87832884.8280
  84173106.1730
  24634565.880                                   129455030.2000

  23993180.840    23993206.340                   126084683.7930   98247737.9760

 23  3  6 16  2 12.0000000  0 10G02G08G10G16G18G23G26G27G28G31
  25307598.300    25307605.500                   132992546.7930  103630711.5540

  24140738.300    24140755.840    24140756.820   126860512.5230   98852445.6220
  94733555.5850
  23721243.180    23721279.080                   124656352.8210   97134950.1600

  20840588.480    20840593.220                   109518173.6240   85338930.3740

  21386366.100    21386371.780    21386375.840   112386566.4160   87574154.3670
  83924983.5930
  22680503.260    22680513.960    22680518.240   119187476.9530   92873426.8360
  89003358.5510
  20293960.620    20293968.720    20293967.440   106645638.1420   83100615.2180
  79638100.4270
  21449272.520    21449281.560    21449281.320   112716984.1700   87831549.1710
  84171826.1590
  24635251.080                                   129458631.0450

  23993838.220    23993863.740                   126088138.1300   98250429.6010

 23  3  6 16  2 13.0000000  0 10G02G08G10G16G18G23G26G27G28G31
  25308212.140    25308219.360                   132995772.6670  103633225.2140

  24140241.480    24140259.020    24140259.980   126857901.7450   98850411.2580
  94731605.9760
  23720672.560    23720708.420                   124653354.3190   97132613.7080

  20840287.640    20840292.400                   109516592.7330   85337698.5170

  21386756.340    21386762.020    21386766.060   112388617.0750   87575752.2820
  83926514.9280
  22680136.160    22680146.840    22680151.120   119185547.7480   92871923.5650
  89001917.9220
  20294117.320    20294125.420    20294124.140   106646461.5900   83101256.8660
  79638715.3460
  21448946.420    21448955.440    21448955.220   112715270.5080   87830213.8520
  84170546.4840
  24635936.280                                   129462232.0610

  23994495.660    23994521.180                   126091592.6880   98253121.3970

 23  3  6 16  2 14.0000000  0 10G02G08G10G16G18G23G26G27G28G31
  25308825.980    25308833.200                   132998998.4160  103635738.7890

  24139744.660    24139762.240    24139763.140   126855290.9720   98848376.8980
  94729656.3930
  23720101.940    23720137.760                   124650355.8010   97130277.2430

  20839986.860    20839991.620                   109515012.1680   85336466.9120

  21387146.640    21387152.320    21387156.360   112390668.1030   87577350.4850
  83928046.5390
  22679769.100    22679779.800    22679784.060   119183618.9140   92870420.5850
  89000477.5670
  20294274.100    20294282.200    20294280.920   106647285.4720   83101898.8490
  79639330.5800
  21448620.360    21448629.380    21448629.140   112713557.0020   87828878.6540
  84169266.9280
  24636621.480                                   129465832.9210

  23995153.080    23995178.620                   126095047.1980   98255813.1580

 23  3  6 16  2 15.0000000  0 10G02G08G10G16G18G23G26G27G28G31
  25309439.860    25309447.040                   133002224.2660  103638252.4390

  24139247.880    24139265.460    24139266.360   126852680.3760   98846342.6800
  94727706.9430
  23719531.360    23719567.140                   124647357.4910   97127940.9380

  20839686.180    20839690.940                   109513432.0730   85335235.6720

  21387537.020    21387542.700    21387546.760   112392719.6240   87578949.0730
  83929578.5230
  22679402.140    22679412.840    22679417.120   119181690.5730   92868917.9950
  88999037.5920
  20294431.000    20294439.080    20294437.820   106648109.9370   83102541.2900
  79639946.2520
  21448294.340    21448303.360    21448303.120   112711843.7970   87827543.6940
  84167987.5960
  24637306.700                                   129469433.7640

  23995810.520    23995836.060                   126098501.8320   98258505.0170

 23  3  6 16  2 16.0000000  0 10G02G08G10G16G18G23G26G27G28G31
  25310053.680    25310060.900                   133005450.0300  103640766.0210

  24138751.120    24138768.680    24138769.560   126850069.8110   98844308.4890
  94725757.5090
  23718960.780    23718996.540                   124644359.2280   97125604.6740

  20839385.560    20839390.320                   109511852.3050   85334004.6850

  21387927.500    21387933.180    21387937.220   112394771.5210   87580547.9530
  83931110.7740
  22679035.260    22679045.960    22679050.220   119179762.6270   92867415.7070
  88997597.9030
  20294587.980    20294596.060    20294594.780   106648934.8390   83103184.0680
  79640562.2400
  21447968.360    21447977.380    21447977.140   112710130.7790   87826208.8790
  84166708.3940
  24637991.860                                   129473034.4960

  23996467.960    23996493.520                   126101956.4560   98261196.8660

 23  3  6 16  2 17.0000000  0 10G02G08G10G16G18G23G26G27G28G31
  25310667.500    25310674.720                   133008675.7130  103643279.5440

  24138254.340    24138271.940    24138272.780   126847459.3060   98842274.3400
  94723808.1040
  23718390.200    23718425.920                   124641361.0170   97123268.4470

  20839085.000    20839089.760                   109510272.8910   85332773.9770

  21388318.040    21388323.720    21388327.760   112396823.7960   87582147.1270
  83932643.3170
  22678668.460    22678679.140    22678683.420   119177835.0720   92865913.7220
  88996158.5030
  20294745.040    20294753.120    20294751.840   106649760.1950   83103827.2000
  79641178.5810
  21447642.420    21447651.440    21447651.200   112708417.9370   87824874.1980
  84165429.3260
  24638677.020                                   129476635.0650

  23997125.400    23997150.960                   126105411.0420   98263888.6840

 23  3  6 16  2 18.0000000  0 10G02G08G10G16G18G23G26G27G28G31
  25311281.340    25311288.580                   133011901.5670  103645793.1920

  24137757.620    24137775.220    24137776.040   126844849.0300   98840240.3770
  94721858.9060
  23717819.700    23717855.380                   124638363.0770   97120932.4290

  20838784.560    20838789.300                   109508694.0260   85331543.6950

  21388708.680    21388714.360    21388718.400   112398876.6470   87583746.7470
  83934176.2940
  22678301.760    22678312.440    22678316.720   119175908.1140   92864412.2040
  88994719.5550
  20294902.220    20294910.300    20294909.020   106650586.1970   83104470.8380
  79641795.4010
  21447316.540    21447325.560    21447325.320   112706705.4760   87823539.8170
  84164150.5500
  24639362.220                                   129480235.7490

  23997782.860    23997808.440                   126108865.8210   98266580.6500

 23  3  6 16  2 19.0000000  0 10G02G08G10G16G18G23G26G27G28G31
  25311895.200    25311902.440                   133015127.3520  103648306.7950

  24137260.900    24137278.500    24137279.320   126842238.8250   98838206.4560
  94719909.7090
  23717249.200    23717284.840                   124635365.1790   97118596.4460

  20838484.160    20838488.920                   109507115.5050   85330313.6780

  21389099.400    21389105.080    21389109.120   112400929.8890   87585346.6760
  83935709.5530
  22677935.140    22677945.820    22677950.100   119173981.5490   92862910.9960
  88993280.8960
  20295059.480    20295067.580    20295066.300   106651412.6620   83105114.8350
  79642412.5660
  21446990.700    21446999.720    21446999.480   112704993.1990   87822205.5800
  84162871.9000
  24640047.400                                   129483836.2870

  23998440.340    23998465.920                   126112320.5990   98269272.6180

 23  3  6 16  2 20.0000000  0 10G02G08G10G16G18G23G26G27G28G31
  25312509.040    25312516.280                   133018353.1180  103650820.3730

  24136764.200    24136781.820    24136782.600   126839628.6910   98836172.5930
  94717960.6080
  23716678.700    23716714.320                   124632367.3990   97116260.5540

  20838183.860    20838188.620                   109505537.3860   85329083.9780

  21389490.200    21389495.880    21389499.920   112402983.5570   87586946.9340
  83937243.1380
  22677568.600    22677579.300    22677583.560   119172055.4260   92861410.1270
  88991842.5680
  20295216.860    20295224.960    20295223.660   106652239.6360   83105759.2260
  79643030.1080
  21446664.920    21446673.920    21446673.680   112703281.1630   87820871.5280
  84161593.4390
  24640732.540    24640733.520                   129487436.8160  100899685.4061

  23999097.820    23999123.420                   126115775.4020   98271964.6020

 23  3  6 16  2 21.0000000  0 10G02G08G10G16G18G23G26G27G28G31
  25313122.900    25313130.140                   133021578.9900  103653334.0310

  24136267.540    24136285.140    24136285.940   126837018.7590   98834138.8760
  94716011.6450
  23716108.260    23716143.820                   124629369.8690   97113924.8580

  20837883.640    20837888.400                   109503959.7880   85327854.6800

  21389881.100    21389886.780    21389890.820   112405037.7890   87588547.6350
  83938777.1470
  22677202.180    22677212.860    22677217.140   119170129.8890   92859909.7190
  88990404.6720
  20295374.340    20295382.440    20295381.160   106653067.2380   83106404.1090
  79643648.1170
  21446339.200    21446348.200    21446347.960   112701569.4930   87819537.7650
  84160315.2400
  24641417.700                                   129491037.3140

  23999755.340    23999780.920                   126119230.3750   98274656.7190

 23  3  6 16  2 22.0000000  0 10G02G08G10G16G18G23G26G27G28G31
  25313736.760    25313744.020                   133024804.8490  103655847.6840

  24135770.900    24135788.520    24135789.280   126834408.9480   98832105.2750
  94714062.7530
  23715537.840    23715573.360                   124626372.4420   97111589.2430

  20837583.520    20837588.260                   109502382.5810   85326625.6920

  21390272.100    21390277.780    21390281.800   112407092.4370   87590148.6570
  83940311.4580
  22676835.840    22676846.520    22676850.800   119168204.7750   92858409.6400
  88988967.0990
  20295531.920    20295540.020    20295538.740   106653895.3320   83107049.3750
  79644266.4990
  21446013.520    21446022.520    21446022.280   112699858.0380   87818204.1680
  84159037.2180
  24642102.840                                   129494637.7860

  24000412.860    24000438.420                   126122685.3580   98277348.8440

 23  3  6 16  2 23.0000000  0 10G02G08G10G16G18G23G26G27G28G31
  25314350.580    25314357.860                   133028030.5500  103658361.2190

  24135274.240    24135291.900    24135292.620   126831799.0610   98830071.6110
  94712113.8380
  23714967.400    23715002.900                   124623374.9430   97109253.5710

  20837283.420    20837288.180                   109500805.6320   85325396.9020

  21390663.140    21390668.820    21390672.840   112409147.3740   87591749.9050
  83941845.9830
  22676469.540    22676480.240    22676484.520   119166279.9580   92856909.7950
  88987529.7480
  20295689.580    20295697.680    20295696.380   106654723.7830   83107694.9210
  79644885.1470
  21445687.840    21445696.860    21445696.620   112698146.6860   87816870.6510
  84157759.2600
  24642787.880                                   129498237.9870

  24001070.340    24001095.920                   126126140.2500   98280040.8980

 23  3  6 16  2 24.0000000  0 10G02G08G10G16G18G23G26G27G28G31
  25314964.380    25314971.680                   133031256.1330  103660874.6620

  24134777.580    24134795.300    24134795.980   126829189.1740   98828037.9500
  94710164.9010
  23714396.980    23714432.440                   124620377.4690   97106917.9170

  20836983.400    20836988.140                   109499228.9580   85324168.3270

  21391054.260    21391059.920    21391063.940   112411202.6320   87593351.4020
  83943380.7490
  22676103.320    22676114.000    22676118.300   119164355.4800   92855410.2140
  88986092.6550
  20295847.300    20295855.400    20295854.100   106655552.6310   83108340.7770
  79645504.0920
  21445362.200    21445371.220    21445370.960   112696435.4390   87815537.2160
  84156481.3800
  24643472.940                                   129501838.0600

  24001727.840    24001753.420                   126129595.0780   98282732.9040

 23  3  6 16  2 25.0000000  0 10G02G08G10G16G18G23G26G27G28G31
  25315578.240    25315585.540                   133034481.9840  103663388.3140

  24134280.980    24134298.720    24134299.380   126826579.6440   98826004.5540
  94708216.2300
  23713826.620    23713862.060                   124617380.3980   97104582.5760

  20836683.500    20836688.240                   109497652.9830   85322940.2970

  21391445.480    21391451.140    21391455.180   112413258.5960   87594953.4500
  83944916.0490
  22675737.240    22675747.920    22675752.220   119162431.7250   92853911.1920
  88984656.0940
  20296005.180    20296013.280    20296011.980   106656382.2720   83108987.2490
  79646123.6280
  21445036.660    21445045.680    21445045.420   112694724.7100   87814204.1800
  84155203.8970
  24644158.080                                   129505438.3680

  24002385.360    24002410.960                   126133050.2090   98285425.1480

 23  3  6 16  2 26.0000000  0 10G02G08G10G16G18G23G26G27G28G31
  25316192.080    25316199.380                   133037707.7580  103665901.9050

  24133784.400    24133802.160    24133802.800   126823970.1540   98823971.1970
  94706267.6020
  23713256.280    23713291.680                   124614383.3620   97102247.2610

  20836383.660    20836388.420                   109496077.3420   85321712.5270

  21391836.800    21391842.460    21391846.500   112415314.9260   87596555.7850
  83946451.6240
  22675371.220    22675381.900    22675386.200   119160508.3530   92852412.4670
  88983219.8120
  20296163.140    20296171.240    20296169.940   106657212.3530   83109634.0640
  79646743.4890
  21444711.160    21444720.160    21444719.920   112693014.1640   87812871.2910
  84153926.5440
  24644843.120                                   129509038.4930

  24003042.900    24003068.500                   126136505.3030   98288117.3620

 23  3  6 16  2 27.0000000  0 10G02G08G10G16G18G23G26G27G28G31
  25316805.900    25316813.240                   133040933.5010  103668415.4830

  24133287.840    24133305.580    24133306.240   126821360.7060   98821937.8730
  94704319.0120
  23712685.940    23712721.320                   124611386.4390   97099912.0390

  20836083.900    20836088.660                   109494502.0900   85320485.0580

  21392228.200    21392233.840    21392237.880   112417371.6970   87598158.4640
  83947987.5150
  22675005.320    22675015.980    22675020.280   119158585.4410   92850914.1020
  88981783.8750
  20296321.200    20296329.300    20296327.980   106658042.9240   83110281.2610
  79647363.7210
  21444385.700    21444394.700    21444394.440   112691303.8500   87811538.5830
  84152649.3650
  24645528.180                                   129512638.5320

  24003700.440    24003726.040                   126139960.4390   98290809.6040

 23  3  6 16  2 28.0000000  0 10G02G08G10G16G18G23G26G27G28G31
  25317419.740    25317427.120                   133044159.2760  103670929.0610

  24132791.280    24132809.020    24132809.700   126818751.3630   98819904.6290
  94702370.5000
  23712115.640    23712150.980                   124608389.6290   97097576.9030

  20835784.220    20835788.960                   109492927.2380   85319257.9040

  21392619.660    21392625.320    21392629.360   112419428.8880   87599761.4680
  83949523.7390
  22674639.480    22674650.140    22674654.440   119156662.9600   92849416.0750
  88980348.2780
  20296479.340    20296487.440    20296486.140   106658874.0130   83110928.8610
  79647984.3350
  21444060.260    21444069.260    21444069.020   112689593.7480   87810206.0400
  84151372.3490
  24646213.200                                   129516238.5040

  24004358.000    24004383.600                   126143415.6170   98293501.8850

 23  3  6 16  2 29.0000000  0 10G02G08G10G16G18G23G26G27G28G31
  25318033.580    25318040.940                   133047385.0270  103673442.6230

  24132294.740    24132312.480    24132313.160   126816142.1170   98817871.4730
  94700422.0330
  23711545.340    23711580.660                   124605392.9290   97095241.8510

  20835484.600    20835489.360                   109491352.8190   85318031.0860

  21393011.220    21393016.900    21393020.900   112421486.5420   87601364.8340
  83951060.2890
  22674273.720    22674284.380    22674288.680   119154740.9440   92847918.4100
  88978913.0140
  20296637.600    20296645.700    20296644.380   106659705.6330   83111576.8740
  79648605.3440
  21443734.900    21443743.900    21443743.640   112687883.9280   87808873.7170
  84150095.5350
  24646898.260                                   129519838.4400

  24005015.560    24005041.180                   126146870.8730   98296194.2250

 23  3  6 16  2 30.0000000  0 10G02G08G10G16G18G23G26G27G28G31
  25318647.340    25318654.720                   133050610.4650  103675955.9400

  24131798.160    24131815.880    24131816.580   126813532.6550   98815838.1200
  94698473.4190
  23710975.040    23711010.320                   124602396.0720   97092906.6750

  20835185.020    20835189.780                   109489778.4940   85316804.3420

  21393402.800    21393408.480    21393412.500   112423544.3240   87602968.2990
  83952596.9500
  22673908.000    22673918.660    22673922.980   119152819.0900   92846420.8710
  88977477.8830
  20296795.900    20296804.000    20296802.680   106660537.4500   83112225.0410
  79649226.5100
  21443409.520    21443418.500    21443418.260   112686174.0390   87807541.3380
  84148818.6800
  24647583.240                                   129523438.0290

  24005673.060    24005698.680                   126150325.8410   98298886.3400

 23  3  6 16  2 31.0000000  0 10G02G08G10G16G18G23G26G27G28G31
  25319261.120    25319268.480                   133053835.9380  103678469.2950

  24131301.620    24131319.320    24131320.040   126810923.3020   98813804.8630
  94696524.9030
  23710404.720    23710439.980                   124599399.3510   97090571.6100

  20834885.520    20834890.280                   109488204.5870   85315577.9210

  21393794.480    21393800.140    21393804.160   112425602.5560   87604572.1160
  83954133.9380
  22673542.380    22673553.000    22673557.340   119150897.6970   92844923.6910
  88976043.0720
  20296954.280    20296962.380    20296961.080   106661369.7950   83112873.6220
  79649848.0690
  21443084.180    21443093.160    21443092.920   112684464.4030   87806209.1580
  84147542.0110
  24648268.200                                   129527037.5340

  24006330.600    24006356.220                   126153780.8880   98301578.5170

 23  3  6 16  2 32.0000000  0 10G02G08G10G16G18G23G26G27G28G31
  25319874.960    25319882.300                   133057061.5630  103680982.7750

  24130805.100    24130822.800    24130823.540   126808314.2030   98811771.8010
  94694576.5660
  23709834.500    23709869.720                   124596402.9220   97088236.7720

  20834586.120    20834590.880                   109486631.2580   85314351.9550

  21394186.260    21394191.920    21394195.940   112427661.3980   87606176.4040
  83955671.3750
  22673176.860    22673187.480    22673191.820   119148976.9290   92843426.9950
  88974608.7330
  20297112.800    20297120.900    20297119.580   106662202.8150   83113522.7260
  79650470.1250
  21442758.920    21442767.900    21442767.660   112682755.1890   87804877.3080
  84146265.6470
  24648953.220                                   129530637.1810

  24006988.180    24007013.780                   126157236.1290   98304270.8400

 23  3  6 16  2 33.0000000  0 10G02G08G10G16G18G23G26G27G28G31
  25320488.720    25320496.080                   133060286.9770  103683496.0790

  24130308.600    24130326.280    24130327.040   126805705.0510   98809738.7110
  94692628.1770
  23709264.220    23709299.440                   124593406.3690   97085901.8340

  20834286.780    20834291.520                   109485058.1350   85313126.1460

  21394578.080    21394583.760    21394587.780   112429720.4650   87607780.8740
  83957209.0000
  22672811.380    22672822.020    22672826.340   119147056.3920   92841930.4830
  88973174.5930
  20297271.380    20297279.480    20297278.160   106663036.1560   83114172.0830
  79651092.4170
  21442433.680    21442442.640    21442442.420   112681046.0020   87803545.4780
  84144989.3140
  24649638.100                                   129534236.5200

  24007645.700    24007671.320                   126160691.2200   98306963.0520

 23  3  6 16  2 34.0000000  0 10G02G08G10G16G18G23G26G27G28G31
  25321102.520    25321109.900                   133063512.4890  103686009.4710

  24129812.100    24129829.820    24129830.560   126803096.0680   98807705.7450
  94690679.9180
  23708694.000    23708729.180                   124590410.0530   97083567.0840

  20833987.500    20833992.260                   109483485.4870   85311900.7100

  21394970.020    21394975.680    21394979.700   112431780.0530   87609385.7440
  83958747.0010
  22672446.020    22672456.640    22672460.980   119145136.4050   92840434.3930
  88971740.8380
  20297430.060    20297438.180    20297436.860   106663870.0750   83114821.8860
  79651715.1530
  21442108.480    21442117.460    21442117.220   112679337.1360   87802213.8990
  84143713.2160
  24650323.020                                   129537835.8700

  24008303.260    24008328.880                   126164146.4240   98309655.3510

 23  3  6 16  2 35.0000000  0 10G02G08G10G16G18G23G26G27G28G31
  25321716.320    25321723.700                   133066738.0560  103688522.9040

  24129315.680    24129333.340    24129334.120   126800487.2850   98805672.9450
  94688731.8110
  23708123.840    23708158.980                   124587413.9680   97081232.5110

  20833688.340    20833693.100                   109481913.3660   85310675.6810

  21395362.060    21395367.720    21395371.740   112433840.1970   87610991.0510
  83960285.4190
  22672080.780    22672091.380    22672095.720   119143216.9690   92838938.7410
  88970307.5170
  20297588.860    20297596.980    20297595.660   106664704.6270   83115472.1860
  79652338.3540
  21441783.360    21441792.340    21441792.100   112677628.6180   87800882.5910
  84142437.3830
  24651007.960                                   129541435.3040

  24008960.860    24008986.480                   126167601.7860   98312347.7730

 23  3  6 16  2 36.0000000  0 10G02G08G10G16G18G23G26G27G28G31
  25322330.140    25322337.520                   133069963.6130  103691036.3200

  24128819.260    24128836.900    24128837.700   126797878.5670   98803640.1800
  94686783.7480
  23707553.680    23707588.800                   124584417.9440   97078897.9850

  20833389.240    20833394.000                   109480341.6060   85309450.9350

  21395754.160    21395759.820    21395763.840   112435900.7180   87612596.6520
  83961824.1270
  22671715.600    22671726.180    22671730.540   119141297.9720   92837443.4270
  88968874.4880
  20297747.760    20297755.880    20297754.560   106665539.6370   83116122.8410
  79652961.9000
  21441458.260    21441467.240    21441467.020   112675920.2980   87799551.4330
  84141161.6910
  24651692.860                                   129545034.6090

  24009618.440    24009644.060                   126171057.1450   98315040.1940

 23  3  6 16  2 37.0000000  0 10G02G08G10G16G18G23G26G27G28G31
  25322943.980    25322951.380                   133073189.4420  103693549.9600

  24128322.920    24128340.540    24128341.340   126795270.2270   98801607.7200
  94684835.9950
  23706983.600    23707018.720                   124581422.3480   97076563.7950

  20833090.260    20833095.020                   109478770.5370   85308226.7250

  21396146.420    21396152.080    21396156.080   112437961.9710   87614202.8230
  83963363.3710
  22671350.560    22671361.120    22671365.500   119139379.6710   92835948.6570
  88967442.0180
  20297906.820    20297914.940    20297913.620   106666375.4480   83116774.1220
  79653586.0460
  21441133.300    21441142.260    21441142.040   112674212.5140   87798220.6960
  84139886.4020
  24652377.860                                   129548634.1640

  24010276.100    24010301.720                   126174512.8380   98317732.8740

 23  3  6 16  2 38.0000000  0 10G02G08G10G16G18G23G26G27G28G31
  25323557.800    25323565.240                   133076415.1070  103696063.4590

  24127826.540    24127844.180    24127844.980   126792661.8430   98799575.2170
  94682888.1580
  23706413.520    23706448.600                   124578426.6910   97074229.5610

  20832791.340    20832796.100                   109477199.7130   85307002.7060

  21396538.720    21396544.360    21396548.380   112440023.4960   87615809.2060
  83964902.8170
  22670985.580    22670996.140    22671000.520   119137461.6830   92834454.1270
  88966009.7520
  20298065.920    20298074.060    20298072.740   106667211.6050   83117425.6710
  79654210.4450
  21440808.320    21440817.280    21440817.060   112672504.8010   87796890.0190
  84138611.1600
  24653062.680                                   129552233.4240

  24010933.720    24010959.340                   126177968.3940   98320425.4470

 23  3  6 16  2 39.0000000  0 10G02G08G10G16G18G23G26G27G28G31
  25324171.620    25324179.080                   133079640.8000  103698576.9840

  24127330.200    24127347.800    24127348.640   126790053.5640   98797542.8020
  94680940.4270
  23705843.480    23705878.500                   124575431.1840   97071895.4340

  20832492.520    20832497.260                   109475629.3290   85305779.0350

  21396931.100    21396936.760    21396940.760   112442085.4950   87617415.9610
  83966442.6180
  22670620.700    22670631.240    22670635.620   119135544.1890   92832959.9820
  88964577.8710
  20298225.160    20298233.280    20298231.960   106668048.3090   83118077.6490
  79654835.2550
  21440483.400    21440492.360    21440492.140   112670797.3560   87795559.5440
  84137336.1250
  24653747.620                                   129555832.6740

  24011591.360    24011616.980                   126181424.0450   98323118.0910

 23  3  6 16  2 40.0000000  0 10G02G08G10G16G18G23G26G27G28G31
  25324785.500    25324792.980                   133082866.7220  103701090.6930

  24126833.920    24126851.500    24126852.360   126787445.6210   98795510.6430
  94678992.9460
  23705273.480    23705308.480                   124572436.0220   97069561.5800

  20832193.800    20832198.560                   109474059.6080   85304555.8760

  21397323.620    21397329.280    21397333.280   112444148.1890   87619023.2520
  83967982.9390
  22670255.960    22670266.480    22670270.860   119133627.3860   92831466.3770
  88963146.5040
  20298384.520    20298392.640    20298391.320   106668885.7830   83118730.2240
  79655460.6390
  21440158.580    21440167.540    21440167.320   112669090.4020   87794229.4560
  84136061.4640
  24654432.520                                   129559432.0610

  24012249.040    24012274.680                   126184879.9850   98325810.9650

 23  3  6 16  2 41.0000000  0 10G02G08G10G16G18G23G26G27G28G31
  25325399.300    25325406.800                   133086092.3100  103703604.1420

  24126337.580    24126355.220    24126356.040   126784837.4340   98793478.2910
  94677045.2730
  23704703.460    23704738.420                   124569440.6670   97067227.5810

  20831895.100    20831899.860                   109472489.9420   85303332.7570

  21397716.160    21397721.800    21397725.800   112446210.9580   87620630.6010
  83969523.3110
  22669891.220    22669901.740    22669906.140   119131710.6960   92829972.8630
  88961715.2210
  20298543.920    20298552.040    20298550.720   106669723.4150   83119382.9220
  79656086.1420
  21439833.740    21439842.680    21439842.480   112667383.3540   87792899.2890
  84134786.7200
  24655117.380                                   129563031.1110

  24012906.660    24012932.320                   126188335.6200   98328503.6010

 23  3  6 16  2 42.0000000  0 10G02G08G10G16G18G23G26G27G28G31
  25326013.120    25326020.640                   133089317.9920  103706117.6510

  24125841.300    24125858.920    24125859.760   126782229.4520   98791446.1020
  94675097.7860
  23704133.460    23704168.400                   124566445.5440   97064893.7610

  20831596.500    20831601.260                   109470920.8070   85302110.0570

  21398108.800    21398114.440    21398118.440   112448274.2870   87622238.3900
  83971064.1190
  22669526.600    22669537.080    22669541.500   119129794.5830   92828479.7950
  88960284.3600
  20298703.440    20298711.560    20298710.240   106670561.6720   83120036.1090
  79656712.1150
  21439508.960    21439517.900    21439517.700   112665676.6660   87791569.4080
  84133512.2470
  24655802.280                                   129566630.2400

  24013564.340    24013590.020                   126191791.4180   98331196.3610

 23  3  6 16  2 43.0000000  0 10G02G08G10G16G18G23G26G27G28G31
  25326626.940    25326634.480                   133092543.7140  103708631.1990

  24125345.040    24125362.620    24125363.500   126779621.6330   98789414.0530
  94673150.4040
  23703563.520    23703598.420                   124563450.5940   97062560.0710

  20831298.000    20831302.740                   109469352.1340   85300887.7140

  21398501.520    21398507.180    21398511.180   112450338.1160   87623846.5660
  83972605.2870
  22669162.080    22669172.540    22669176.980   119127878.9760   92826987.1190
  88958853.8870
  20298863.060    20298871.180    20298869.860   106671400.4960   83120689.7380
  79657338.5120
  21439184.240    21439193.180    21439193.000   112663970.2740   87790239.7540
  84132237.9970
  24656487.200                                   129570229.2960

  24014222.040    24014247.700                   126195247.3210   98333889.2020

 23  3  6 16  2 44.0000000  0 10G02G08G10G16G18G23G26G27G28G31
  25327240.780    25327248.320                   133095769.4130  103711144.7300

  24124848.780    24124866.340    24124867.240   126777013.8140   98787382.0030
  94671203.0280
  23702993.580    23703028.440                   124560455.6970   97060226.4240

  20830999.540    20831004.300                   109467783.8060   85299665.6420

  21398894.320    21398899.980    21398903.980   112452402.3120   87625455.0330
  83974146.7310
  22668797.620    22668808.100    22668812.520   119125963.7600   92825494.7490
  88957423.6970
  20299022.780    20299030.900    20299029.560   106672239.7810   83121343.7240
  79657965.2460
  21438859.560    21438868.500    21438868.300   112662264.0610   87788910.2400
  84130963.8790
  24657172.000                                   129573828.2300

  24014879.720    24014905.380                   126198703.1930   98336582.0200

 23  3  6 16  2 45.0000000  0 10G02G08G10G16G18G23G26G27G28G31
  25327854.580    25327862.140                   133098995.0480  103713658.2140

  24124352.540    24124370.080    24124371.020   126774406.0840   98785350.0200
  94669255.7070
  23702423.660    23702458.480                   124557460.8840   97057892.8440

  20830701.180    20830705.940                   109466215.8580   85298443.8690

  21399287.200    21399292.860    21399296.860   112454466.9160   87627063.8150
  83975688.4780
  22668433.260    22668443.720    22668448.160   119124048.9720   92824002.7130
  88955993.8410
  20299182.580    20299190.700    20299189.380   106673079.5430   83121998.0850
  79658592.3380
  21438534.900    21438543.840    21438543.660   112660558.0560   87787580.8890
  84129689.9220
  24657856.820                                   129577427.0970

  24015537.400    24015563.060                   126202159.0750   98339274.8410

 23  3  6 16  2 46.0000000  0 10G02G08G10G16G18G23G26G27G28G31
  25328468.360    25328475.940                   133102220.5360  103716171.5860

  24123856.240    24123873.820    24123874.760   126771798.2990   98783317.9980
  94667308.3550
  23701853.720    23701888.520                   124554466.0570   97055559.2520

  20830402.860    20830407.620                   109464648.1630   85297222.2920

  21399680.140    21399685.800    21399689.780   112456531.8060   87628672.8160
  83977230.4420
  22668068.940    22668079.400    22668083.840   119122134.4840   92822510.9140
  88954564.1910
  20299342.460    20299350.580    20299349.240   106673919.6660   83122652.7230
  79659219.7020
  21438210.280    21438219.220    21438219.040   112658852.1510   87786251.6140
  84128416.0260
  24658541.600                                   129581025.7110

  24016195.060    24016220.740                   126205614.8630   98341967.5950

 23  3  6 16  2 47.0000000  0 10G02G08G10G16G18G23G26G27G28G31
  25329082.040    25329089.560                   133105445.4050  103718684.4580

  24123359.900    24123377.480    24123378.420   126769190.0040   98781285.5740
  94665360.6000
  23701283.700    23701318.460                   124551470.7290   97053225.2670

  20830104.480    20830109.240                   109463080.2550   85296000.5440

  21400073.060    21400078.700    21400082.680   112458596.5120   87630281.6780
  83978772.2640
  22667704.600    22667715.040    22667719.500   119120219.8380   92821018.9870
  88953134.4310
  20299502.300    20299510.420    20299509.100   106674759.6780   83123307.2780
  79659846.9800
  21437885.580    21437894.520    21437894.340   112657145.8540   87784922.0340
  84127141.8550
  24659226.300                                   129584623.7050

  24016852.620    24016878.300                   126209070.0700   98344659.8940

 23  3  6 16  2 48.0000000  0 10G02G08G10G16G18G23G26G27G28G31
  25329695.600    25329703.120                   133108669.6080  103721196.8260

  24122863.460    24122881.000    24122881.960   126766581.1390   98779252.7030
  94663412.4350
  23700713.560    23700748.320                   124548474.8440   97050890.8520

  20829806.080    20829810.840                   109461512.1050   85294778.6150

  21400465.920    21400471.560    21400475.540   112460661.0000   87631890.3700
  83980313.9190
  22667340.220    22667350.640    22667355.100   119118304.9840   92819526.8990
  88951704.5150
  20299662.120    20299670.240    20299668.920   106675599.5510   83123961.7250
  79660474.1520
  21437560.800    21437569.740    21437569.580   112655439.1550   87783592.1430
  84125867.3720
  24659910.820                                   129588220.8500

  24017510.060    24017535.740                   126212524.6590   98347351.7130

 23  3  6 16  2 49.0000000  0 10G02G08G10G16G18G23G26G27G28G31
  25330309.060    25330316.580                   133111893.4280  103723708.8910

  24122366.960    24122384.500    24122385.460   126763972.0160   98777219.6270
  94661464.0840
  23700143.400    23700178.100                   124545478.7200   97048556.2510

  20829507.660    20829512.440                   109459943.9890   85293556.7100

  21400858.780    21400864.440    21400868.400   112462725.5430   87633499.1050
  83981855.6350
  22666975.840    22666986.260    22666990.740   119116390.2050   92818034.8710
  88950274.6590
  20299821.980    20299830.100    20299828.760   106676439.5680   83124616.2820
  79661101.4370
  21437236.000    21437244.920    21437244.780   112653732.3120   87782262.1380
  84124592.7950
  24660595.240                                   129591817.6510

  24018167.440    24018193.120                   126215978.9150   98350043.2770

 23  3  6 16  2 50.0000000  0 10G02G08G10G16G18G23G26G27G28G31
  25330922.300    25330929.820                   133115115.9260  103726219.9270

  24121870.240    24121887.740    24121888.740   126761361.6930   98775185.6190
  94659514.8350
  23699573.000    23699607.680                   124542481.4290   97046220.7380

  20829209.080    20829213.860                   109458374.9670   85292334.0980

  21401251.500    21401257.140    21401261.120   112464789.2450   87635107.1800
  83983396.6980
  22666611.320    22666621.740    22666626.200   119114474.5970   92816542.1980
  88948844.1830
  20299981.660    20299989.800    20299988.480   106677278.7900   83125270.2180
  79661728.1300
  21436910.980    21436919.920    21436919.780   112652024.4220   87780931.3190
  84123317.4230
  24661279.440                                   129595413.0650

  24018824.580    24018850.260                   126219431.9330   98352733.8710

 23  3  6 16  2 51.0000000  0 10G02G08G10G16G18G23G26G27G28G31
  25331535.500    25331543.040                   133118338.3500  103728730.9150

  24121373.500    24121391.020    24121392.000   126758751.4380   98773151.6580
  94657565.6160
  23699002.600    23699037.260                   124539484.1610   97043885.2440

  20828910.580    20828915.340                   109456806.2970   85291111.7570

  21401644.280    21401649.920    21401653.880   112466853.2870   87636715.5180
  83984938.0330
  22666246.860    22666257.280    22666261.740   119112559.3650   92815049.8200
  88947413.9830
  20300141.460    20300149.580    20300148.260   106678118.4420   83125924.4930
  79662355.1450
  21436586.020    21436594.940    21436594.800   112650316.6960   87779600.6270
  84122042.1790
  24661963.560                                   129599008.3500

  24019481.720    24019507.400                   126222884.9060   98355424.4320

 23  3  6 16  2 52.0000000  0 10G02G08G10G16G18G23G26G27G28G31
  25332149.360    25332156.900                   133121564.1850  103731244.5550

  24120877.420    24120894.920    24120895.960   126756144.6070   98771120.3610
  94655619.0000
  23698432.880    23698467.480                   124536490.4230   97041552.4980

  20828612.780    20828617.560                   109455241.4390   85289892.3920

  21402037.780    21402043.440    21402047.380   112468921.1900   87638326.8720
  83986482.2430
  22665883.140    22665893.540    22665898.000   119110648.0010   92813560.4530
  88945986.6680
  20300301.980    20300310.120    20300308.780   106678962.0330   83126581.8340
  79662985.0980
  21436261.740    21436270.660    21436270.540   112648612.6300   87778272.7860
  84120769.6640
  24662648.320                                   129602606.9540

  24020139.500    24020165.200                   126226341.3140   98358117.6690

 23  3  6 16  2 53.0000000  0 10G02G08G10G16G18G23G26G27G28G31
  25332763.420    25332770.980                   133124791.1770  103733759.0890

  24120381.600    24120399.100    24120400.140   126753539.0950   98769090.1200
  94653673.3350
  23697863.400    23697898.000                   124533497.9900   97039220.7770

  20828315.300    20828320.080                   109453678.1550   85288674.2510

  21402431.600    21402437.240    21402441.200   112470990.6860   87639939.4640
  83988027.6520
  22665519.720    22665530.140    22665534.580   119108738.2550   92812072.3500
  88944560.5790
  20300462.840    20300470.960    20300469.640   106679807.3020   83127240.4820
  79663616.3000
  21435937.720    21435946.660    21435946.540   112646909.9700   87776946.0410
  84119498.1990
  24663333.340                                   129606206.6610

  24020797.520    24020823.220                   126229798.9590   98360811.8700

 23  3  6 16  2 54.0000000  0 10G02G08G10G16G18G23G26G27G28G31
  25333377.480    25333385.040                   133128018.0360  103736273.5190

  24119885.780    24119903.280    24119904.320   126750933.5250   98767059.8260
  94651727.6270
  23697293.940    23697328.480                   124530505.5290   97036889.0260

  20828017.880    20828022.660                   109452115.1450   85287456.3230

  21402825.460    21402831.120    21402835.060   112473060.4850   87641552.2900
  83989573.2760
  22665156.380    22665166.780    22665171.220   119106828.8380   92810584.4990
  88943134.7210
  20300623.760    20300631.880    20300630.560   106680652.9400   83127899.4200
  79664247.7800
  21435613.720    21435622.680    21435622.560   112645207.4040   87775619.3730
  84118226.8140
  24664018.280                                   129609806.2130

  24021455.540    24021481.220                   126233256.4940   98363505.9860

 23  3  6 16  2 55.0000000  0 10G02G08G10G16G18G23G26G27G28G31
  25333991.480    25333999.060                   133131244.6280  103738787.7360

  24119389.920    24119407.460    24119408.460   126748327.8260   98765029.4220
  94649781.8280
  23696724.440    23696758.960                   124527512.9540   97034557.1880

  20827720.480    20827725.240                   109450552.3000   85286238.5260

  21403219.360    21403225.040    21403228.960   112475130.4880   87643165.2790
  83991119.0540
  22664793.060    22664803.480    22664807.900   119104919.6210   92809096.8050
  88941709.0130
  20300784.720    20300792.860    20300791.540   106681498.8540   83128558.5740
  79664879.4670
  21435289.740    21435298.680    21435298.560   112643504.8540   87774292.7120
  84116955.4290
  24664703.160                                   129613405.4000

  24022113.480    24022139.180                   126236713.8130   98366199.9330

 23  3  6 16  2 56.0000000  0 10G02G08G10G16G18G23G26G27G28G31
  25334605.420    25334613.000                   133134470.9070  103741301.7200

  24118894.020    24118911.600    24118912.560   126745721.9110   98762998.8480
  94647835.8300
  23696154.920    23696189.380    23696180.920   124524520.1960   97032225.2060
  92988880.1891
  20827423.100    20827427.860                   109448989.5550   85285020.8040

  21403613.300    21403618.960    21403622.880   112477200.5930   87644778.3500
  83992664.9120
  22664429.780    22664440.180    22664444.600   119103010.5580   92807609.2300
  88940283.4200
  20300945.740    20300953.860    20300952.540   106682344.9510   83129217.8690
  79665511.2910
  21434965.740    21434974.680    21434974.580   112641802.2250   87772965.9950
  84115683.9860
  24665388.000                                   129617004.2140

  24022771.400    24022797.100                   126240170.8650   98368893.6700

 23  3  6 16  2 57.0000000  0 10G02G08G10G16G18G23G26G27G28G31
  25335219.360    25335226.940                   133137697.1760  103743815.7020

  24118398.140    24118415.720    24118416.700   126743116.0840   98760968.3510
  94645889.9630
  23695585.420    23695619.840    23695610.420   124521527.5630   97029893.3230
  92986645.4820
  20827125.800    20827130.560                   109447427.2220   85283803.4020

  21404007.320    21404012.980    21404016.900   112479271.1540   87646391.7700
  83994211.1040
  22664066.580    22664076.980    22664081.400   119101101.9450   92806122.0070
  88938858.1710
  20301106.840    20301114.980    20301113.660   106683191.5770   83129877.5770
  79666143.5120
  21434641.760    21434650.720    21434650.620   112640099.8380   87771639.4610
  84114412.7320
  24666072.780                                   129620603.0120

  24023429.320    24023455.020                   126243627.9840   98371587.4620

 23  3  6 16  2 58.0000000  0 10G02G08G10G16G18G23G26G27G28G31
  25335833.280    25335840.840                   133140923.4390  103746329.6690

  24117902.280    24117919.860    24117920.820   126740510.3350   98758937.9080
  94643944.1190
  23695015.920    23695050.300    23695041.360   124518535.0150   97027561.5020
  92984410.8400
  20826828.560    20826833.340                   109445865.2760   85282586.3030

  21404401.420    21404407.060    21404410.980   112481342.1260   87648005.5150
  83995757.6130
  22663703.460    22663713.860    22663718.260   119099193.7630   92804635.1160
  88937433.2470
  20301268.040    20301276.180    20301274.860   106684038.6990   83130537.6680
  79666776.0990
  21434317.840    21434326.800    21434326.720   112638397.6820   87770313.1080
  84113141.6400
  24666757.540                                   129624201.6680

  24024087.240    24024112.940                   126247085.0960   98374281.2460

 23  3  6 16  2 59.0000000  0 10G02G08G10G16G18G23G26G27G28G31
  25336447.260    25336454.840                   133144149.8890  103748843.7780

  24117406.500    24117424.080    24117425.020   126737904.9250   98756907.7320
  94641998.5390
  23694446.500    23694480.860    23694471.940   124515542.8190   97025229.9620
  92982176.4630
  20826531.460    20826536.220                   109444303.9530   85281369.6890

  21404795.640    21404801.280    21404805.200   112483413.7530   87649619.7700
  83997304.6020
  22663340.460    22663350.860    22663355.260   119097286.2640   92803148.7610
  88936008.8240
  20301429.380    20301437.520    20301436.200   106684886.5540   83131198.3320
  79667409.2340
  21433994.020    21434002.980    21434002.900   112636695.9800   87768987.1090
  84111870.8970
  24667442.320                                   129627800.5140

  24024745.220    24024770.940                   126250542.4860   98376975.2510

 23  3  6 16  3  0.0000000  0 10G02G08G10G16G18G23G26G27G28G31
  25337061.280    25337068.880                   133147376.6620  103751358.1480

  24116910.760    24116928.320    24116929.320   126735299.9460   98754877.8830
  94640053.2820
  23693877.140    23693911.480    23693902.640   124512551.0640   97022898.7630
  92979942.4030
  20826234.480    20826239.260                   109442743.3540   85280153.6410

  21405190.000    21405195.640    21405199.560   112485486.1260   87651234.6020
  83998852.1530
  22662977.620    22662988.000    22662992.420   119095379.5400   92801663.0110
  88934584.9710
  20301590.880    20301599.020    20301597.700   106685735.2240   83131859.6320
  79668042.9790
  21433670.300    21433679.260    21433679.180   112634994.8360   87767661.5480
  84110600.5640
  24668127.140                                   129631399.5510

  24025403.260    24025428.960                   126254000.2370   98379669.5320

 23  3  6 16  3  1.0000000  0 10G02G08G10G16G18G23G26G27G28G31
  25337675.380    25337682.960                   133150603.6770  103753872.6990

  24116415.140    24116432.680    24116433.660   126732695.3460   98752848.3280
  94638108.2630
  23693307.880    23693342.160    23693333.480   124509559.7090   97020567.8720
  92977708.6220
  20825937.640    20825942.420                   109441183.4260   85278938.1140

  21405584.480    21405590.140    21405594.060   112487559.1980   87652849.9800
  84000400.2260
  22662614.920    22662625.300    22662629.700   119093473.5260   92800177.8110
  88933161.6630
  20301752.520    20301760.660    20301759.340   106686584.6720   83132521.5370
  79668677.3010
  21433346.680    21433355.620    21433355.560   112633294.1830   87766336.3680
  84109330.5980
  24668812.080                                   129634998.8270

  24026061.360    24026087.060                   126257458.2810   98382364.0420

 23  3  6 16  3  2.0000000  0 10G02G08G10G16G18G23G26G27G28G31
  25338289.520    25338297.080                   133153830.9540  103756387.4530

  24115919.560    24115937.080    24115938.080   126730091.0740   98750819.0250
  94636163.5320
  23692738.700    23692772.940    23692764.220   124506568.7110   97018237.2650
  92975475.1480
  20825640.920    20825645.700                   109439624.1780   85277723.1160

  21405979.120    21405984.760    21405988.680   112489632.9640   87654465.9020
  84001948.8190
  22662252.340    22662262.720    22662267.120   119091568.2260   92798693.1720
  88931738.8880
  20301914.320    20301922.460    20301921.140   106687434.9000   83133184.0500
  79669312.2130
  21433023.140    21433032.100    21433032.040   112631594.0530   87765011.5940
  84108061.0320
  24669497.000

  24026719.520    24026745.220                   126260916.6300   98385058.7920

 23  3  6 16  3  3.0000000  0 10G02G08G10G16G18G23G26G27G28G31
  25338903.640    25338911.180                   133157058.1190  103758902.1330

  24115423.980    24115441.520    24115442.500   126727486.7960   98748789.7240
  94634218.7910
  23692169.500    23692203.700    23692195.000   124503577.7150   97015906.6520
  92973241.6570
  20825344.260    20825349.040                   109438065.2190   85276508.3450

  21406373.800    21406379.440    21406383.360   112491707.0660   87656082.0850
  84003497.6560
  22661889.840    22661900.200    22661904.620   119089663.2750   92797208.8030
  88930316.3690
  20302076.180    20302084.320    20302083.020   106688285.5270   83133846.8720
  79669947.4200
  21432699.640    21432708.580    21432708.540   112629894.0470   87763686.9170
  84106791.5540
  24670181.880

  24027377.660    24027403.380                   126264374.9330   98387753.5020

 23  3  6 16  3  4.0000000  0 10G02G08G10G16G18G23G26G27G28G31
  25339518.140    25339525.660                   133160287.3150  103761418.3930

  24114928.780    24114946.340    24114947.320   126724884.6370   98746762.0900
  94632275.6490
  23691600.720    23691634.880    23691626.200   124500588.9140   97013577.7540
  92971009.7940
  20825048.060    20825052.840                   109436508.7170   85275295.4860

  21406768.960    21406774.620    21406778.520   112493783.6360   87657700.1890
  84005048.3430
  22661527.820    22661538.160    22661542.580   119087760.8290   92795726.3880
  88928895.7210
  20302238.540    20302246.680    20302245.380   106689138.7060   83134511.6870
  79670584.5340
  21432376.560    21432385.520    21432385.480   112628196.3280   87762364.0240
  84105523.7760
  24670867.200

  24028036.180    24028061.920                   126267835.2870   98390449.8120

 23  3  6 16  3  5.0000000  0 10G02G08G10G16G18G23G26G27G28G31
  25340132.820    25340140.320                   133163517.3880  103763935.3370

  24114433.780    24114451.400    24114452.320   126722283.4570   98744735.2110
  94630333.2260
  23691032.140    23691066.260    23691057.560   124497601.1080   97011249.6310
  92968778.6990
  20824752.120    20824756.900                   109434953.5080   85274083.6390

  21407164.380    21407170.020    21407173.940   112495861.5290   87659319.3290
  84006600.0130
  22661166.040    22661176.400    22661180.800   119085859.7280   92794245.0220
  88927476.0720
  20302401.160    20302409.300    20302408.000   106689993.2820   83135177.5890
  79671222.6900
  21432053.700    21432062.660    21432062.620   112626499.7350   87761042.0070
  84104256.8430
  24671552.640

  24028694.900    24028720.640                   126271296.5710   98393146.8450

 23  3  6 16  3  6.0000000  0 10G02G08G10G16G18G23G26G27G28G31
  25340747.480    25340755.000                   133166747.4320  103766452.2510

  24113938.800    24113956.420    24113957.340   126719682.3880   98742708.4060
  94628390.8690
  23690463.560    23690497.660    23690489.000   124494613.3970   97008921.5810
  92966547.6590
  20824456.240    20824461.020                   109433398.6820   85272872.0880

  21407559.860    21407565.500    21407569.420   112497939.8270   87660938.7800
  84008151.9910
  22660804.340    22660814.700    22660819.100   119083959.0450   92792763.9810
  88926056.7440
  20302563.880    20302572.020    20302570.720   106690848.3470   83135843.8750
  79671861.2070
  21431730.880    21431739.840    21431739.820   112624803.3540   87759720.1570
  84102990.0670
  24672238.020

  24029353.620    24029379.360                   126274757.8660   98395843.8900

 23  3  6 16  3  7.0000000  0 10G02G08G10G16G18G23G26G27G28G31
  25341361.860    25341369.400                   133169976.0240  103768968.0340

  24113443.580    24113461.200    24113462.120   126717079.9950   98740680.5820
  94626447.5290
  23689894.740    23689928.800    23689920.260   124491624.3990   97006592.5330
  92964315.6540
  20824160.180    20824164.940                   109431842.8470   85271659.7520

  21407955.160    21407960.820    21407964.720   112500017.1460   87662557.4680
  84009703.2270
  22660442.460    22660452.820    22660457.220   119082057.4100   92791282.2000
  88924636.7040
  20302726.420    20302734.560    20302733.260   106691702.5030   83136509.4470
  79672499.0500
  21431407.840    21431416.800    21431416.780   112623105.7970   87758397.3880
  84101722.4200
  24672923.100                                   129657086.3661

  24030012.080    24030037.820                   126278217.7890   98398539.8650

 23  3  6 16  3  8.0000000  0 10G02G08G10G16G18G23G26G27G28G31
  25341975.640    25341983.220                   133173201.6090  103771481.4730

  24112947.780    24112965.400    24112966.320   126714474.6530   98738650.4580
  94624501.9970
  23689325.380    23689359.400    23689350.920   124488632.5020   97004261.2260
  92962081.5020
  20823863.620    20823868.380                   109430284.4060   85270445.3860

  21408349.980    21408355.620    21408359.540   112502091.8830   87664174.1460
  84011252.5440
  22660080.100    22660090.460    22660094.840   119080153.2040   92789798.4090
  88923214.7470
  20302888.500    20302896.620    20302895.320   106692554.1580   83137173.0740
  79673135.0240
  21431084.280    21431093.220    21431093.220   112621405.4770   87757072.4680
  84100452.6990
  24673607.620

  24030669.960    24030695.700                   126281674.7350   98401233.5190

 23  3  6 16  3  9.0000000  0 10G02G08G10G16G18G23G26G27G28G31
  25342589.400    25342596.940                   133176426.7770  103773994.5890

  24112451.940    24112469.580    24112470.460   126711868.9810   98736620.0650
  94622556.2030
  23688755.940    23688789.960    23688781.520   124485640.3030   97001929.6850
  92959847.1150
  20823567.060    20823571.820                   109428725.9540   85269231.0080

  21408744.780    21408750.440    21408754.360   112504166.6350   87665790.8360
  84012801.8770
  22659717.760    22659728.100    22659732.480   119078249.0600   92788314.6660
  88921792.8140
  20303050.580    20303058.720    20303057.400   106693405.9020   83137836.7690
  79673771.0670
  21430760.680    21430769.620    21430769.640   112619704.9770   87755747.4070
  84099182.8490
  24674292.040

  24031327.800    24031353.520                   126285131.2980   98403926.8790

 23  3  6 16  3 10.0000000  0 10G02G08G10G16G18G23G26G27G28G31
  25343203.040    25343210.600                   133179651.5400  103776507.3910

  24111956.040    24111973.720    24111974.560   126709263.0430   98734589.4710
  94620610.2280
  23688186.480    23688220.460    23688212.020   124482647.8500   96999597.9440
  92957612.5280
  20823270.500    20823275.260                   109427167.5180   85268016.6460

  21409139.600    21409145.260    21409149.180   112506241.4330   87667407.5600
  84014351.2320
  22659355.420    22659365.760    22659370.140   119076344.9530   92786830.9550
  88920370.9360
  20303212.680    20303220.820    20303219.520   106694257.7670   83138500.5560
  79674407.1940
  21430437.040    21430445.980    21430446.020   112618004.3190   87754422.2190
  84097912.8830
  24674976.420

  24031985.540    24032011.280                   126288587.5160   98406619.9670

 23  3  6 16  3 11.0000000  0 10G02G08G10G16G18G23G26G27G28G31
  25343816.360    25343823.920                   133182874.6030  103779018.8670

  24111459.860    24111477.560    24111478.360   126706655.5210   98732557.6450
  94618663.0680
  23687616.700    23687650.640    23687642.260   124479653.8410   96997264.9930
  92955376.8050
  20822973.700    20822978.460                   109425607.8340   85266801.3100

  21409534.200    21409539.840    21409543.760   112508314.9990   87669023.3250
  84015899.6760
  22658992.840    22659003.200    22659007.560   119074439.6610   92785346.3160
  88918948.1630
  20303374.560    20303382.700    20303381.400   106695108.4840   83139163.4520
  79675042.4710
  21430113.140    21430122.080    21430122.120   112616302.2440   87753095.9310
  84096641.8610
  24675660.400

  24032642.980    24032668.720                   126292042.1110   98409311.7890

 23  3  6 16  3 12.0000000  0 10G02G08G10G16G18G23G26G27G28G31
  25344429.480    25344437.040                   133186096.5860  103781529.5070

  24110963.460    24110981.140    24110981.960   126704046.9890   98730525.0400
  94616715.1600
  23687046.740    23687080.660    23687072.320   124476658.8330   96994931.2620
  92953140.3140
  20822676.760    20822681.520                   109424047.4330   85265585.4170

  21409928.660    21409934.300    21409938.220   112510387.8740   87670638.5510
  84017447.6040
  22658630.140    22658640.500    22658644.840   119072533.6860   92783861.1510
  88917524.8790
  20303536.340    20303544.480    20303543.180   106695958.5910   83139825.8730
  79675677.2920
  21429789.060    21429798.000    21429798.060   112614599.2790   87751768.9490
  84095370.1800
  24676344.180

  24033300.240    24033325.960                   126295495.6130   98412002.7620

 23  3  6 16  3 13.0000000  0 10G02G08G10G16G18G23G26G27G28G31
  25345042.400    25345049.940                   133189317.4760  103784039.2840

  24110466.880    24110484.580    24110485.380   126701437.5120   98728491.6930
  94614766.5360
  23686476.600    23686510.480    23686502.200   124473662.8870   96992596.7990
  92950903.1410
  20822379.700    20822384.460                   109422486.3830   85264369.0160

  21410322.980    21410328.640    21410332.560   112512460.1370   87672253.2990
  84018995.0670
  22658267.320    22658277.680    22658282.020   119070627.1200   92782375.5190
  88916101.1550
  20303698.000    20303706.140    20303704.840   106696808.1540   83140487.8680
  79676311.7040
  21429464.840    21429473.780    21429473.840   112612895.5070   87750441.3410
  84094097.8890
  24677027.720                                   129678656.7891

  24033957.280    24033983.000                   126298948.1100   98414692.9480

 23  3  6 16  3 14.0000000  0 10G02G08G10G16G18G23G26G27G28G31
  25345655.400    25345662.940                   133192538.7630  103786549.3770

  24109970.400    24109988.100    24109988.880   126698828.5600   98726458.7730
  94612818.2740
  23685906.580    23685940.420    23685932.140   124470667.4880   96990262.7710
  92948666.3580
  20822082.800    20822087.560                   109420926.1470   85263153.2500

  21410717.480    21410723.140    21410727.060   112514533.2320   87673868.6960
  84020543.1540
  22657904.680    22657915.040    22657919.360   119068721.4150   92780890.5600
  88914678.0710
  20303859.840    20303867.980    20303866.680   106697658.6240   83141150.5740
  79676946.7930
  21429140.740    21429149.660    21429149.740   112611192.3760   87749114.2340
  84092826.0700
  24677711.360                                   129682249.5780

  24034614.400    24034640.140                   126302401.0290   98417383.4640

 23  3  6 16  3 15.0000000  0 10G02G08G10G16G18G23G26G27G28G31
  25346268.820    25346276.400                   133195762.3880  103789061.2990

  24109474.380    24109492.060    24109492.860   126696221.9920   98724427.6860
  94610871.8280
  23685337.000    23685370.820    23685362.580   124467674.5590   96987930.6620
  92946431.4300
  20821786.420    20821791.180                   109419368.6750   85261939.6380

  21411112.520    21411118.160    21411122.080   112516609.1030   87675486.2570
  84022093.3130
  22657542.560    22657552.920    22657557.240   119066818.5120   92779407.7890
  88913257.0920
  20304022.220    20304030.380    20304029.080   106698511.9680   83141815.5150
  79677584.0320
  21428817.140    21428826.040    21428826.140   112609491.8420   87747789.1440
  84091556.1920
  24678395.480                                   129685844.6450

  24035271.980    24035297.720                   126305856.3510   98420075.8560

 23  3  6 16  3 16.0000000  0 10G02G08G10G16G18G23G26G27G28G31
  25346882.360    25346889.940                   133198986.5840  103791573.6510

  24108978.460    24108996.160    24108996.980   126693616.0960   98722397.1200
  94608925.8880
  23684767.580    23684801.340    23684793.140   124464682.3290   96985599.0950
  92944197.0110
  20821490.240    20821494.980                   109417812.1840   85260726.7870

  21411507.740    21411513.400    21411517.300   112518685.9900   87677104.6110
  84023644.2330
  22657180.660    22657191.020    22657195.300   119064916.6350   92777925.8200
  88911836.8590
  20304184.820    20304192.960    20304191.660   106699366.3820   83142481.2900
  79678222.0640
  21428493.680    21428502.600    21428502.700   112607792.1110   87746464.6830
  84090286.9250
  24679079.680                                   129689440.1120

  24035929.660    24035955.420                   126309312.2860   98422768.7240

 23  3  6 16  3 17.0000000  0 10G02G08G10G16G18G23G26G27G28G31
  25347495.920    25347503.520                   133202210.8970  103794086.1050

  24108482.640    24108500.320    24108501.100   126691010.4050   98720366.7260
  94606980.0880
  23684198.180    23684231.920    23684223.780   124461690.3160   96983267.6950
  92941962.7590
  20821194.140    20821198.900                   109416256.2120   85259514.3440

  21411903.060    21411908.700    21411912.620   112520763.4130   87678723.3800
  84025195.5580
  22656818.840    22656829.200    22656833.480   119063015.3400   92776444.3010
  88910417.0750
  20304347.520    20304355.680    20304354.380   106700221.4280   83143147.5580
  79678860.5710
  21428170.280    21428179.200    21428179.320   112606092.7400   87745140.5020
  84089017.9140
  24679763.900                                   129693035.6860

  24036587.420    24036613.140                   126312768.3780   98425461.7140

 23  3  6 16  3 18.0000000  0 10G02G08G10G16G18G23G26G27G28G31
  25348109.400    25348117.040                   133205434.8480  103796598.2770

  24107986.740    24108004.420    24108005.200   126688404.5010   98718336.1600
  94605034.1350
  23683628.760    23683662.460    23683654.360   124458698.1150   96980936.1530
  92939728.3820
  20820898.060    20820902.820                   109414700.3360   85258301.9750

  21412298.400    21412304.060    21412307.980   112522840.9470   87680342.2360
  84026746.9690
  22656457.060    22656467.420    22656471.680   119061114.1840   92774962.8890
  88908997.3820
  20304510.280    20304518.420    20304517.120   106701076.6640   83143813.9740
  79679499.2240
  21427846.880    21427855.800    21427855.920   112604393.2930   87743816.2620
  84087748.8490
  24680448.040                                   129696630.8000

  24037245.080    24037270.820                   126316224.1710   98428154.4700

 23  3  6 16  3 19.0000000  0 10G02G08G10G16G18G23G26G27G28G31
  25348722.860    25348730.520                   133208658.7420  103799110.4040

  24107490.860    24107508.520    24107509.320   126685798.6470   98716305.6330
  94603088.2180
  23683059.360    23683093.020    23683084.940   124455706.0050   96978604.6800
  92937494.0360
  20820602.060    20820606.820                   109413144.7950   85257089.8650

  21412693.800    21412699.480    21412703.380   112524918.8620   87681961.3900
  84028298.6560
  22656095.360    22656105.700    22656109.940   119059213.4190   92773481.7810
  88907577.9880
  20304673.120    20304681.260    20304679.960   106701932.3600   83144480.7500
  79680138.2130
  21427523.520    21427532.420    21427532.580   112602694.0250   87742492.1590
  84086479.9160
  24681132.140                                   129700225.9430

  24037902.740    24037928.480                   126319679.9400   98430847.2070

 23  3  6 16  3 20.0000000  0 10G02G08G10G16G18G23G26G27G28G31
  25349336.440    25349344.140                   133211883.2840  103801623.0340

  24106995.120    24107012.760    24107013.560   126683193.5110   98714275.6700
  94601142.8520
  23682490.080    23682523.700    23682515.700   124452714.6420   96976273.7840
  92935260.2790
  20820306.240    20820311.000                   109411590.3270   85255878.5890

  21413089.440    21413095.100    21413099.000   112526997.8590   87683581.3840
  84029851.1460
  22655733.880    22655744.220    22655748.440   119057313.7550   92772001.5280
  88906159.4150
  20304836.160    20304844.320    20304843.000   106702789.1940   83145148.4080
  79680778.0510
  21427200.320    21427209.220    21427209.380   112600995.6450   87741168.7520
  84085211.6510
  24681816.320                                   129703821.4860

  24038560.520    24038586.260                   126323136.4050   98433540.4870

 23  3  6 16  3 21.0000000  0 10G02G08G10G16G18G23G26G27G28G31
  25349950.180    25349957.880                   133215108.5170  103804136.2010

  24106499.540    24106517.200    24106517.960   126680589.2180   98712246.3610
  94599198.1050
  23681920.980    23681954.560    23681946.600   124449724.1380   96973943.5620
  92933027.1460
  20820010.660    20820015.420                   109410036.9670   85254668.1830

  21413485.260    21413490.940    21413494.840   112529077.9940   87685202.2660
  84031404.4980
  22655372.600    22655382.940    22655387.120   119055415.2530   92770522.1820
  88904741.7160
  20304999.460    20305007.600    20305006.300   106703647.2620   83145817.0310
  79681418.8240
  21426877.300    21426886.180    21426886.380   112599298.2050   87739846.0740
  84083944.0890
  24682500.640

  24039218.480    24039244.220                   126326593.6140   98436234.3490

 23  3  6 16  3 22.0000000  0 10G02G08G10G16G18G23G26G27G28G31
  25350563.880    25350571.600                   133218333.6560  103806649.2940

  24106003.980    24106021.620    24106022.360   126677984.9350   98710217.0580
  94597253.3430
  23681351.880    23681385.440    23681377.520   124446733.6370   96971613.3380
  92930794.0460
  20819715.120    20819719.880                   109408483.9390   85253458.0310

  21413881.180    21413886.840    21413890.760   112531158.4730   87686823.4160
  84032958.1020
  22655011.400    22655021.740    22655025.900   119053517.1500   92769043.1510
  88903324.2980
  20305162.820    20305170.980    20305169.660   106704505.7640   83146485.9960
  79682059.8970
  21426554.320    21426563.200    21426563.400   112597600.9340   87738523.5290
  84082676.6460
  24683184.860

  24039876.400    24039902.160                   126330050.7920   98438928.1860

 23  3  6 16  3 23.0000000  0 10G02G08G10G16G18G23G26G27G28G31
  25351177.880    25351185.600                   133221560.3080  103809163.5600

  24105508.700    24105526.320    24105527.060   126675382.2370   98708188.9980
  94595309.7830
  23680783.100    23680816.620    23680808.720   124443744.7930   96969284.4060
  92928562.1640
  20819419.960    20819424.720                   109406932.8310   85252249.3780

  21414277.460    21414283.120    21414287.040   112533240.9040   87688446.0900
  84034513.1570
  22654650.560    22654660.900    22654665.040   119051620.9940   92767565.6350
  88901908.3470
  20305326.580    20305334.720    20305333.420   106705366.2870   83147156.5310
  79682702.4950
  21426231.680    21426240.540    21426240.760   112595905.4280   87737202.3580
  84081410.5240
  24683869.400

  24040534.620    24040560.380                   126333509.5250   98441623.2290

 23  3  6 16  3 24.0000000  0 10G02G08G10G16G18G23G26G27G28G31
  25351792.160    25351799.920                   133224788.4480  103811678.9920

  24105013.740    24105031.380    24105032.080   126672781.1490   98706162.1850
  94593367.4220
  23680214.620    23680248.100    23680240.240   124440757.6080   96966956.7700
  92926331.5210
  20819125.160    20819129.920                   109405383.6570   85251042.2310

  21414674.100    21414679.760    21414683.680   112535325.2980   87690070.2930
  84036069.6830
  22654290.120    22654300.460    22654304.560   119049726.8290   92766089.6660
  88900493.8850
  20305490.720    20305498.860    20305497.560   106706228.8350   83147828.6440
  79683346.6120
  21425909.360    21425918.220    21425918.440   112594211.6750   87735882.5500
  84080145.7160
  24684554.280

  24041193.140    24041218.900                   126336969.7770   98444319.4570

 23  3  6 16  3 25.0000000  0 10G02G08G10G16G18G23G26G27G28G31
  25352406.620    25352414.380                   133228017.3780  103814195.0470

  24104518.940    24104536.580    24104537.260   126670180.9390   98704136.0580
  94591425.7050
  23679646.320    23679679.760    23679671.920   124437771.3080   96964629.8220
  92924101.5190
  20818830.580    20818835.340                   109403835.6650   85249836.0040

  21415070.980    21415076.640    21415080.560   112537410.8770   87691695.4180
  84037627.0980
  22653929.880    22653940.220    22653944.320   119047833.8740   92764614.6420
  88899080.3220
  20305655.100    20305663.240    20305661.940   106707092.6710   83148501.7610
  79683991.6770
  21425587.240    21425596.080    21425596.320   112592518.9280   87734563.5280
  84078881.6560
  24685239.260                                   129721808.0981

  24041851.820    24041877.580                   126340430.8560   98447016.3360

 23  3  6 16  3 26.0000000  0  9G02G08G10G16G18G23G26G27G31
  25353021.100    25353028.880                   133231246.5320  103816711.2750

  24104024.200    24104041.840    24104042.500   126667581.0820   98702110.2050
  94589484.2760
  23679078.080    23679111.500    23679103.640   124434785.3680   96962303.1520
  92921871.8180
  20818536.120    20818540.880                   109402288.3330   85248630.2950

  21415468.000    21415473.660    21415477.560   112539497.1580   87693321.0890
  84039185.0300
  22653569.800    22653580.140    22653584.220   119045941.6460   92763140.1830
  88897667.3050
  20305819.620    20305827.780    20305826.460   106707957.2660   83149175.4720
  79684637.3200
  21425265.220    21425274.060    21425274.300   112590826.6760   87733244.8960
  84077617.9700
  24042510.540    24042536.320                   126343892.2140   98449713.4270

 23  3  6 16  3 27.0000000  0  9G02G08G10G16G18G23G26G27G31
  25353635.200    25353643.020                   133234473.7800  103819226.0140

  24103529.100    24103546.740    24103547.400   126664979.3920   98700082.9160
  94587541.4820
  23678509.520    23678542.900    23678535.060   124431797.6540   96959975.1010
  92919640.7720
  20818241.400    20818246.160                   109400739.5090   85247423.4210

  21415864.720    21415870.380    21415874.300   112541581.9560   87694945.6010
  84040741.8550
  22653209.440    22653219.780    22653223.840   119044047.9600   92761664.5940
  88896253.1980
  20305983.880    20305992.040    20305990.720   106708820.4640   83149848.0890
  79685281.9110
  21424942.880    21424951.700    21424951.960   112589132.7600   87731924.9680
  84076353.0350
  24043168.920    24043194.680                   126347351.7190   98452409.0710

 23  3  6 16  3 28.0000000  0 10G02G08G10G16G18G23G26G27G28G31
  25354249.320    25354257.080                   133237700.8160  103821740.5770

  24103034.020    24103051.580    24103052.280   126662377.6370   98698055.5850
  94585598.6070
  23677940.940    23677974.260    23677966.440   124428809.8460   96957646.9770
  92917409.6620
  20817946.700    20817951.460                   109399190.8870   85246216.7020

  21416261.480    21416267.160    21416271.060   112543666.9760   87696570.2920
  84042298.8540
  22652849.120    22652859.480    22652863.500   119042154.5310   92760189.2030
  88894839.2900
  20306148.200    20306156.360    20306155.040   106709683.9820   83150520.9620
  79685926.7420
  21424620.520    21424629.360    21424629.640   112587438.8780   87730605.0640
  84075088.1290
  24687293.480

  24043827.260    24043853.020                   126350811.0300   98455104.5670

 23  3  6 16  3 29.0000000  0 10G02G08G10G16G18G23G26G27G28G31
  25354863.460    25354871.220                   133240928.0910  103824255.3390

  24102538.960    24102556.540    24102557.220   126659776.1980   98696028.5010
  94583655.9930
  23677372.400    23677405.720    23677397.920   124425822.4370   96955319.1670
  92915178.8500
  20817652.140    20817656.880                   109397642.9290   85245010.5040

  21416658.380    21416664.060    21416667.960   112545752.6970   87698195.5290
  84043856.3750
  22652488.940    22652499.300    22652503.320   119040261.8270   92758714.3790
  88893425.9110
  20306312.680    20306320.840    20306319.520   106710548.2670   83151194.4250
  79686572.1540
  21424298.280    21424307.120    21424307.400   112585745.5030   87729285.5530
  84073823.6060
  24687978.100

  24044485.640    24044511.440                   126354270.6910   98457800.3340

 23  3  6 16  3 30.0000000  0 10G02G08G10G16G18G23G26G27G28G31
  25355477.580    25355485.380                   133244155.4580  103826770.1680

  24102043.920    24102061.540    24102062.200   126657174.9370   98694001.5550
  94581713.5070
  23676803.940    23676837.200    23676829.420   124422835.2520   96952991.5310
  92912948.2020
  20817357.660    20817362.420                   109396095.4820   85243804.7020

  21417055.380    21417061.060    21417064.960   112547838.9330   87699821.1650
  84045414.2720
  22652128.840    22652139.220    22652143.240   119038369.6470   92757239.9650
  88892012.9270
  20306477.260    20306485.420    20306484.100   106711413.1400   83151868.3520
  79687217.9930
  21423976.100    21423984.940    21423985.240   112584052.4510   87727966.2980
  84072559.3120
  24688662.700

  24045144.060    24045169.860                   126357730.4330   98460496.1680

 23  3  6 16  3 31.0000000  0 10G02G08G10G16G18G23G26G27G28G31
  25356091.680    25356099.440                   133247382.5170  103829284.7620

  24101548.880    24101566.460    24101567.160   126654573.4810   98691974.4570
  94579770.8910
  23676235.440    23676268.660    23676260.900   124419847.9030   96950663.7600
  92910717.4390
  20817063.220    20817067.960                   109394548.1440   85242598.9830

  21417452.400    21417458.100    21417462.000   112549925.3130   87701446.9140
  84046972.2820
  22651768.800    22651779.180    22651783.180   119036477.6610   92755765.6980
  88890600.0900
  20306641.880    20306650.040    20306648.720   106712278.2560   83152542.4660
  79687864.0230
  21423653.920    21423662.740    21423663.060   112582359.3630   87726647.0110
  84071294.9970
  24689347.220                                   129743395.7211

  24045802.440    24045828.240                   126361189.9460   98463191.8190

 23  3  6 16  3 32.0000000  0 10G02G08G10G16G18G23G26G27G28G31
  25356705.740    25356713.500                   133250609.4300  103831799.2370

  24101053.820    24101071.420    24101072.080   126651972.0600   98689947.3800
  94577828.2580
  23675666.940    23675700.120    23675692.360   124416860.5280   96948335.9750
  92908486.6430
  20816768.820    20816773.560                   109393001.0800   85241393.4810

  21417849.480    21417855.180    21417859.080   112552011.9960   87703072.9000
  84048530.5150
  22651408.820    22651419.200    22651423.200   119034585.9900   92754291.6810
  88889187.4880
  20306806.580    20306814.740    20306813.420   106713143.7310   83153216.8610
  79688510.3160
  21423331.760    21423340.560    21423340.900   112580666.3670   87725327.7970
  84070030.7560
  24690031.700                                   129746992.9530

  24046460.780    24046486.600                   126364649.3520   98465887.3880

 23  3  6 16  3 33.0000000  0 10G02G08G10G16G18G23G26G27G28G31
  25357319.720    25357327.480                   133253835.9950  103834313.4480

  24100558.740    24100576.360    24100576.980   126649370.3630   98687920.0960
  94575885.4300
  23675098.400    23675131.540    23675123.800   124413872.9230   96946008.0110
  92906255.7030
  20816474.440    20816479.180                   109391454.0920   85240188.0380

  21418246.580    21418252.280    21418256.200   112554098.7620   87704698.9500
  84050088.8200
  22651048.860    22651059.240    22651063.240   119032694.4370   92752817.7520
  88887774.9810
  20306971.300    20306979.480    20306978.140   106714009.3880   83153891.4010
  79689156.7480
  21423009.560    21423018.380    21423018.720   112578973.2890   87724008.5220
  84068766.4440
  24690716.160                                   129750589.8430

  24047119.080    24047144.900                   126368108.4450   98468582.7150

 23  3  6 16  3 34.0000000  0 10G02G08G10G16G18G23G26G27G28G31
  25357933.700    25357941.460                   133257062.5820  103836827.6630

  24100063.660    24100081.260    24100081.900   126646768.7710   98685892.8850
  94573942.7240
  23674529.860    23674562.980    23674555.240   124410885.4770   96943680.1660
  92904024.8540
  20816180.140    20816184.880                   109389907.5330   85238982.9300

  21418643.780    21418649.480    21418653.380   112556185.9780   87706325.3500
  84051647.4540
  22650688.980    22650699.380    22650703.360   119030803.3630   92751344.1900
  88886362.8230
  20307136.120    20307144.300    20307142.960   106714875.5520   83154566.3310
  79689803.5620
  21422687.440    21422696.240    21422696.580   112577280.4470   87722689.4280
  84067502.3210
  24691400.580                                   129754186.6761

  24047777.380    24047803.200                   126371567.6060   98471278.0960

 23  3  6 16  3 35.0000000  0 10G02G08G10G16G18G23G26G27G28G31
  25358547.680    25358555.420                   133260288.9210  103839341.6960

  24099568.560    24099586.200    24099586.800   126644167.0900   98683865.6030
  94571999.9000
  23673961.320    23673994.420    23673986.680   124407897.9630   96941352.2740
  92901793.9690
  20815885.880    20815890.620                   109388361.1860   85237777.9850

  21419041.000    21419046.720    21419050.620   112558273.4410   87707951.9430
  84053206.2620
  22650329.160    22650339.560    22650343.540   119028912.5510   92749870.8340
  88884950.8570
  20307301.020    20307309.200    20307307.860   106715742.0470   83155241.5220
  79690450.6160
  21422365.300    21422374.100    21422374.460   112575587.6770   87721370.3890
  84066238.2340
  24692085.020                                   129757783.1120

  24048435.660    24048461.480                   126375026.5750   98473973.3290

 23  3  6 16  3 36.0000000  0 10G02G08G10G16G18G23G26G27G28G31
  25359161.520    25359169.280                   133263514.8270  103841855.3950

  24099073.400    24099091.000    24099091.620   126641565.0060   98681838.0180
  94570056.8070
  23673392.720    23673425.780    23673418.060   124404910.0890   96939024.0990
  92899562.8190
  20815591.600    20815596.340                   109386814.7760   85236572.9920

  21419438.220    21419443.940    21419447.840   112560360.8570   87709578.4940
  84054765.0440
  22649969.340    22649979.740    22649983.720   119027021.7180   92748397.4660
  88883538.8810
  20307465.920    20307474.100    20307472.740   106716608.5860   83155916.7460
  79691097.7020
  21422043.120    21422051.920    21422052.300   112573894.6520   87720051.1500
  84064973.9640
  24692769.260                                   129761379.1140

  24049093.860    24049119.680                   126378485.1450   98476668.2490

 23  3  6 16  3 37.0000000  0 10G02G08G10G16G18G23G26G27G28G31
  25359775.340    25359783.140                   133266740.5180  103844368.9120

  24098578.220    24098595.780    24098596.420   126638962.8440   98679810.3820
  94568113.6480
  23672824.120    23672857.140    23672849.420   124401922.1550   96936695.8800
  92897331.5970
  20815297.380    20815302.120                   109385268.5920   85235368.1760

  21419835.500    21419841.200    21419845.120   112562448.5120   87711205.2380
  84056324.0050
  22649609.560    22649619.980    22649623.940   119025131.1690   92746924.3170
  88882127.1140
  20307630.880    20307639.060    20307637.700   106717475.4440   83156592.2170
  79691745.0200
  21421720.960    21421729.760    21421730.140   112572201.6900   87718731.9630
  84063709.7370
  24693453.520                                   129764974.8410

  24049752.020    24049777.840                   126381943.5420   98479363.0360

 23  3  6 16  3 38.0000000  0 10G02G08G10G16G18G23G26G27G28G31
  25360389.160    25360396.960                   133269966.2110  103846882.4460

  24098083.040    24098100.660    24098101.240   126636360.7980   98677782.8310
  94566170.5540
  23672255.520    23672288.500    23672280.820   124398934.3230   96934367.7380
  92895100.4790
  20815003.220    20815007.960                   109383722.8320   85234163.6890

  21420232.840    21420238.560    21420242.460   112564536.6050   87712832.3220
  84057883.2960
  22649249.880    22649260.300    22649264.260   119023241.0670   92745451.5190
  88880715.6860
  20307795.940    20307804.120    20307802.760   106718342.8140   83157268.0880
  79692392.7340
  21421398.840    21421407.620    21421408.040   112570508.9660   87717412.9640
  84062445.7000
  24694137.760                                   129768570.5200

  24050410.200    24050436.020                   126385401.9910   98482057.8620

 23  3  6 16  3 39.0000000  0 10G02G08G10G16G18G23G26G27G28G31
  25361002.920    25361010.780                   133273191.6780  103849395.8010

  24097587.860    24097605.480    24097606.040   126633758.6220   98675755.1810
  94564227.4060
  23671686.900    23671719.880    23671712.200   124395946.4590   96932039.5740
  92892869.3450
  20814709.120    20814713.860                   109382177.2860   85232959.3680

  21420630.240    21420635.960    21420639.860   112566624.9410   87714459.5970
  84059442.7650
  22648890.240    22648900.660    22648904.620   119021351.2460   92743978.9390
  88879304.4670
  20307961.060    20307969.240    20307967.880   106719210.5150   83157944.2160
  79693040.6940
  21421076.740    21421085.520    21421085.940   112568816.3060   87716094.0080
  84061181.7080
  24694821.920                                   129772165.9050

  24051068.340    24051094.180                   126388860.2880   98484752.5690

 23  3  6 16  3 40.0000000  0 10G02G08G10G16G18G23G26G27G28G31
  25361616.660    25361624.540                   133276416.9900  103851909.0230

  24097092.660    24097110.300    24097110.840   126631156.4340   98673727.5160
  94562284.2170
  23671118.300    23671151.220    23671143.580   124392958.5650   96929711.3850
  92890638.1500
  20814415.060    20814419.800                   109380631.9960   85231755.2490

  21421027.680    21421033.400    21421037.320   112568713.5550   87716087.0860
  84061002.4380
  22648530.680    22648541.100    22648545.040   119019461.7220   92742506.5910
  88877893.4690
  20308126.240    20308134.420    20308133.060   106720078.5650   83158620.6210
  79693688.9100
  21420754.660    21420763.420    21420763.860   112567123.7250   87714775.1200
  84059917.7660
  24695506.040                                   129775761.0690

  24051726.440    24051752.300                   126392318.4590   98487447.1780

 23  3  6 16  3 41.0000000  0 10G02G08G10G16G18G23G26G27G28G31
  25362230.380    25362238.260                   133279642.1710  103854422.1510

  24096597.500    24096615.140    24096615.620   126628554.2220   98671699.8340
  94560341.0190
  23670549.680    23670582.600    23670574.980   124389970.6800   96927383.2040
  92888406.9710
  20814121.060    20814125.800                   109379087.0000   85230551.3580

  21421425.200    21421430.920    21421434.840   112570802.4760   87717714.8170
  84062562.3530
  22648171.160    22648181.580    22648185.540   119017572.5500   92741034.5190
  88876482.7370
  20308291.500    20308299.680    20308298.320   106720947.0020   83159297.3230
  79694337.4230
  21420432.580    21420441.360    21420441.800   112565431.2590   87713456.3170
  84058653.9250
  24696190.120                                   129779356.0680

  24052384.540    24052410.420                   126395776.5640   98490141.7360

 23  3  6 16  3 42.0000000  0 10G02G08G10G16G18G23G26G27G28G31
  25362844.040    25362851.980                   133282867.1420  103856935.1230

  24096102.280    24096119.900    24096120.400   126625951.8760   98669672.0340
  94558397.7220
  23669981.060    23670013.940    23670006.340   124386982.6910   96925054.9400
  92886175.7510
  20813827.080    20813831.820                   109377542.1980   85229347.6190

  21421822.740    21421828.460    21421832.380   112572891.6180   87719342.7150
  84064122.4230
  22647811.700    22647822.120    22647826.080   119015683.6090   92739562.6270
  88875072.1720
  20308456.820    20308465.000    20308463.640   106721815.7590   83159974.2750
  79694986.1670
  21420110.520    21420119.300    21420119.740   112563738.8280   87712137.5420
  84057390.1030
  24696874.140                                   129782950.6800

  24053042.620    24053068.500                   126399234.4980   98492836.1620

 23  3  6 16  3 43.0000000  0 10G02G08G10G16G18G23G26G27G28G31
  25363457.740    25363465.640                   133286092.1040  103859448.0870

  24095607.080    24095624.700    24095625.180   126623349.6480   98667644.3300
  94556454.5160
  23669412.460    23669445.300    23669437.740   124383994.8770   96922726.8140
  92883944.6210
  20813533.200    20813537.940                   109375997.8270   85228144.2170

  21422220.380    21422226.100    21422230.020   112574981.2070   87720970.9660
  84065682.8280
  22647452.320    22647462.740    22647466.700   119013795.1460   92738091.1080
  88873661.9660
  20308622.240    20308630.420    20308629.040   106722685.0260   83160651.6260
  79695635.2950
  21419788.520    21419797.280    21419797.740   112562046.6620   87710818.9750
  84056126.4620
  24697558.160                                   129786545.3450

  24053700.700    24053726.580                   126402692.4580   98495530.6070

 23  3  6 16  3 44.0000000  0 10G02G08G10G16G18G23G26G27G28G31
  25364071.440    25364079.340                   133289317.1850  103861961.1310

  24095111.920    24095129.540    24095130.020   126620747.6670   98665616.8170
  94554511.4800
  23668843.940    23668876.720    23668869.200   124381007.3290   96920398.8920
  92881713.7190
  20813239.420    20813244.160                   109374454.0160   85226941.2470

  21422618.120    21422623.860    21422627.780   112577071.3730   87722599.6640
  84067243.6670
  22647093.060    22647103.480    22647107.460   119011907.2960   92736620.0590
  88872252.2180
  20308787.780    20308795.960    20308794.580   106723554.9470   83161329.4860
  79696284.9130
  21419466.580    21419475.340    21419475.800   112560354.8740   87709500.7030
  84054863.1260
  24698242.160                                   129790140.0520

  24054358.820    24054384.700                   126406150.6000   98498225.1940

 23  3  6 16  3 45.0000000  0 10G02G08G10G16G18G23G26G27G28G31
  25364685.140    25364693.060                   133292542.2430  103864474.1610

  24094616.780    24094634.380    24094634.860   126618145.7040   98663589.3240
  94552568.4760
  23668275.420    23668308.180    23668300.680   124378019.8760   96918071.0470
  92879482.8690
  20812945.720    20812950.440                   109372910.5590   85225738.5560

  21423015.940    21423021.680    21423025.600   112579161.9180   87724228.6600
  84068804.7880
  22646733.880    22646744.280    22646748.280   119010019.8600   92735149.3390
  88870842.7770
  20308953.420    20308961.600    20308960.220   106724425.3410   83162007.7150
  79696934.8790
  21419144.660    21419153.440    21419153.900   112558663.2780   87708182.5780
  84053599.9250
  24698926.180                                   129793734.6850

  24055016.920    24055042.820                   126409608.7450   98500919.7820

 23  3  6 16  3 46.0000000  0 10G02G08G10G16G18G23G26G27G28G31
  25365298.820    25365306.700                   133295767.0740  103866987.0200

  24094121.640    24094139.220    24094139.700   126615543.6840   98661561.7860
  94550625.4260
  23667706.880    23667739.600    23667732.120   124375032.3330   96915743.1300
  92877251.9610
  20812652.040    20812656.780                   109371367.3160   85224536.0320

  21423413.800    21423419.540    21423423.460   112581252.6950   87725857.8340
  84070366.0800
  22646374.740    22646385.140    22646389.140   119008132.6690   92733678.8130
  88869433.5170
  20309119.100    20309127.300    20309125.900   106725296.0380   83162686.1780
  79697585.0720
  21418822.780    21418831.540    21418832.020   112556971.7270   87706864.4900
  84052336.7640
  24699610.160                                   129797328.9350

  24055674.980    24055700.900                   126413066.7130   98503614.2330

 23  3  6 16  3 47.0000000  0 10G02G08G10G16G18G23G26G27G28G31
  25365912.460    25365920.360                   133298991.8950  103869499.8660

  24093626.500    24093644.080    24093644.540   126612941.7640   98659534.3260
  94548682.4390
  23667138.360    23667171.040    23667163.600   124372044.8950   96913415.2950
  92875021.1290
  20812358.460    20812363.180                   109369824.4950   85223333.8390

  21423811.740    21423817.480    21423821.400   112583343.9040   87727487.3460
  84071927.6880
  22646015.700    22646026.100    22646030.120   119006245.9510   92732208.6510
  88868024.6200
  20309284.900    20309293.080    20309291.680   106726167.2460   83163365.0420
  79698235.6480
  21418500.920    21418509.680    21418510.180   112555280.4040   87705546.5810
  84051073.7690
  24700294.100                                   129800923.2190

  24056333.060    24056359.000                   126416524.7100   98506308.7070

 23  3  6 16  3 48.0000000  0 10G02G08G10G16G18G23G26G27G28G31
  25366526.140    25366534.020                   133302216.7470  103872012.7320

  24093131.380    24093148.940    24093149.420   126610339.9690   98657506.9720
  94546739.5740
  23666569.880    23666602.540    23666595.120   124369057.6600   96911087.6200
  92872790.4510
  20812064.940    20812069.680                   109368282.1240   85222131.9930

  21424209.780    21424215.520    21424219.440   112585435.5870   87729117.2310
  84073489.6650
  22645656.760    22645667.160    22645671.180   119004359.7480   92730738.8910
  88866616.0900
  20309450.800    20309458.980    20309457.580   106727039.0250   83164044.3500
  79698886.6520
  21418179.140    21418187.880    21418188.380   112553589.4000   87704228.9170
  84049810.9940
  24700978.020                                   129804517.4270

  24056991.160    24057017.100                   126419982.8050   98509003.2560

 23  3  6 16  3 49.0000000  0 10G02G08G10G16G18G23G26G27G28G31
  25367139.820    25367147.760                   133305441.8650  103874525.8100

  24092636.360    24092653.920    24092654.380   126607738.5590   98655479.8980
  94544796.9650
  23666001.480    23666034.080    23666026.700   124366070.8050   96908760.2440
  92870560.0430
  20811771.580    20811776.300                   109366740.4250   85220930.6710

  21424607.960    21424613.700    21424617.600   112587527.9610   87730747.6480
  84075052.1520
  22645297.960    22645308.320    22645312.380   119002474.2490   92729269.6750
  88865208.1010
  20309616.840    20309625.020    20309623.620   106727911.5740   83164724.2560
  79699538.2270
  21417857.420    21417866.180    21417866.700   112551898.8810   87702911.6320
  84048548.6010
  24701662.040                                   129808111.8080

  24057649.320    24057675.260                   126423441.1880   98511698.0350

 23  3  6 16  3 50.0000000  0 10G02G08G10G16G18G23G26G27G28G31
  25367753.560    25367761.480                   133308667.0800  103877038.9630

  24092141.340    24092158.900    24092159.360   126605137.3530   98653452.9970
  94542854.5100
  23665433.120    23665465.700    23665458.340   124363084.1950   96906433.0550
  92868329.8330
  20811478.300    20811483.020                   109365199.2680   85219729.7720

  21425006.220    21425011.960    21425015.880   112589620.8920   87732378.5070
  84076615.0550
  22644939.260    22644949.640    22644953.680   119000589.3440   92727800.9240
  88863800.5460
  20309783.000    20309791.180    20309789.780   106728784.7580   83165404.6580
  79700190.2760
  21417535.800    21417544.560    21417545.080   112550208.7300   87701594.6350
  84047286.4800
  24702346.040                                   129811706.2810

  24058307.500    24058333.460                   126426899.7350   98514392.9350

 23  3  6 16  3 51.0000000  0 10G02G08G10G16G18G23G26G27G28G31
  25368367.260    25368375.200                   133311892.2450  103879552.0820

  24091646.360    24091663.900    24091664.360   126602536.2230   98651426.1570
  94540912.1120
  23664864.760    23664897.300    23664889.980   124360097.6300   96904105.9020
  92866099.6530
  20811185.100    20811189.820                   109363658.4600   85218529.1440

  21425404.560    21425410.320    21425414.220   112591714.1960   87734009.6510
  84078178.2300
  22644580.640    22644591.000    22644595.060   118998704.8280   92726332.4760
  88862393.2990
  20309949.240    20309957.440    20309956.020   106729658.3900   83166085.4070
  79700842.6610
  21417214.200    21417222.940    21417223.480   112548518.7480   87700277.7700
  84046024.4860
  24703030.020                                   129815300.6360

  24058965.680    24058991.660                   126430358.2600   98517087.8200

 23  3  6 16  3 52.0000000  0 10G02G08G10G16G18G23G26G27G28G31
  25368980.940    25368988.840                   133315117.1320  103882064.9830

  24091151.340    24091168.880    24091169.320   126599934.9150   98649399.1700
  94538969.6040
  23664296.400    23664328.900    23664321.600   124357110.9750   96901778.6790
  92863869.4150
  20810891.920    20810896.640                   109362117.8070   85217328.6390

  21425802.940    21425808.700    21425812.600   112593807.6810   87735640.9360
  84079741.5510
  22644222.040    22644232.440    22644236.500   118996820.5460   92724864.2060
  88860986.1990
  20310115.540    20310123.740    20310122.320   106730532.2860   83166766.3640
  79701495.2540
  21416892.620    21416901.360    21416901.900   112546828.7730   87698960.9100
  84044762.4950
  24703713.940

  24059623.820    24059649.800                   126433816.5730   98519782.5390

 23  3  6 16  3 53.0000000  0 10G02G08G10G16G18G23G26G27G28G31
  25369594.360    25369602.280                   133318340.5780  103884576.7580

  24090656.100    24090673.640    24090674.040   126597332.3300   98647371.2000
  94537026.1170
  23663727.800    23663760.260    23663752.980   124354123.0410   96899450.4600
  92861638.1970
  20810598.560    20810603.280                   109360576.1640   85216127.3590

  21426201.140    21426206.880    21426210.780   112595900.1780   87737271.4500
  84081304.1160
  22643863.300    22643873.680    22643877.740   118994935.2940   92723395.1850
  88859578.3910
  20310281.660    20310289.860    20310288.440   106731405.2790   83167446.6160
  79702147.1560
  21416570.800    21416579.540    21416580.080   112545137.6180   87697643.1300
  84043499.6180
  24704397.540

  24060281.720    24060307.700                   126437273.5370   98522476.2090

 23  3  6 16  3 54.0000000  0 10G02G08G10G16G18G23G26G27G28G31
  25370207.940    25370215.880                   133321565.0520  103887089.3310

  24090161.020    24090178.540    24090178.980   126594730.7820   98645344.0340
  94535083.4320
  23663159.400    23663191.800    23663184.560   124351136.1830   96897123.0800
  92859407.7970
  20810305.460    20810310.160                   109359035.9130   85214927.1650

  21426599.600    21426605.340    21426609.240   112597994.1000   87738903.0770
  84082867.7730
  22643504.800    22643515.180    22643519.260   118993051.4900   92721927.2940
  88858171.6580
  20310448.080    20310456.280    20310454.860   106732279.7770   83168128.0410
  79702800.1890
  21416249.200    21416257.940    21416258.500   112543447.6910   87696326.3050
  84042237.6670
  24705081.340

  24060939.800    24060965.780                   126440731.4500   98525170.6170

 23  3  6 16  3 55.0000000  0 10G02G08G10G16G18G23G26G27G28G31
  25370821.620    25370829.600                   133324789.9540  103889602.2420

  24089666.080    24089683.600    24089684.020   126592129.8740   98643317.3620
  94533141.2050
  23662591.120    23662623.480    23662616.280   124348149.9600   96894796.1870
  92857177.8840
  20810012.520    20810017.240                   109357496.5730   85213727.6820

  21426998.240    21427003.980    21427007.880   112600088.9460   87740535.4220
  84084432.1000
  22643146.520    22643156.860    22643160.960   118991168.6610   92720460.1600
  88856765.6590
  20310614.680    20310622.880    20310621.460   106733155.2820   83168810.2500
  79703453.9730
  21415927.760    21415936.500    21415937.060   112541758.5020   87695010.0560
  84040976.2700
  24705765.180

  24061597.960    24061623.960                   126444189.9650   98527865.4940

 23  3  6 16  3 56.0000000  0 10G02G08G10G16G18G23G26G27G28G31
  25371435.320    25371443.340                   133328014.9910  103892115.2510

  24089171.160    24089188.680    24089189.100   126589529.1540   98641290.8400
  94531199.1250
  23662022.880    23662055.200    23662048.020   124345164.0010   96892469.5050
  92854948.1450
  20809719.700    20809724.420                   109355957.7830   85212528.6250

  21427396.980    21427402.740    21427406.620   112602184.3680   87742168.2170
  84085996.8570
  22642788.320    22642798.660    22642802.780   118989286.4040   92718993.4730
  88855360.0940
  20310781.420    20310789.600    20310788.180   106734031.4410   83169492.9720
  79704108.2410
  21415606.400    21415615.120    21415615.700   112540069.7070   87693694.1180
  84039715.1610
  24706449.100

  24062256.180    24062282.180                   126447648.6400   98530560.4940

 23  3  6 16  3 57.0000000  0 10G02G08G10G16G18G23G26G27G28G31
  25372049.060    25372057.060                   133331240.2350  103894628.4200

  24088676.300    24088693.860    24088694.260   126586928.7390   98639264.5450
  94529257.2450
  23661454.700    23661487.000    23661479.840   124342178.3610   96890143.0710
  92852718.6510
  20809426.980    20809431.720                   109354419.5930   85211330.0370

  21427795.840    21427801.600    21427805.480   112604280.3940   87743801.4840
  84087562.0660
  22642430.260    22642440.600    22642444.720   118987404.8120   92717527.3040
  88853955.0090
  20310948.280    20310956.460    20310955.040   106734908.2910   83170176.2290
  79704763.0340
  21415285.120    21415293.820    21415294.400   112538381.3220   87692378.4970
  84038454.3590
  24707133.000

  24062914.440    24062940.440                   126451107.5390   98533255.6740

 23  3  6 16  3 58.0000000  0 10G02G08G10G16G18G23G26G27G28G31
  25372662.760    25372670.760                   133334465.2130  103897141.3900

  24088181.440    24088198.980    24088199.380   126584328.1800   98637238.1390
  94527315.2900
  23660886.540    23660918.780    23660911.640   124339192.6570   96887816.5850
  92850489.1050
  20809134.320    20809139.040                   109352881.6010   85210131.6040

  21428194.760    21428200.500    21428204.380   112606376.6510   87745434.9310
  84089127.4530
  22642072.240    22642082.560    22642086.700   118985523.4650   92716061.3270
  88852550.1130
  20311115.200    20311123.380    20311121.960   106735785.4430   83170859.7220
  79705418.0540
  21414963.840    21414972.540    21414973.120   112536692.9760   87691062.9070
  84037193.5880
  24707816.860

  24063572.660    24063598.680                   126454566.2560   98535950.7100

 23  3  6 16  3 59.0000000  0 10G02G08G10G16G18G23G26G27G28G31
  25373276.460    25373284.480                   133337690.2940  103899654.4340

  24087686.580    24087704.140    24087704.520   126581727.8090   98635211.8780
  94525373.4530
  23660318.400    23660350.580    23660343.480   124336207.1480   96885490.2510
  92848259.7150
  20808841.740    20808846.460                   109351344.1010   85208933.5540

  21428593.760    21428599.500    21428603.380   112608473.4000   87747068.7590
  84090693.2160
  22641714.320    22641724.660    22641728.800   118983642.6510   92714595.7640
  88851145.6400
  20311282.220    20311290.400    20311288.980   106736663.1890   83171543.6760
  79706073.5040
  21414642.600    21414651.320    21414651.900   112535004.9480   87689747.5630
  84035933.0490
  24708500.700

  24064230.900    24064256.940                   126458025.1230   98538645.8620

 23  3  6 16  4  0.0000000  0 10G02G08G10G16G18G23G26G27G28G31
  25373890.220    25373898.220                   133340915.5540  103902167.6250

  24087191.780    24087209.380    24087209.720   126579127.7280   98633185.8550
  94523431.8480
  23659750.320    23659782.460    23659775.380   124333221.9670   96883164.1770
  92846030.5630
  20808549.280    20808554.000                   109349807.2110   85207735.9820

  21428992.880    21428998.620    21429002.500   112610570.7820   87748703.0800
  84092259.4370
  22641356.560    22641366.860    22641371.020   118981762.5020   92713130.7180
  88849741.6270
  20311449.380    20311457.580    20311456.160   106737541.6340   83172228.1770
  79706729.4860
  21414321.460    21414330.160    21414330.780   112533317.3570   87688432.5610
  84034672.8410
  24709184.620

  24064889.180    24064915.240                   126461484.1870   98541341.1690

 23  3  6 16  4  1.0000000  0 10G02G08G10G16G18G23G26G27G28G31
  25374503.940    25374511.960                   133344140.7740  103904680.7840

  24086697.020    24086714.560    24086714.960   126576527.7230   98631159.8900
  94521490.2930
  23659182.260    23659214.360    23659207.300   124330236.8970   96880838.1870
  92843801.4970
  20808256.900    20808261.620                   109348270.7200   85206538.7180

  21429392.080    21429397.840    21429401.700   112612668.5950   87750337.7380
  84093825.9740
  22640998.860    22641009.140    22641013.320   118979882.7990   92711666.0230
  88848337.9620
  20311616.640    20311624.820    20311623.400   106738420.5810   83172913.0680
  79707385.8340
  21414000.360    21414009.080    21414009.680   112531629.9990   87687117.7410
  84033412.7990
  24709868.420                                   129851235.4701

  24065547.460    24065573.520                   126464943.2590   98544036.4800

 23  3  6 16  4  2.0000000  0 10G02G08G10G16G18G23G26G27G28G31
  25375117.660    25375125.660                   133347365.8210  103907193.8030

  24086202.260    24086219.800    24086220.180   126573927.6840   98629133.9100
  94519548.7160
  23658614.200    23658646.260    23658639.220   124327251.8210   96878512.1910
  92841572.4330
  20807964.560    20807969.280                   109346734.4870   85205341.6570

  21429791.340    21429797.080    21429800.940   112614766.6780   87751972.6080
  84095392.7320
  22640641.220    22640651.500    22640655.660   118978003.4120   92710201.5720
  88846934.5300
  20311783.980    20311792.160    20311790.740   106739299.8950   83173598.2460
  79708042.4690
  21413679.300    21413688.000    21413688.600   112529942.7390   87685802.9940
  84032152.8400
  24710552.220                                   129854829.0310

  24066205.740    24066231.800                   126468402.2390   98546731.7190

 23  3  6 16  4  3.0000000  0 10G02G08G10G16G18G23G26G27G28G31
  25375731.400    25375739.420                   133350591.1200  103909707.0230

  24085707.540    24085725.060    24085725.460   126571327.9650   98627108.1670
  94517607.3810
  23658046.200    23658078.220    23658071.200   124324267.0610   96876186.4430
  92839343.5990
  20807672.340    20807677.060                   109345198.8920   85204145.0900

  21430190.720    21430196.460    21430200.320   112616865.4000   87753607.9740
  84096959.9540
  22640283.680    22640293.980    22640298.160   118976124.7130   92708737.6610
  88845531.6150
  20311951.440    20311959.620    20311958.200   106740179.9460   83174283.9980
  79708699.6470
  21413358.300    21413367.000    21413367.620   112528255.9350   87684488.6060
  84030893.2120
  24711236.060                                   129858422.7370

  24066864.060    24066890.120                   126471861.4450   98549427.1350

 23  3  6 16  4  4.0000000  0 10G02G08G10G16G18G23G26G27G28G31
  25376345.180    25376353.200                   133353816.5370  103912220.3310

  24085212.860    24085230.380    24085230.800   126568728.4490   98625082.5740
  94515666.2110
  23657478.240    23657510.220    23657503.240   124321282.5630   96873860.8970
  92837114.9590
  20807380.220    20807384.960                   109343663.8280   85202948.9380

  21430590.200    21430595.940    21430599.800   112618964.6790   87755243.7730
  84098527.5970
  22639926.280    22639936.580    22639940.740   118974246.5690   92707274.1820
  88844129.1240
  20312119.040    20312127.220    20312125.800   106741060.6190   83174970.2340
  79709357.2890
  21413037.380    21413046.080    21413046.700   112526569.4790   87683174.4860
  84029633.8530
  24711919.880                                   129862016.4220

  24067522.400    24067548.480                   126475320.8270   98552122.6820

 23  3  6 16  4  5.0000000  0 10G02G08G10G16G18G23G26G27G28G31
  25376958.940    25376966.940                   133357041.7760  103914733.5080

  24084718.180    24084735.680    24084736.120   126566128.9120   98623056.9750
  94513725.0140
  23656910.280    23656942.220    23656935.280   124318298.0710   96871535.3600
  92834886.3190
  20807088.160    20807092.900                   109342129.0530   85201753.0110

  21430989.740    21430995.480    21430999.320   112621064.2600   87756879.8110
  84100095.4640
  22639568.940    22639579.240    22639583.400   118972368.7900   92705810.9860
  88842726.8950
  20312286.700    20312294.880    20312293.460   106741941.6830   83175656.7800
  79710015.2290
  21412716.480    21412725.180    21412725.800   112524883.1460   87681860.4650
  84028374.5820
  24712603.720                                   129865610.0260

  24068180.740    24068206.820                   126478780.1040   98554818.1500

 23  3  6 16  4  6.0000000  0 10G02G08G10G16G18G23G26G27G28G31
  25377572.640    25377580.640                   133360266.9010  103917246.5770

  24084223.480    24084240.960    24084241.440   126563529.3640   98621031.3510
  94511783.8130
  23656342.340    23656374.240    23656367.320   124315313.5840   96869209.8240
  92832657.6920
  20806796.160    20806800.900                   109340594.5870   85200557.3240

  21431389.340    21431395.080    21431398.920   112623164.1720   87758516.1040
  84101663.5770
  22639211.660    22639221.980    22639226.140   118970491.3550   92704348.0550
  88841324.9160
  20312454.440    20312462.600    20312461.200   106742823.1500   83176343.6350
  79710673.4630
  21412395.620    21412404.320    21412404.940   112523196.9650   87680546.5600
  84027115.4230
  24713287.560                                   129869203.3930

  24068839.040    24068865.140                   126482239.3200   98557513.5720

 23  3  6 16  4  7.0000000  0 10G02G08G10G16G18G23G26G27G28G31
  25378186.360    25378194.320                   133363491.9660  103919759.6130

  24083728.800    24083746.280    24083746.760   126560929.8610   98619005.7710
  94509842.6240
  23655774.420    23655806.260    23655799.380   124312329.1860   96866884.3570
  92830429.1210
  20806504.220    20806508.960                   109339060.4640   85199361.9070

  21431789.020    21431794.760    21431798.600   112625264.4440   87760152.6750
  84103231.9640
  22638854.460    22638864.760    22638868.940   118968614.3090   92702885.4280
  88839923.2550
  20312622.260    20312630.440    20312629.020   106743705.0630   83177030.8400
  79711332.0320
  21412074.800    21412083.460    21412084.100   112521510.9470   87679232.7820
  84025856.3900
  24713971.320                                   129872796.6620

  24069497.360    24069523.460                   126485698.5000   98560208.9630

 23  3  6 16  4  8.0000000  0 10G02G08G10G16G18G23G26G27G28G31
  25378800.060    25378808.020                   133366717.0470  103922272.6520

  24083234.140    24083251.580    24083252.100   126558330.4890   98616980.2990
  94507901.5240
  23655206.500    23655238.300    23655231.460   124309344.9360   96864559.0010
  92828200.6590
  20806212.360    20806217.120                   109337526.7980   85198166.8430

  21432188.780    21432194.500    21432198.340   112627365.1760   87761789.6090
  84104800.6900
  22638497.360    22638507.660    22638511.840   118966737.7800   92701423.2060
  88838521.9410
  20312790.200    20312798.360    20312796.940   106744587.5200   83177718.4690
  79711991.0100
  21411754.020    21411762.680    21411763.320   112519825.2030   87677919.2190
  84024597.5610
  24714655.020                                   129876389.7930

  24070155.680    24070181.780                   126489157.7220   98562904.3910

 23  3  6 16  4  9.0000000  0 10G02G08G10G16G18G23G26G27G28G31
  25379413.740    25379421.740                   133369942.0990  103924785.6840

  24082739.520    24082756.940    24082757.460   126555731.2090   98614954.8940
  94505960.5270
  23654638.600    23654670.380    23654663.560   124306360.7980   96862233.7360
  92825972.3000
  20805920.600    20805925.340                   109335993.5330   85196972.0930

  21432588.620    21432594.340    21432598.180   112629466.3290   87763426.8690
  84106369.7360
  22638140.340    22638150.640    22638154.820   118964861.6960   92699961.3330
  88837120.9910
  20312958.220    20312966.380    20312964.980   106745470.4970   83178406.5010
  79712650.3740
  21411433.280    21411441.940    21411442.580   112518139.7030   87676605.8460
  84023338.9100
  24715338.720                                   129879982.8920

  24070814.000    24070840.120                   126492616.9980   98565599.8570

 23  3  6 16  4 10.0000000  0 10G02G08G10G16G18G23G26G27G28G31
  25380027.340    25380035.360                   133373166.7760  103927298.4290

  24082244.840    24082262.240    24082262.780   126553131.6330   98612929.2680
  94504019.2990
  23654070.680    23654102.400    23654095.620   124303376.4030   96859908.2720
  92823743.7320
  20805628.840    20805633.560                   109334460.2850   85195777.3540

  21432988.460    21432994.200    21432998.020   112631567.5200   87765064.1650
  84107938.8080
  22637783.340    22637793.640    22637797.820   118962985.6660   92698499.5040
  88835720.0700
  20313126.280    20313134.420    20313133.020   106746353.5720   83179094.6090
  79713309.8150
  21411112.500    21411121.160    21411121.820   112516454.0400   87675292.3460
  84022080.1430
  24716022.360                                   129883575.5550

  24071472.240    24071498.380                   126496075.9020   98568295.0350

 23  3  6 16  4 11.0000000  0 10G02G08G10G16G18G23G26G27G28G31
  25380640.780    25380648.780                   133376390.2720  103929810.2550

  24081749.960    24081767.320    24081767.900   126550531.0230   98610902.8250
  94502077.2870
  23653502.560    23653534.240    23653527.500   124300391.0070   96857582.0330
  92821514.4230
  20805336.920    20805341.660                   109332926.3160   85194582.0560

  21433388.180    21433393.900    21433397.720   112633668.0030   87766700.9030
  84109507.3420
  22637426.180    22637436.500    22637440.680   118961108.9830   92697037.1590
  88834318.6480
  20313294.200    20313302.340    20313300.940   106747236.0260   83179782.2340
  79713968.7850
  21410791.560    21410800.220    21410800.880   112514767.4910   87673978.1550
  84020820.7040
  24716705.820                                   129887166.9540

  24072130.280    24072156.420                   126499533.7100   98570989.3620

 23  3  6 16  4 12.0000000  0 10G02G08G10G16G18G23G26G27G28G31
  25381254.220    25381262.200                   133379613.9610  103932322.2180

  24081255.120    24081272.480    24081273.060   126547930.6740   98608876.5790
  94500135.4780
  23652934.500    23652966.140    23652959.420   124297405.9080   96855256.0200
  92819285.3520
  20805045.120    20805049.860                   109331392.9360   85193387.2160

  21433788.000    21433793.740    21433797.540   112635769.1000   87768338.1210
  84111076.3450
  22637069.160    22637079.500    22637083.660   118959232.9320   92695575.3120
  88832917.7250
  20313462.260    20313470.400    20313469.020   106748119.1870   83180470.4140
  79714628.2860
  21410470.700    21410479.360    21410480.020   112513081.3560   87672664.2870
  84019561.5940
  24717389.280                                   129890758.4950

  24072788.380    24072814.520                   126502991.7210   98573683.8420

 23  3  6 16  4 13.0000000  0 10G02G08G10G16G18G23G26G27G28G31
  25381867.680    25381875.620                   133382837.5910  103934834.1310

  24080760.300    24080777.660    24080778.240   126545330.4480   98606850.4380
  94498193.7690
  23652366.460    23652398.060    23652391.380   124294420.9690   96852930.1330
  92817056.3800
  20804753.420    20804758.160                   109329859.9820   85192192.7090

  21434187.920    21434193.640    21434197.460   112637870.6360   87769975.6760
  84112645.6700
  22636712.260    22636722.580    22636726.740   118957357.3680   92694113.8440
  88831517.1410
  20313630.420    20313638.560    20313637.160   106749002.8580   83181158.9870
  79715288.1690
  21410149.900    21410158.540    21410159.220   112511395.4740   87671350.6190
  84018302.6610
  24718072.680                                   129894349.9700

  24073446.460    24073472.620                   126506449.7700   98576378.3560

 23  3  6 16  4 14.0000000  0 10G02G08G10G16G18G23G26G27G28G31
  25382480.980    25382488.940                   133386060.6540  103937345.6010

  24080265.380    24080282.740    24080283.340   126542729.7100   98604823.8950
  94496251.6710
  23651798.340    23651829.900    23651823.240   124291435.5460   96850603.8700
  92814827.0630
  20804461.660    20804466.400                   109328326.8360   85190998.0540

  21434587.800    21434593.520    21434597.320   112639971.9930   87771613.0970
  84114214.8580
  22636355.320    22636365.640    22636369.780   118955481.6540   92692652.2570
  88830116.4580
  20313798.560    20313806.700    20313805.320   106749886.4430   83181847.4920
  79715947.9880
  21409829.020    21409837.660    21409838.340   112509709.2360   87670036.6720
  84017043.4530
  24718755.940                                   129897940.7380

  24074104.460    24074130.620                   126509907.2630   98579072.4370

 23  3  6 16  4 15.0000000  0 10G02G08G10G16G18G23G26G27G28G31
  25383094.220    25383102.160                   133389283.2100  103939856.6810

  24079770.400    24079787.760    24079788.340   126540128.5750   98602797.0590
  94494309.2690
  23651230.140    23651261.660    23651255.020   124288449.7590   96848277.3200
  92812597.4520
  20804169.900    20804174.640                   109326793.5930   85189803.3160

  21434987.660    21434993.380    21434997.180   112642073.2560   87773250.4400
  84115783.9920
  22635998.360    22636008.680    22636012.820   118953605.8850   92691190.6250
  88828715.7370
  20313966.700    20313974.840    20313973.460   106750770.0140   83182535.9890
  79716607.7940
  21409508.100    21409516.740    21409517.400   112508022.7350   87668722.5170
  84015784.0610
  24719439.080                                   129901530.8920

  24074762.340    24074788.500                   126513364.2650   98581766.1350

 23  3  6 16  4 16.0000000  0 10G02G08G10G16G18G23G26G27G28G31
  25383707.440    25383715.400                   133392505.6370  103942367.6640

  24079275.400    24079292.780    24079293.360   126537527.4250   98600770.1960
  94492366.8630
  23650661.940    23650693.400    23650686.820   124285464.0000   96845950.7910
  92810367.8780
  20803878.180    20803882.940                   109325260.6720   85188608.8350

  21435387.600    21435393.300    21435397.100   112644174.8680   87774888.0600
  84117353.3740
  22635641.460    22635651.800    22635655.940   118951730.4890   92689729.2830
  88827315.2810
  20314134.920    20314143.060    20314141.680   106751654.0030   83183224.8090
  79717267.9190
  21409187.200    21409195.820    21409196.500   112506336.3680   87667408.4690
  84014524.7660
  24720122.280                                   129905120.9270

  24075420.240    24075446.400                   126516821.2110   98584459.7890

 23  3  6 16  4 17.0000000  0 10G02G08G10G16G18G23G26G27G28G31
  25384320.680    25384328.640                   133395728.2380  103944878.7930

  24078780.460    24078797.820    24078798.420   126534926.5610   98598743.5550
  94490424.6810
  23650093.780    23650125.240    23650118.680   124282478.5640   96843624.5170
  92808138.5270
  20803586.600    20803591.340                   109323728.3460   85187414.8150

  21435787.640    21435793.340    21435797.140   112646277.0820   87776526.1490
  84118923.2090
  22635284.720    22635295.040    22635299.180   118949855.7370   92688268.4350
  88825915.3110
  20314303.260    20314311.400    20314310.020   106752538.7010   83183914.1830
  79717928.5670
  21408866.360    21408875.000    21408875.680   112504650.4210   87666094.7480
  84013265.7800
  24720805.520                                   129908711.1280

  24076078.180    24076104.340                   126520278.3860   98587153.6180

 23  3  6 16  4 18.0000000  0 10G02G08G10G16G18G23G26G27G28G31
  25384933.960    25384941.940                   133398951.1670  103947390.1600

  24078285.600    24078303.000    24078303.560   126532326.1190   98596717.2520
  94488482.7950
  23649525.740    23649557.180    23649550.600   124279493.5650   96841298.5840
  92805909.5320
  20803295.140    20803299.880                   109322196.7690   85186221.3800

  21436187.840    21436193.520    21436197.320   112648380.0760   87778164.8460
  84120493.6270
  22634928.120    22634938.420    22634942.560   118947981.7830   92686808.2200
  88824515.9520
  20314471.780    20314479.920    20314478.540   106753424.2480   83184604.2170
  79718589.8540
  21408545.660    21408554.280    21408554.960   112502965.0650   87664781.4860
  84012007.2390
  24721488.780                                   129912301.4860

  24076736.180    24076762.340                   126523735.9150   98589847.7210

 23  3  6 16  4 19.0000000  0 10G02G08G10G16G18G23G26G27G28G31
  25385547.280    25385555.300                   133402174.3590  103949901.7360

  24077790.820    24077808.160    24077808.780   126529726.0700   98594691.2490
  94486541.2070
  23648957.780    23648989.160    23648982.620   124276509.0310   96838973.0100
  92803680.8610
  20803003.820    20803008.580                   109320665.9090   85185028.5060

  21436588.160    21436593.840    21436597.640   112650483.7930   87779804.1100
  84122064.5770
  22634571.640    22634581.980    22634586.080   118946108.6150   92685348.6170
  88823117.1600
  20314640.460    20314648.580    20314647.220   106754310.6070   83185294.8860
  79719251.7370
  21408225.040    21408233.680    21408234.340   112501280.2590   87663468.6520
  84010749.1090
  24722172.060                                   129915892.1150

  24077394.220    24077420.420                   126527193.7920   98592542.0970

 23  3  6 16  4 20.0000000  0 10G02G08G10G16G18G23G26G27G28G31
  25386160.220    25386168.260                   133405395.5250  103952411.7420

  24077295.660    24077312.980    24077313.620   126527124.0340   98592663.6990
  94484598.1400
  23648389.440    23648420.760    23648414.280   124273522.5410   96836645.9100
  92801450.7350
  20802712.200    20802716.940                   109319133.3900   85183834.3360

  21436988.180    21436993.860    21436997.660   112652585.8550   87781442.0800
  84123634.3040
  22634214.880    22634225.200    22634229.320   118944233.8130   92683887.7420
  88821717.1570
  20314808.820    20314816.960    20314815.600   106755195.3950   83185984.3290
  79719912.4530
  21407904.080    21407912.720    21407913.380   112499593.5950   87662154.3720
  84009489.5910
  24722854.820                                   129919480.4980

  24078051.880    24078078.100                   126530649.6030   98595234.8670

 23  3  6 16  4 21.0000000  0 10G02G08G10G16G18G23G26G27G28G31
  25386772.980    25386781.040                   133408615.5610  103954920.8590

  24076800.340    24076817.660    24076818.280   126524521.0780   98590635.4380
  94482654.3840
  23647820.940    23647852.220    23647845.760   124270535.1190   96834318.0900
  92799219.9130
  20802420.440    20802425.180                   109317600.2130   85182639.6580

  21437388.080    21437393.740    21437397.560   112654687.2830   87783079.5540
  84125203.5500
  22633857.980    22633868.340    22633872.420   118942358.4200   92682426.4050
  88820316.7010
  20314977.080    20314985.220    20314983.860   106756079.6390   83186673.3500
  79720572.7650
  21407582.980    21407591.600    21407592.260   112497906.1240   87660839.4640
  84008229.4660
  24723537.500

  24078709.360    24078735.580                   126534104.4080   98597926.8510

 23  3  6 16  4 22.0000000  0 10G02G08G10G16G18G23G26G27G28G31
  25387385.800    25387393.860                   133411835.9410  103957430.2500

  24076305.080    24076322.400    24076323.020   126521918.5720   98588607.5110
  94480710.9720
  23647252.500    23647283.760    23647277.320   124267548.1570   96831990.6260
  92796989.4310
  20802128.820    20802133.580                   109316067.8050   85181445.5760

  21437788.120    21437793.780    21437797.580   112656789.4890   87784717.6330
  84126773.3710
  22633501.260    22633511.620    22633515.700   118940483.8300   92680965.6940
  88818916.8630
  20315145.520    20315153.660    20315152.300   106756964.7390   83187363.0370
  79721233.7130
  21407261.980    21407270.600    21407271.260   112496219.2340   87659525.0060
  84006969.7860
  24724220.200

  24079366.900    24079393.120                   126537559.5620   98600619.1110

 23  3  6 16  4 23.0000000  0 10G02G08G10G16G18G23G26G27G28G31
  25387998.720    25388006.760                   133415056.7580  103959939.9800

  24075809.960    24075827.220    24075827.860   126519316.5910   98586580.0080
  94478767.9360
  23646684.180    23646715.400    23646708.980   124264561.7650   96829663.6040
  92794759.3780
  20801837.380    20801842.140                   109314536.2510   85180252.1580

  21438188.320    21438193.980    21438197.780   112658892.5620   87786356.3890
  84128343.8580
  22633144.700    22633155.060    22633159.120   118938610.1610   92679505.6960
  88817517.6990
  20315314.120    20315322.260    20315320.920   106757850.7910   83188053.4650
  79721895.3830
  21406941.100    21406949.720    21406950.380   112494533.0380   87658211.0890
  84005710.6190
  24724902.940

  24080024.540    24080050.760                   126541015.1950   98603311.7400

 23  3  6 16  4 24.0000000  0 10G02G08G10G16G18G23G26G27G28G31
  25388611.760    25388619.820                   133418278.3650  103962450.3430

  24075314.960    24075332.280    24075332.900   126516715.5300   98584553.2210
  94476825.6010
  23646116.060    23646147.200    23646140.840   124261576.3010   96827337.3030
  92792530.0350
  20801546.180    20801550.920                   109313005.9350   85179059.7080

  21438588.760    21438594.420    21438598.220   112660996.8960   87787996.1280
  84129915.2650
  22632788.380    22632798.760    22632802.820   118936737.7490   92678046.6820
  88816119.4840
  20315483.000    20315491.120    20315489.780   106758738.1850   83188744.9410
  79722558.0410
  21406620.420    21406629.040    21406629.720   112492847.9080   87656898.0050
  84004452.2430
  24725585.720

  24080682.360    24080708.580                   126544471.7150   98606005.0610

 23  3  6 16  4 25.0000000  0 10G02G08G10G16G18G23G26G27G28G31
  25389224.920    25389232.980                   133421500.5320  103964961.1250

  24074820.120    24074837.420    24074838.040   126514115.1230   98582526.9360
  94474883.7400
  23645548.080    23645579.180    23645572.800   124258591.5750   96825011.5770
  92790301.2130
  20801255.140    20801259.900                   109311476.5830   85177868.0050

  21438989.400    21438995.040    21438998.860   112663102.1970   87789636.6200
  84131487.4050
  22632432.260    22632442.640    22632446.680   118934866.3870   92676588.4880
  88814722.0340
  20315652.060    20315660.200    20315658.860   106759626.6330   83189437.2360
  79723221.4890
  21406299.900    21406308.520    21406309.180   112491163.5560   87655585.5250
  84003194.4540
  24726268.700                                   129937419.3161

  24081340.280    24081366.500                   126547928.7820   98608698.8080

 23  3  6 16  4 26.0000000  0 10G02G08G10G16G18G23G26G27G28G31
  25389838.220    25389846.240                   133424723.4270  103967472.4700

  24074325.420    24074342.720    24074343.340   126511515.5300   98580501.2920
  94472942.5120
  23644980.240    23645011.320    23645004.960   124255607.6840   96822686.5040
  92788073.0300
  20800964.320    20800969.080                   109309948.3640   85176677.1860

  21439390.240    21439395.900    21439399.700   112665208.6490   87791278.0090
  84133060.4070
  22632076.380    22632086.760    22632090.800   118932996.1980   92675131.2020
  88813325.4840
  20315821.360    20315829.500    20315828.160   106760516.3210   83190130.4970
  79723885.8640
  21405979.580    21405988.180    21405988.840   112489480.1850   87654273.8090
  84001937.3920
  24726951.780                                   129941009.1590

  24081998.320    24082024.560                   126551386.6060   98611393.1470

 23  3  6 16  4 27.0000000  0 10G02G08G10G16G18G23G26G27G28G31
  25390451.780    25390459.800                   133427947.6850  103969984.8830

  24073831.040    24073848.300    24073848.920   126508917.4850   98578476.8500
  94471002.4000
  23644412.680    23644443.720    23644437.400   124252625.3520   96820362.6450
  92785845.9950
  20800673.860    20800678.620                   109308421.9810   85175487.7970

  21439791.440    21439797.100    21439800.900   112667316.9490   87792920.8360
  84134634.7900
  22631720.840    22631731.220    22631735.260   118931127.8830   92673675.3760
  88811930.3160
  20315991.040    20315999.160    20315997.840   106761407.9350   83190825.2590
  79724551.6820
  21405659.540    21405668.160    21405668.820   112487798.4630   87652963.3790
  84000681.5590
  24727635.180                                   129944600.3240

  24082656.680    24082682.880                   126554845.9040   98614088.6320

 23  3  6 16  4 28.0000000  0  9G02G08G10G16G18G23G26G27G31
  25391065.520    25391073.560                   133431172.9400  103972498.0760

  24073336.840    24073354.120    24073354.720   126506320.4940   98576453.2300
  94469063.1210
  23643845.340    23643876.360    23643870.040   124249644.1440   96818039.6610
  92783619.8090
  20800383.660    20800388.420                   109306896.9880   85174299.4950

  21440192.920    21440198.580    21440202.360   112669426.6750   87794564.7820
  84136210.2270
  22631365.580    22631375.960    22631380.000   118929261.0350   92672220.6950
  88810536.2450
  20316161.000    20316169.120    20316167.780   106762301.0520   83191521.1920
  79725218.6180
  21405339.760    21405348.360    21405349.040   112486117.9760   87651653.9130
  83999426.6540
  24083315.200    24083341.420                   126558306.2130   98616784.9030

 23  3  6 16  4 29.0000000  0 10G02G08G10G16G18G23G26G27G28G31
  25391679.260    25391687.300                   133434398.1150  103975011.2100

  24072842.660    24072859.920    24072860.520   126503723.5260   98574429.6290
  94467123.8250
  23643278.020    23643308.980    23643302.700   124246662.9860   96815716.7160
  92781393.6550
  20800093.520    20800098.280                   109305372.3550   85173111.4690

  21440594.460    21440600.120    21440603.900   112671536.7450   87796208.9910
  84137785.9270
  22631010.400    22631020.780    22631024.820   118927394.5640   92670766.3070
  88809142.4660
  20316331.020    20316339.140    20316337.840   106763194.6150   83192217.4760
  79725885.8810
  21405020.000    21405028.600    21405029.280   112484437.6550   87650344.5710
  83998171.8730
  24729002.220

  24083973.740    24083999.940                   126561766.4840   98619481.1480

 23  3  6 16  4 30.0000000  0 10G02G08G10G16G18G23G26G27G28G31
  25392293.260    25392301.300                   133437624.7040  103977525.4320

  24072348.740    24072366.020    24072366.620   126501128.0830   98572407.2140
  94465185.6870
  23642711.000    23642741.920    23642735.660   124243683.3890   96813394.9840
  92779168.6690
  20799803.760    20799808.520                   109303849.5690   85171924.8870

  21440996.340    21441002.000    21441005.780   112673648.6910   87797854.6610
  84139363.0250
  22630655.600    22630665.980    22630669.980   118925530.0170   92669313.4210
  88807750.1070
  20316501.440    20316509.560    20316508.240   106764090.1340   83192915.2800
  79726554.6150
  21404700.580    21404709.180    21404709.840   112482759.0200   87649036.5510
  83996918.3530
  24729686.000

  24084632.540    24084658.740                   126565228.2070   98622178.5230

 23  3  6 16  4 31.0000000  0 10G02G08G10G16G18G23G26G27G28G31
  25392907.300    25392915.300                   133440851.5410  103980039.8450

  24071854.920    24071872.200    24071872.780   126498533.0020   98570385.0790
  94463247.8100
  23642144.060    23642174.920    23642168.700   124240704.1670   96811073.5500
  92776943.9820
  20799514.100    20799518.860                   109302327.4530   85170738.8270

  21441398.360    21441404.020    21441407.800   112675761.3180   87799500.8620
  84140940.6300
  22630300.920    22630311.300    22630315.300   118923666.1670   92667861.0760
  88806358.2900
  20316671.980    20316680.120    20316678.800   106764986.4090   83193613.6770
  79727223.9050
  21404381.240    21404389.820    21404390.500   112481080.8750   87647728.9070
  83995665.2020
  24730369.740                                   129958970.1531

  24085291.380    24085317.580                   126568690.2480   98624876.1420

 23  3  6 16  4 32.0000000  0 10G02G08G10G16G18G23G26G27G28G31
  25393521.320    25393529.340                   133444078.1270  103982554.0680

  24071361.040    24071378.320    24071378.920   126495937.7840   98568362.8400
  94461309.8220
  23641577.100    23641607.940    23641601.700   124237724.8720   96808752.0600
  92774719.2310
  20799224.480    20799229.240                   109300805.5240   85169552.9080

  21441800.420    21441806.080    21441809.880   112677874.1390   87801147.2160
  84142518.3890
  22629946.300    22629956.660    22629960.660   118921802.5730   92666408.9340
  88804966.6460
  20316842.600    20316850.720    20316849.420   106765882.9760   83194312.2980
  79727893.4190
  21404061.900    21404070.480    21404071.160   112479402.7450   87646421.2770
  83994412.0530
  24731053.520                                   129962563.2860

  24085950.240    24085976.420                   126572152.0470   98627573.5780

 23  3  6 16  4 33.0000000  0 10G02G08G10G16G18G23G26G27G28G31
  25394135.040    25394143.060                   133447303.2610  103985067.1600

  24070866.960    24070884.240    24070884.800   126493341.2260   98566339.5620
  94459370.8480
  23641009.880    23641040.680    23641034.480   124234744.2610   96806429.5410
  92772493.4830
  20798934.680    20798939.420                   109299282.5620   85168366.1850

  21442202.280    21442207.940    21442211.740   112679985.9460   87802792.7780
  84144095.3870
  22629591.480    22629601.860    22629605.840   118919937.9950   92664956.0240
  88803574.2780
  20317013.040    20317021.160    20317019.860   106766778.6070   83195010.1890
  79728562.2290
  21403742.320    21403750.920    21403751.580   112477723.4140   87645112.7140
  83993158.0170
  24731736.940                                   129966154.9850

  24086608.780    24086634.960                   126575612.4690   98630269.9430

 23  3  6 16  4 34.0000000  0 10G02G08G10G16G18G23G26G27G28G31
  25394748.700    25394756.720                   133450528.0000  103987579.9520

  24070372.780    24070390.040    24070390.620   126490744.3720   98564316.0540
  94457431.6430
  23640442.620    23640473.380    23640467.180   124231763.3970   96804106.8270
  92770267.5510
  20798644.860    20798649.620                   109297759.6210   85167179.4800

  21442604.160    21442609.800    21442613.600   112682097.7820   87804438.3640
  84145672.4070
  22629236.680    22629247.040    22629251.020   118918073.4870   92663503.1690
  88802181.9480
  20317183.500    20317191.620    20317190.320   106767674.3490   83195708.1710
  79729231.1250
  21403422.740    21403431.320    21403432.000   112476043.9390   87643804.0360
  83991903.8640
  24732420.260                                   129969746.0970

  24087267.240    24087293.460                   126579072.5080   98632966.0080

 23  3  6 16  4 35.0000000  0 10G02G08G10G16G18G23G26G27G28G31
  25395362.480    25395370.540                   133453753.5140  103990093.3520

  24069878.780    24069896.060    24069896.620   126488148.3920   98562293.2180
  94455493.1100
  23639875.520    23639906.240    23639900.100   124228783.4420   96801784.8230
  92768042.2930
  20798355.280    20798360.040                   109296237.8950   85165993.7210

  21443006.260    21443011.920    21443015.700   112684210.8470   87806084.9070
  84147250.3380
  22628882.100    22628892.480    22628896.440   118916210.2220   92662051.2820
  88800790.5710
  20317354.200    20317362.320    20317361.020   106768571.3970   83196407.1670
  79729901.0050
  21403103.340    21403111.920    21403112.580   112474365.5020   87642496.1650
  83990650.4830
  24733103.760

  24087925.900    24087952.100                   126582533.3930   98635662.7280

 23  3  6 16  4 36.0000000  0  9G02G08G10G16G18G23G26G27G31
  25395976.340    25395984.440                   133456979.5020  103992607.1230

  24069384.900    24069402.220    24069402.740   126485553.0430   98560270.8750
  94453555.0310
  23639308.560    23639339.220    23639333.100   124225804.1390   96799463.3250
  92765817.5460
  20798065.880    20798070.640                   109294717.0820   85164808.6760

  21443408.540    21443414.200    21443418.000   112686324.8430   87807732.1820
  84148828.9730
  22628527.700    22628538.100    22628542.060   118914347.9480   92660600.1680
  88799399.9230
  20317525.100    20317533.220    20317531.920   106769469.4660   83197106.9600
  79730571.6410
  21402784.100    21402792.660    21402793.340   112472687.8000   87641188.8690
  83989397.6680
  24088584.660    24088610.820                   126585994.8060   98638359.8590

 23  3  6 16  4 37.0000000  0 10G02G08G10G16G18G23G26G27G28G31
  25396590.100    25396598.200                   133460204.7690  103995120.3080

  24068890.900    24068908.220    24068908.720   126482957.0140   98558248.0030
  94451616.4410
  23638741.480    23638772.100    23638766.000   124222824.2270   96797141.3520
  92763592.3340
  20797776.420    20797781.180                   109293195.9360   85163623.3670

  21443810.760    21443816.420    21443820.220   112688438.5100   87809379.1910
  84150407.3730
  22628173.260    22628183.660    22628187.600   118912485.3770   92659148.8240
  88798009.0520
  20317695.940    20317704.060    20317702.780   106770367.3000   83197806.5680
  79731242.0970
  21402464.740    21402473.300    21402473.980   112471009.5990   87639881.1820
  83988144.4640
  24734470.720                                   129980520.9191

  24089243.260    24089269.440                   126589455.4940   98641056.4270

 23  3  6 16  4 38.0000000  0 10G02G08G10G16G18G23G26G27G28G31
  25397203.820    25397211.920                   133463429.9820  103997633.4560

  24068396.900    24068414.220    24068414.720   126480361.0760   98556225.1980
  94449677.9420
  23638174.400    23638205.000    23638198.920   124219844.4170   96794819.4610
  92761367.2000
  20797487.020    20797491.780                   109291675.1780   85162438.3630

  21444213.060    21444218.700    21444222.520   112690552.5870   87811026.5240
  84151986.0550
  22627818.920    22627829.320    22627833.240   118910623.2400   92657697.8180
  88796618.5090
  20317866.880    20317875.020    20317873.740   106771265.6270   83198506.5640
  79731912.9200
  21402145.440    21402153.980    21402154.660   112469331.6030   87638573.6590
  83986891.4230
  24735154.180

  24089901.880    24089928.040                   126592916.2000   98643753.0060

 23  3  6 16  4 39.0000000  0 10G02G08G10G16G18G23G26G27G28G31
  25397817.320    25397825.400                   133466653.9850  104000145.6690

  24067902.700    24067920.000    24067920.520   126477764.0530   98554201.5650
  94447738.6160
  23637607.140    23637637.700    23637631.640   124216863.5690   96792496.7610
  92759141.2600
  20797197.500    20797202.240                   109290153.6590   85161252.7680

  21444615.200    21444620.860    21444624.680   112692665.8940   87812673.2550
  84153564.1680
  22627464.420    22627474.820    22627478.740   118908760.4160   92656246.2730
  88795227.4280
  20318037.700    20318045.840    20318044.560   106772163.2790   83199206.0310
  79732583.2390
  21401825.960    21401834.500    21401835.160   112467652.6720   87637265.4030
  83985637.6750
  24735837.400

  24090560.260    24090586.420                   126596375.7290   98646448.6710

 23  3  6 16  4 40.0000000  0 10G02G08G10G16G18G23G26G27G28G31
  25398430.680    25398438.800                   133469877.2270  104002657.2800

  24067408.360    24067425.680    24067426.200   126475166.3950   98552177.4270
  94445798.8280
  23637039.760    23637070.300    23637064.220   124213882.0980   96790173.5740
  92756914.8980
  20796907.900    20796912.640                   109288631.8110   85160066.9150

  21445017.300    21445022.960    21445026.780   112694778.8970   87814319.7480
  84155142.0600
  22627109.880    22627120.280    22627124.180   118906897.2800   92654794.4850
  88793836.1460
  20318208.480    20318216.600    20318215.340   106773060.6890   83199905.3110
  79733253.3890
  21401506.360    21401514.920    21401515.580   112465973.2440   87635956.7600
  83984383.5650
  24736520.420

  24091218.520    24091244.680                   126599834.5570   98649143.7900

 23  3  6 16  4 41.0000000  0  9G02G08G10G16G18G23G26G27G31
  25399044.040    25399052.200                   133473100.6740  104005169.0440

  24066914.120    24066931.400    24066931.940   126472569.0170   98550153.4990
  94443859.2240
  23636472.440    23636502.940    23636496.880   124210900.9480   96787850.6390
  92754688.7560
  20796618.400    20796623.140                   109287110.5390   85158881.5080

  21445419.520    21445425.160    21445428.980   112696892.4930   87815966.7020
  84156720.4000
  22626755.440    22626765.860    22626769.760   118905034.8090   92653343.2130
  88792445.3380
  20318379.380    20318387.520    20318386.240   106773958.7910   83200605.1270
  79733924.0470
  21401186.860    21401195.400    21401196.080   112464294.2290   87634648.4400
  83983129.7630
  24091876.820    24091902.960                   126603293.6100   98651839.0820

 23  3  6 16  4 42.0000000  0 10G02G08G10G16G18G23G26G27G28G31
  25399657.400    25399665.560                   133476323.9550  104007680.7000

  24066419.860    24066437.140    24066437.660   126469971.6710   98548129.5890
  94441919.6360
  23635905.140    23635935.580    23635929.540   124207919.8160   96785527.7180
  92752462.6210
  20796328.980    20796333.720                   109285589.5930   85157696.3550

  21445821.780    21445827.440    21445831.260   112699006.4150   87817613.9100
  84158298.9670
  22626401.080    22626411.520    22626415.400   118903172.6740   92651892.2070
  88791054.8040
  20318550.360    20318558.500    20318557.220   106774857.3020   83201305.2630
  79734595.0090
  21400867.380    21400875.920    21400876.580   112462615.3550   87633340.2290
  83981876.0550
  24737886.480

  24092535.080    24092561.240                   126606752.5590   98654534.2930

 23  3  6 16  4 43.0000000  0 10G02G08G10G16G18G23G26G27G28G31
  25400270.800    25400279.040                   133479547.5640  104010192.6100

  24065925.680    24065942.900    24065943.480   126467374.7140   98546105.9900
  94439980.3850
  23635337.900    23635368.300    23635362.300   124204939.1390   96783205.1480
  92750236.8320
  20796039.680    20796044.420                   109284069.3820   85156511.7770

  21446224.200    21446229.840    21446233.660   112701121.0920   87819261.7080
  84159878.1100
  22626046.880    22626057.320    22626061.180   118901311.3510   92650441.8310
  88789664.8550
  20318721.500    20318729.640    20318728.360   106775756.6490   83202006.0510
  79735266.5990
  21400548.020    21400556.540    21400557.220   112460937.0470   87632032.4600
  83980622.7760
  24738569.480                                   130002059.8331

  24093193.420    24093219.560                   126610211.8830   98657229.7990

 23  3  6 16  4 44.0000000  0 10G02G08G10G16G18G23G26G27G28G31
  25400884.220    25400892.460                   133482771.2760  104012704.5930

  24065431.540    24065448.780    24065449.360   126464778.0090   98544082.5880
  94438041.2950
  23634770.720    23634801.100    23634795.100   124201958.7330   96780882.7880
  92748011.2450
  20795750.500    20795755.240                   109282549.7230   85155327.6290

  21446626.700    21446632.360    21446636.200   112703236.3250   87820909.9440
  84161457.6710
  22625692.800    22625703.240    22625707.080   118899450.6300   92648991.9210
  88788275.3590
  20318892.780    20318900.900    20318899.640   106776656.6580   83202707.3560
  79735938.6820
  21400228.720    21400237.240    21400237.920   112459259.1190   87630724.9840
  83979369.7780
  24739252.540                                   130005649.3430

  24093851.780    24093877.940                   126613671.3600   98659925.4210

 23  3  6 16  4 45.0000000  0 10G02G08G10G16G18G23G26G27G28G31
  25401497.840    25401506.080                   133485995.9480  104015217.3150

  24064937.600    24064954.840    24064955.400   126462182.3550   98542060.0090
  94436102.9700
  23634203.740    23634234.080    23634228.100   124198979.3850   96778561.2550
  92745786.4620
  20795461.580    20795466.320                   109281031.4170   85154144.5380

  21447029.480    21447035.140    21447038.980   112705352.9240   87822559.2400
  84163038.2410
  22625338.980    22625349.420    22625353.240   118897591.2960   92647543.0990
  88786886.9130
  20319064.320    20319072.440    20319071.180   106777558.1040   83203409.7800
  79736611.8400
  21399909.640    21399918.160    21399918.840   112457582.3640   87629418.4240
  83978117.6630
  24739935.800                                   130009239.7300

  24094510.340    24094536.500                   126617131.8110   98662621.8070

 23  3  6 16  4 46.0000000  0 10G02G08G10G16G18G23G26G27G28G31
  25402111.640    25402119.860                   133489221.5070  104017730.7320

  24064443.840    24064461.100    24064461.660   126459587.6840   98540038.2070
  94434165.4070
  23633636.960    23633667.260    23633661.320   124196001.0960   96776240.5470
  92743562.4430
  20795172.900    20795177.640                   109279514.4350   85152962.4740

  21447432.500    21447438.160    21447442.020   112707470.8530   87824209.5740
  84164619.8130
  22624985.400    22624995.880    22624999.680   118895733.3540   92646095.3590
  88785499.4830
  20319236.140    20319244.260    20319242.980   106778460.9610   83204113.3050
  79737286.0490
  21399590.780    21399599.300    21399599.980   112455906.7640   87628112.7640
  83976866.4040
  24740619.160

  24095169.080    24095195.220                   126620593.1820   98665318.9070

 23  3  6 16  4 47.0000000  0  9G02G08G10G16G18G23G26G27G31
  25402725.280    25402733.560                   133492446.3350  104020243.5710

  24063949.960    24063967.240    24063967.780   126456992.4110   98538015.9330
  94432227.3840
  23633070.080    23633100.340    23633094.400   124193022.2140   96773919.3790
  92741338.0020
  20794884.180    20794888.900                   109277997.1780   85151780.1970

  21447835.500    21447841.160    21447845.000   112709588.5200   87825859.7000
  84166201.1900
  22624631.800    22624642.280    22624646.060   118893875.1760   92644647.4340
  88784111.8950
  20319407.900    20319416.040    20319414.760   106779363.6600   83204816.7050
  79737960.1430
  21399271.840    21399280.360    21399281.020   112454230.7200   87626806.7580
  83975614.8150
  24095827.680    24095853.840                   126624053.9250   98668015.5170

 23  3  6 16  4 48.0000000  0 10G02G08G10G16G18G23G26G27G28G31
  25403338.920    25403347.220                   133495671.0060  104022756.3060

  24063456.080    24063473.340    24063473.920   126454397.0730   98535993.5920
  94430289.3320
  23632503.180    23632533.440    23632527.500   124190043.3420   96771598.2150
  92739113.5610
  20794595.500    20794600.240                   109276480.2010   85150598.1400

  21448238.520    21448244.180    21448248.040   112711706.4670   87827510.0510
  84167782.7740
  22624278.260    22624288.740    22624292.520   118892017.3240   92643199.7690
  88782724.5550
  20319579.760    20319587.880    20319586.620   106780266.7150   83205520.3820
  79738634.5020
  21398952.920    21398961.440    21398962.100   112452554.7740   87625500.8250
  83974363.2960
  24741985.560

  24096486.280    24096512.440                   126627514.5180   98670712.0070

 23  3  6 16  4 49.0000000  0 10G02G08G10G16G18G23G26G27G28G31
  25403952.500    25403960.860                   133498895.4960  104025268.8910

  24062962.180    24062979.420    24062980.020   126451801.6450   98533971.1760
  94428351.2040
  23631936.280    23631966.460    23631960.580   124187064.3990   96769276.9950
  92736889.0820
  20794306.860    20794311.600                   109274963.4480   85149416.2550

  21448641.600    21448647.260    21448651.120   112713824.6590   87829160.5860
  84169364.5290
  22623924.760    22623935.260    22623939.020   118890159.7400   92641752.3110
  88781337.4100
  20319751.660    20319759.800    20319758.520   106781170.0790   83206224.3020
  79739309.0900
  21398634.000    21398642.540    21398643.180   112450878.8590   87624194.9240
  83973111.8150
  24742668.660                                   130023601.6211

  24097144.840    24097171.000                   126630974.9700   98673408.3910

 23  3  6 16  4 50.0000000  0 10G02G08G10G16G18G23G26G27G28G31
  25404566.120    25404574.500                   133502120.0810  104027781.5590

  24062468.340    24062485.580    24062486.180   126449206.4540   98531948.9570
  94426413.2420
  23631369.440    23631399.580    23631393.700   124184085.7480   96766956.0010
  92734664.7900
  20794018.340    20794023.080                   109273447.2420   85148234.7990

  21449044.800    21449050.440    21449054.320   112715943.4050   87830811.5530
  84170946.7050
  22623571.400    22623581.880    22623585.640   118888302.7710   92640305.3290
  88779950.7120
  20319923.700    20319931.840    20319930.560   106782074.1160   83206928.7460
  79739984.1760
  21398315.180    21398323.700    21398324.340   112449203.3380   87622889.3250
  83971860.6150
  24743351.780                                   130027191.6120

  24097803.420    24097829.580                   126634435.5860   98676104.9020

 23  3  6 16  4 51.0000000  0 10G02G08G10G16G18G23G26G27G28G31
  25405179.960    25405188.320                   133505345.7900  104030295.0960

  24061974.700    24061991.920    24061992.560   126446612.4530   98529927.6740
  94424476.1910
  23630802.820    23630832.940    23630827.080   124181108.3100   96764635.9550
  92732441.4300
  20793730.100    20793734.840                   109271932.5700   85147054.5390

  21449448.260    21449453.920    21449457.800   112718063.6830   87832463.7170
  84172530.0320
  22623218.300    22623228.820    22623232.560   118886447.3570   92638859.5600
  88778565.1940
  20320096.040    20320104.180    20320102.900   106782979.7550   83207634.4370
  79740660.4660
  21397996.580    21398005.100    21398005.740   112447529.1630   87621584.7750
  83970610.4210
  24744035.220                                   130030782.6770

  24098462.220    24098488.400                   126637897.3360   98678802.2970

 23  3  6 16  4 52.0000000  0  9G02G08G10G16G18G23G26G27G31
  25405793.880    25405802.260                   133508571.8950  104032808.9360

  24061481.180    24061498.400    24061499.040   126444019.0290   98527906.8430
  94422539.5440
  23630236.320    23630266.400    23630260.580   124178131.4740   96762316.3770
  92730218.5040
  20793442.020    20793446.760                   109270418.7440   85145874.9370

  21449851.900    21449857.560    21449861.440   112720184.8310   87834116.5580
  84174113.9960
  22622865.400    22622875.920    22622879.640   118884592.8710   92637414.5140
  88777180.3460
  20320268.560    20320276.700    20320275.420   106783886.3510   83208340.8740
  79741337.4670
  21397678.120    21397686.660    21397687.280   112445855.6760   87620280.7610
  83969360.7410
  24099121.120    24099147.300                   126641359.5690   98681500.0690

 23  3  6 16  4 53.0000000  0 10G02G08G10G16G18G23G26G27G28G31
  25406407.820    25406416.220                   133511798.2740  104035322.9960

  24060987.760    24061004.920    24061005.580   126441425.9530   98525886.2670
  94420603.1600
  23629669.900    23629699.940    23629694.140   124175155.0430   96759997.1150
  92727995.8860
  20793154.080    20793158.820                   109268905.6140   85144695.8750

  21450255.680    21450261.340    21450265.220   112722306.6670   87835769.9340
  84175698.4900
  22622512.640    22622523.140    22622526.880   118882739.1040   92635970.0290
  88775796.0600
  20320441.220    20320449.360    20320448.080   106784793.7330   83209047.9220
  79742015.0600
  21397359.760    21397368.300    21397368.920   112444182.6880   87618977.1360
  83968111.4400
  24745402.000

  24099780.080    24099806.240                   126644822.0830   98684198.0590

 23  3  6 16  4 54.0000000  0 10G02G08G10G16G18G23G26G27G28G31
  25407021.900    25407030.320                   133515025.4540  104037837.6780

  24060494.520    24060511.620    24060512.320   126438833.8070   98523866.4230
  94418667.4880
  23629103.640    23629133.660    23629127.880   124172179.5560   96757678.5860
  92725773.9790
  20792866.380    20792871.120                   109267393.7380   85143517.7910

  21450659.700    21450665.340    21450669.240   112724429.7780   87837424.3040
  84177283.9240
  22622160.120    22622170.640    22622174.360   118880886.6410   92634526.5610
  88774412.7410
  20320614.160    20320622.300    20320621.000   106785702.4630   83209756.0230
  79742693.6560
  21397041.600    21397050.160    21397050.760   112442510.7980   87617674.3690
  83966862.9470
  24746085.600

  24100439.200    24100465.360                   126648285.4660   98686896.7270

 23  3  6 16  4 55.0000000  0 10G02G08G10G16G18G23G26G27G28G31
  25407636.280    25407644.740                   133518254.0270  104040353.4510

  24060001.520    24060018.600    24060019.340   126436243.1960   98521847.7640
  94416732.9440
  23628537.700    23628567.660    23628561.920   124169205.6180   96755361.2650
  92723553.2210
  20792579.020    20792583.760                   109265883.6770   85142341.1230

  21451064.060    21451069.700    21451073.600   112726554.7010   87839080.0870
  84178870.7190
  22621807.960    22621818.500    22621822.200   118879036.0570   92633084.5580
  88773030.8150
  20320787.440    20320795.600    20320794.300   106786613.1110   83210465.6170
  79743373.6820
  21396723.760    21396732.320    21396732.900   112440840.5410   87616372.8720
  83965615.6840
  24746769.360                                   130045150.6351

  24101098.600    24101124.760                   126651750.3060   98689596.5310

 23  3  6 16  4 56.0000000  0 10G02G08G10G16G18G23G26G27G28G31
  25408250.560    25408259.020                   133521482.0850  104042868.8210

  24059508.460    24059525.560    24059526.280   126433652.1400   98519828.7600
  94414798.0860
  23627971.680    23628001.620    23627995.900   124166231.3180   96753043.6630
  92721332.2000
  20792291.660    20792296.380                   109264373.5320   85141164.3880

  21451468.400    21451474.040    21451477.940   112728679.5410   87840735.8060
  84180457.4560
  22621455.800    22621466.340    22621470.040   118877185.4360   92631642.5230
  88771648.8630
  20320960.740    20320968.880    20320967.600   106787523.7580   83211175.2130
  79744053.7070
  21396405.880    21396414.420    21396415.000   112439170.0150   87615071.1650
  83964368.2150
  24747453.080                                   130048743.7680

  24101757.900    24101784.040                   126655214.6380   98692295.9380

 23  3  6 16  4 57.0000000  0 10G02G08G10G16G18G23G26G27G28G31
  25408864.680    25408873.140                   133524709.3730  104045383.5930

  24059015.240    24059032.340    24059033.080   126431060.3980   98517809.2290
  94412862.7010
  23627405.520    23627435.440    23627429.740   124163256.3980   96750725.5780
  92719110.7020
  20792004.200    20792008.940                   109262863.0250   85139987.3720

  21451872.680    21451878.320    21451882.220   112730804.0540   87842391.2670
  84182043.9320
  22621103.580    22621114.120    22621117.820   118875334.5100   92630200.2450
  88770266.6860
  20321133.980    20321142.140    20321140.840   106788434.1560   83211884.6100
  79744733.5500
  21396087.880    21396096.440    21396097.020   112437498.9660   87613769.0540
  83963120.3620
  24748136.600                                   130052335.9740

  24102417.060    24102443.220                   126658678.2530   98694994.7900

 23  3  6 16  4 58.0000000  0 10G02G08G10G16G18G23G26G27G28G31
  25409478.720    25409487.180                   133527936.0910  104047897.9120

  24058521.960    24058539.040    24058539.820   126428468.2420   98515789.3770
  94410927.0130
  23626839.320    23626869.200    23626863.520   124160281.0620   96748407.1700
  92716888.9120
  20791716.740    20791721.480                   109261352.4100   85138810.2690

  21452276.940    21452282.580    21452286.480   112732928.4520   87844046.6400
  84183630.3250
  22620751.320    22620761.880    22620765.580   118873483.5020   92628757.9120
  88768884.4520
  20321307.220    20321315.380    20321314.080   106789344.5200   83212593.9860
  79745413.3630
  21395769.840    21395778.400    21395778.960   112435827.6230   87612466.7100
  83961872.2760
  24748820.080                                   130055927.7070

  24103076.100    24103102.280                   126662141.3500   98697693.2350

 23  3  6 16  4 59.0000000  0  9G02G08G10G16G18G23G26G27G31
  25410092.740    25410101.240                   133531162.9140  104050412.3200

  24058028.740    24058045.800    24058046.580   126425876.3140   98513769.7070
  94408991.4880
  23626273.140    23626302.980    23626297.340   124157305.9950   96746088.9710
  92714667.3100
  20791429.380    20791434.120                   109259842.3260   85137633.5800

  21452681.300    21452686.940    21452690.860   112735053.3940   87845702.4410
  84185217.1360
  22620399.200    22620409.740    22620413.460   118871633.1050   92627316.0480
  88767502.6660
  20321480.560    20321488.740    20321487.440   106790255.5310   83213303.8620
  79746093.6630
  21395451.860    21395460.420    21395460.960   112434156.6480   87611164.6580
  83960624.4770
  24103735.200    24103761.360                   126665604.6020   98700391.8020

 23  3  6 16  5  0.0000000  0  9G02G08G10G16G18G23G26G27G31
  25410706.780    25410715.280                   133534389.6980  104052926.7010

  24057535.500    24057552.580    24057553.360   126423284.4460   98511750.0850
  94407056.0070
  23625707.000    23625736.780    23625731.180   124154330.9900   96743770.8220
  92712445.7760
  20791142.080    20791146.820                   109258332.5990   85136457.1730

  21453085.740    21453091.360    21453095.280   112737178.7090   87847358.5260
  84186804.2180
  22620047.160    22620057.720    22620061.420   118869783.1090   92625874.5050
  88766121.1870
  20321654.020    20321662.200    20321660.880   106791166.9900   83214014.0910
  79746774.3020
  21395133.920    21395142.480    21395143.020   112432485.8540   87609862.7450
  83959376.8120
  24104394.280    24104420.460                   126669067.8570   98703090.3640

 23  3  6 16  5  1.0000000  0  9G02G08G10G16G18G23G26G27G31
  25411320.780    25411329.280                   133537616.3240  104055440.9570

  24057042.280    24057059.320    24057060.140   126420692.5420   98509730.4230
  94405120.5020
  23625140.860    23625170.600    23625165.020   124151356.0230   96741452.7010
  92710224.2430
  20790854.840    20790859.580                   109256823.1680   85135280.9940

  21453490.240    21453495.860    21453499.780   112739304.3290   87849014.8530
  84188391.5290
  22619695.180    22619705.740    22619709.440   118867933.4600   92624433.2320
  88764739.9750
  20321827.540    20321835.720    20321834.400   106792078.8520   83214724.6280
  79747455.2300
  21394816.000    21394824.580    21394825.100   112430815.1840   87608560.9280
  83958129.2380
  24105053.340    24105079.520                   126672530.9830   98705788.8340

 23  3  6 16  5  2.0000000  0  9G02G08G10G16G18G23G26G27G31
  25411934.620    25411943.160                   133540842.1880  104057954.6090

  24056548.920    24056565.980    24056566.780   126418099.9860   98507710.2560
  94403184.5280
  23624574.600    23624604.320    23624598.740   124148380.4590   96739134.1140
  92708002.2600
  20790567.560    20790572.300                   109255313.4490   85134104.5940

  21453894.660    21453900.300    21453904.200   112741429.6360   87850670.9390
  84189978.6110
  22619343.160    22619353.700    22619357.420   118866083.5640   92622991.7650
  88763358.5630
  20322001.020    20322009.200    20322007.880   106792990.4850   83215434.9920
  79748135.9970
  21394497.980    21394506.560    21394507.060   112429144.0220   87607258.7300
  83956881.2980
  24105712.280    24105738.480                   126675993.4130   98708486.7600

 23  3  6 16  5  3.0000000  0  9G02G08G10G16G18G23G26G27G31
  25412548.340    25412556.860                   133544067.3240  104060467.6890

  24056055.460    24056072.460    24056073.320   126415506.7970   98505689.5970
  94401248.0490
  23624008.200    23624037.880    23624032.360   124145404.2590   96736815.0320
  92705779.8340
  20790280.180    20790284.940                   109253803.3620   85132927.9040

  21454299.040    21454304.680    21454308.580   112743554.6150   87852326.7670
  84191565.4520
  22618991.080    22619001.620    22619005.340   118864233.3680   92621550.0580
  88761976.9320
  20322174.460    20322182.620    20322181.320   106793901.8760   83216145.1670
  79748816.5790
  21394179.880    21394188.460    21394188.960   112427472.3500   87605956.1330
  83955632.9780
  24106371.080    24106397.240                   126679455.1360   98711184.1350

 23  3  6 16  5  4.0000000  0  9G02G08G10G16G18G23G26G27G31
  25413161.860    25413170.380                   133547291.4980  104062980.0330

  24055561.820    24055578.860    24055579.680   126412912.7930   98503668.3080
  94399310.9820
  23623441.660    23623471.320    23623465.800   124142427.3050   96734495.3630
  92703556.8250
  20789992.740    20789997.480                   109252292.7920   85131750.8390

  21454703.320    21454708.960    21454712.860   112745679.1150   87853982.2210
  84193151.9200
  22618638.900    22618649.460    22618653.180   118862382.7310   92620108.0040
  88760594.9760
  20322347.820    20322355.980    20322354.660   106794812.8810   83216855.0390
  79749496.8710
  21393861.640    21393870.240    21393870.700   112425800.0220   87604653.0240
  83954384.1570
  24107029.720    24107055.880                   126682915.9660   98713880.8120

 23  3  6 16  5  5.0000000  0  9G02G08G10G16G18G23G26G27G31
  25413775.280    25413783.820                   133550515.1630  104065491.9820

  24055068.100    24055085.120    24055085.980   126410318.3270   98501646.6520
  94397373.5890
  23622875.060    23622904.700    23622899.180   124139449.9540   96732175.3820
  92701333.5220
  20789705.260    20789710.000                   109250782.1220   85130573.6970

  21455107.580    21455113.200    21455117.120   112747803.5050   87855637.5900
  84194738.3190
  22618286.720    22618297.280    22618301.020   118860532.0390   92618665.9140
  88759212.9720
  20322521.180    20322529.340    20322528.020   106795723.8600   83217564.8920
  79750177.1460
  21393543.340    21393551.940    21393552.400   112424127.4020   87603349.6900
  83953135.1310
  24107688.240    24107714.420                   126686376.3180   98716577.1180

 23  3  6 16  5  6.0000000  0  9G02G08G10G16G18G23G26G27G31
  25414388.620    25414397.140                   133553738.2580  104068003.4800

  24054574.300    24054591.340    24054592.200   126407723.4820   98499624.7010
  94395435.8850
  23622308.400    23622338.000    23622332.500   124136472.2120   96729855.0980
  92699109.9270
  20789417.760    20789422.520                   109249271.3300   85129396.4570

  21455511.820    21455517.440    21455521.360   112749927.7960   87857292.8840
  84196324.6440
  22617934.540    22617945.080    22617948.820   118858681.2870   92617223.7730
  88757830.9200
  20322694.520    20322702.700    20322701.380   106796634.8260   83218274.7340
  79750857.4100
  21393225.000    21393233.600    21393234.040   112422454.4850   87602046.1200
  83951885.8790
  24108346.680    24108372.860                   126689836.1540   98719273.0210

 23  3  6 16  5  7.0000000  0  9G02G08G10G16G18G23G26G27G31
  25415001.900    25415010.400                   133556961.1390  104070514.8180

  24054080.500    24054097.480    24054098.380   126405128.4900   98497602.6400
  94393498.0600
  23621741.700    23621771.280    23621765.780   124133494.3780   96727534.7450
  92696886.2470
  20789130.300    20789135.040                   109247760.7150   85128219.3560

  21455916.080    21455921.720    21455925.620   112752052.2750   87858948.3200
  84197911.0980
  22617582.400    22617592.940    22617596.680   118856830.7650   92615781.8210
  88756449.0390
  20322867.940    20322876.100    20322874.780   106797546.0670   83218984.7900
  79751537.8810
  21392906.660    21392915.280    21392915.680   112420781.5790   87600742.5630
  83950636.6380
  24109005.080    24109031.260                   126693295.7670   98721968.7540

 23  3  6 16  5  8.0000000  0  9G02G08G10G16G18G23G26G27G31
  25415615.160    25415623.680                   133560183.8320  104073026.0180

  24053586.660    24053603.660    24053604.540   126402533.4410   98495580.5400
  94391560.2200
  23621175.020    23621204.520    23621199.080   124130516.5230   96725214.3750
  92694662.5790
  20788842.880    20788847.640                   109246250.3810   85127042.4730

  21456320.420    21456326.060    21456329.960   112754177.0410   87860603.9820
  84199497.7770
  22617230.320    22617240.840    22617244.600   118854980.5590   92614340.1080
  88755067.4210
  20323041.400    20323049.580    20323048.260   106798457.6850   83219695.1390
  79752218.6380
  21392588.320    21392596.960    21392597.360   112419108.7930   87599439.0980
  83949387.4840
  24109663.440    24109689.640                   126696755.2750   98724664.4050

 23  3  6 16  5  9.0000000  0  9G02G08G10G16G18G23G26G27G31
  25416228.420    25416236.920                   133563406.4820  104075537.1760

  24053092.800    24053109.840    24053110.740   126399938.4470   98493558.4680
  94389622.4220
  23620608.340    23620637.820    23620632.380   124127538.7650   96722894.0790
  92692438.9740
  20788555.540    20788560.300                   109244740.4180   85125865.8780

  21456724.820    21456730.460    21456734.360   112756302.1700   87862259.9260
  84201084.7180
  22616878.300    22616888.840    22616892.600   118853130.7920   92612898.7370
  88753686.0940
  20323214.960    20323223.140    20323221.820   106799369.7640   83220405.8460
  79752899.7310
  21392270.040    21392278.680    21392279.040   112417436.1810   87598135.7660
  83948138.4580
  24110321.820    24110348.020                   126700214.7760   98727360.0430

 23  3  6 16  5 10.0000000  0  9G02G08G10G16G18G23G26G27G31
  25416841.640    25416850.160                   133566629.0880  104078048.2930

  24052599.000    24052616.060    24052616.940   126397343.5920   98491536.5160
  94387684.7110
  23620041.680    23620071.120    23620065.700   124124561.1250   96720573.8770
  92690215.4530
  20788268.280    20788273.040                   109243230.8750   85124689.6150

  21457129.300    21457134.920    21457138.840   112758427.7420   87863916.2120
  84202671.9940
  22616526.400    22616536.920    22616540.700   118851281.4900   92611457.7310
  88752305.1350
  20323388.620    20323396.800    20323395.480   106800282.3640   83221116.9630
  79753581.2200
  21391951.800    21391960.440    21391960.780   112415763.8270   87596832.6350
  83946889.6190
  24110980.180    24111006.400                   126703674.2890   98730055.7000

 23  3  6 16  5 11.0000000  0  9G02G08G10G16G18G23G26G27G31
  25417455.040    25417463.580                   133569852.5140  104080560.0530

  24052105.340    24052122.460    24052123.300   126394749.5850   98489515.2200
  94385747.6560
  23619475.220    23619504.620    23619499.220   124121584.4260   96718254.4080
  92687992.6300
  20787981.260    20787986.000                   109241722.5350   85123514.2850

  21457534.020    21457539.640    21457543.560   112760554.5260   87865573.4440
  84204260.1690
  22616174.740    22616185.240    22616189.040   118849433.4540   92610017.7090
  88750925.1070
  20323562.540    20323570.700    20323569.380   106801196.2600   83221829.0870
  79754263.6660
  21391633.740    21391642.400    21391642.720   112414092.4940   87595530.3000
  83945641.5520
  24111638.700    24111664.940                   126707134.6430   98732752.0060

 23  3  6 16  5 12.0000000  0  9G02G08G10G16G18G23G26G27G31
  25418068.740    25418077.300                   133573077.5000  104083073.0340

  24051612.020    24051629.160    24051630.020   126392157.3550   98487495.3070
  94383811.8880
  23618909.060    23618938.440    23618933.040   124118609.4850   96715936.3070
  92685771.1090
  20787694.620    20787699.360                   109240216.2290   85122340.5400

  21457939.120    21457944.740    21457948.660   112762683.3430   87867232.2590
  84205849.8650
  22615823.460    22615833.960    22615837.760   118847587.4920   92608579.3030
  88749546.6360
  20323736.840    20323745.020    20323743.700   106802112.2810   83222542.8680
  79754947.7000
  21391316.040    21391324.700    21391325.020   112412423.0190   87594229.4120
  83944394.8710
  24112297.560    24112323.780                   126710596.6030   98735449.5660

 23  3  6 16  5 13.0000000  0  9G02G08G10G16G18G23G26G27G31
  25418682.560    25418691.060                   133576303.1570  104085586.5280

  24051118.860    24051136.000    24051136.860   126389565.8370   98485475.9620
  94381876.7000
  23618343.080    23618372.400    23618367.040   124115635.3420   96713618.8260
  92683550.2010
  20787408.180    20787412.940                   109238711.0290   85121167.6590

  21458344.440    21458350.040    21458353.960   112764813.2720   87868891.9400
  84207440.3960
  22615472.400    22615482.900    22615486.700   118845742.6800   92607141.7950
  88748169.0280
  20323911.380    20323919.560    20323918.240   106803029.5000   83223257.5820
  79755632.6420
  21390998.540    21391007.200    21391007.500   112410754.4850   87592929.2580
  83943148.8890
  24112956.560    24112982.760                   126714059.3030   98738147.7000

 23  3  6 16  5 14.0000000  0  9G02G08G10G16G18G23G26G27G31
  25419296.360    25419304.880                   133579528.7530  104088099.9900

  24050625.720    24050642.840    24050643.720   126386974.4080   98483456.6800
  94379941.5580
  23617777.100    23617806.420    23617801.040   124112661.3150   96711301.4370
  92681329.3860
  20787121.820    20787126.580                   109237206.2050   85119995.0690

  21458749.840    21458755.440    21458759.360   112766943.5770   87870551.9170
  84209031.2120
  22615121.420    22615131.920    22615135.740   118843898.3040   92605704.6300
  88746791.7530
  20324086.020    20324094.200    20324092.880   106803947.2020   83223972.6730
  79756317.9380
  21390681.060    21390689.720    21390690.000   112409086.1370   87591629.2490
  83941903.0550
  24113615.540    24113641.740                   126717521.9750   98740845.8120

 23  3  6 16  5 15.0000000  0  9G02G08G10G16G18G23G26G27G31
  25419910.200    25419918.740                   133582754.5510  104090613.6050

  24050132.640    24050149.760    24050150.620   126384383.2450   98481437.6030
  94378006.6120
  23617211.200    23617240.460    23617235.120   124109687.6040   96708984.2960
  92679108.8100
  20786835.580    20786840.320                   109235701.9830   85118822.9500

  21459155.340    21459160.940    21459164.860   112769074.4990   87872212.3760
  84210622.4870
  22614770.560    22614781.080    22614784.900   118842054.5780   92604267.9640
  88745414.9500
  20324260.800    20324268.960    20324267.640   106804865.5960   83224688.3000
  79757003.7530
  21390363.660    21390372.340    21390372.600   112407418.2230   87590329.5810
  83940657.5390
  24114274.560    24114300.760                   126720984.8510   98743544.0860

 23  3  6 16  5 16.0000000  0  9G02G08G10G16G18G23G26G27G31
  25420524.080    25420532.620                   133585980.4730  104093127.3100

  24049639.600    24049656.720    24049657.580   126381792.3680   98479418.7550
  94376071.8740
  23616645.360    23616674.600    23616669.260   124106714.2080   96706667.3990
  92676888.4500
  20786549.440    20786554.200                   109234198.3440   85117651.2850

  21459560.960    21459566.560    21459570.480   112771206.0070   87873873.2880
  84212214.1920
  22614419.840    22614430.340    22614434.160   118840211.4950   92602831.8060
  88744038.6240
  20324435.680    20324443.860    20324442.540   106805784.6570   83225404.4520
  79757690.0590
  21390046.360    21390055.020    21390055.260   112405750.7190   87589030.2300
  83939412.3240
  24114933.600    24114959.820                   126724447.9360   98746242.5230

 23  3  6 16  5 17.0000000  0  9G02G08G10G16G18G23G26G27G31
  25421137.960    25421146.460                   133589206.3970  104095641.0160

  24049146.580    24049163.680    24049164.560   126379201.5930   98477399.9800
  94374137.2190
  23616079.520    23616108.720    23616103.420   124103740.9690   96704350.6260
  92674668.2080
  20786263.380    20786268.140                   109232695.1490   85116479.9660

  21459966.660    21459972.260    21459976.180   112773337.9570   87875534.5450
  84213806.2320
  22614069.180    22614079.680    22614083.540   118838368.8930   92601396.0180
  88742662.6590
  20324610.680    20324618.840    20324617.540   106806704.2540   83226121.0190
  79758376.7690
  21389729.080    21389737.760    21389737.980   112404083.4650   87587731.0760
  83938167.3030
  24115592.660    24115618.880                   126727911.0670   98748940.9960

 23  3  6 16  5 18.0000000  0  9G02G08G10G16G18G23G26G27G31
  25421751.800    25421760.300                   133592432.1930  104098154.6170

  24048653.540    24048670.660    24048671.540   126376610.8210   98475381.1920
  94372202.5360
  23615513.720    23615542.880    23615537.580   124100767.7620   96702033.8760
  92672447.9950
  20785977.400    20785982.160                   109231192.2720   85115308.8950

  21460372.400    21460378.000    21460381.940   112775470.2370   87877196.0620
  84215398.5190
  22613718.620    22613729.100    22613732.980   118836526.6480   92599960.5070
  88741286.9800
  20324785.760    20324793.920    20324792.600   106807624.2740   83226837.9180
  79759063.7930
  21389411.840    21389420.520    21389420.720   112402416.3620   87586432.0400
  83936922.3960
  24116251.720    24116277.940                   126731374.1220   98751639.4090

 23  3  6 16  5 19.0000000  0  9G02G08G10G16G18G23G26G27G31
  25422365.440    25422373.960                   133595656.9080  104100667.3760

  24048160.340    24048177.480    24048178.340   126374019.0140   98473361.6120
  94370267.1310
  23614947.720    23614976.860    23614971.580   124097793.5930   96699716.3790
  92670227.0840
  20785691.280    20785696.040                   109229688.7240   85114137.3020

  21460778.040    21460783.640    21460787.580   112777601.8560   87878857.0640
  84216990.3120
  22613367.920    22613378.420    22613382.300   118834683.8070   92598524.5290
  88739910.8360
  20324960.720    20324968.880    20324967.580   106808543.7060   83227554.3580
  79759750.3880
  21389094.460    21389103.120    21389103.320   112400748.4220   87585132.3480
  83935676.8600
  24116910.580    24116936.780                   126734836.0920   98754336.9720

 23  3  6 16  5 20.0000000  0  9G02G08G10G16G18G23G26G27G31
  25422978.940    25422987.460                   133598880.9410  104103179.6190

  24047667.020    24047684.200    24047685.020   126371426.6660   98471341.6070
  94368331.2980
  23614381.640    23614410.740    23614405.460   124094818.9120   96697398.4840
  92668005.7720
  20785405.120    20785409.880                   109228184.9250   85112965.5150

  21461183.640    21461189.220    21461193.180   112779733.2060   87880517.8520
  84218581.9050
  22613017.200    22613027.700    22613031.560   118832840.7530   92597088.3930
  88738534.5420
  20325135.640    20325143.820    20325142.500   106809462.9800   83228270.6730
  79760436.8560
  21388776.960    21388785.640    21388785.820   112399080.0220   87583832.3020
  83934430.9890
  24117569.320    24117595.520                   126738297.4530   98757034.0620

 23  3  6 16  5 21.0000000  0  9G02G08G10G16G18G23G26G27G31
  25423592.420    25423600.920                   133602104.7660  104105691.6970

  24047173.700    24047190.860    24047191.680   126368834.2390   98469321.5400
  94366395.3910
  23613815.540    23613844.600    23613839.340   124091844.1760   96695080.5450
  92665784.4080
  20785119.000    20785123.760                   109226681.3410   85111793.8930

  21461589.260    21461594.840    21461598.800   112781864.7980   87882178.8330
  84220173.6710
  22612666.520    22612677.040    22612680.900   118830997.9750   92595652.4680
  88737158.4410
  20325310.640    20325318.800    20325317.500   106810382.5740   83228987.2400
  79761123.5610
  21388459.480    21388468.160    21388468.320   112397411.6900   87582532.3090
  83933185.1550
  24118228.000    24118254.240                   126741758.6240   98759731.0070

 23  3  6 16  5 22.0000000  0  9G02G08G10G16G18G23G26G27G31
  25424205.860    25424214.420                   133605328.4440  104108203.6580

  24046680.360    24046697.540    24046698.360   126366241.8300   98467301.4870
  94364459.5110
  23613249.440    23613278.460    23613273.240   124088869.4580   96692762.6200
  92663563.0960
  20784832.940    20784837.700                   109225178.0990   85110622.5370

  21461994.960    21462000.560    21462004.500   112783996.7240   87883840.0740
  84221765.6930
  22612315.920    22612326.420    22612330.300   118829155.5810   92594216.8470
  88735782.6310
  20325485.700    20325493.880    20325492.580   106811302.5940   83229704.1370
  79761810.5880
  21388142.040    21388150.720    21388150.860   112395743.5130   87581232.4350
  83931939.4380
  24118886.680    24118912.900                   126745219.7350   98762427.9070

 23  3  6 16  5 23.0000000  0  9G02G08G10G16G18G23G26G27G31
  25424819.300    25424827.880                   133608552.1720  104110715.6510

  24046187.080    24046204.240    24046205.060   126363649.5520   98465281.5330
  94362523.7370
  23612683.380    23612712.360    23612707.160   124085894.9470   96690444.8560
  92661341.9000
  20784546.960    20784551.720                   109223675.3030   85109451.5300

  21462400.740    21462406.340    21462410.280   112786129.1020   87885501.6670
  84223358.0590
  22611965.420    22611975.900    22611979.800   118827313.6700   92592781.5980
  88734407.2070
  20325660.880    20325669.040    20325667.760   106812223.1530   83230421.4550
  79762498.0150
  21387824.640    21387833.340    21387833.460   112394075.6070   87579932.7720
  83930693.9320
  24119545.380    24119571.600                   126748680.9140   98765124.8540

 23  3  6 16  5 24.0000000  0  9G02G08G10G16G18G23G26G27G31
  25425432.740    25425441.360                   133611775.8680  104113227.6200

  24045693.800    24045710.980    24045711.780   126361057.3480   98463261.6400
  94360588.0000
  23612117.340    23612146.300    23612141.100   124082920.5210   96688127.1560
  92659120.7710
  20784261.060    20784265.820                   109222172.8940   85108280.8230

  21462806.600    21462812.180    21462816.140   112788261.8760   87887163.5670
  84224950.7060
  22611615.000    22611625.460    22611629.380   118825472.2210   92591346.7090
  88733032.0900
  20325836.160    20325844.320    20325843.020   106813144.1980   83231139.1500
  79763185.8020
  21387507.300    21387515.980    21387516.100   112392407.9190   87578633.2770
  83929448.5760
  24120204.080    24120230.280                   126752142.0750   98767821.7910

 23  3  6 16  5 25.0000000  0  9G02G08G10G16G18G23G26G27G31
  25426046.220    25426054.840                   133614999.7660  104115739.7450

  24045200.540    24045217.740    24045218.560   126358465.4730   98461242.0130
  94358652.5380
  23611551.380    23611580.280    23611575.100   124079946.4810   96685809.7620
  92656899.9440
  20783975.280    20783980.060                   109220671.1490   85107110.6370

  21463212.580    21463218.160    21463222.140   112790395.3180   87888825.9870
  84226543.8540
  22611264.720    22611275.160    22611279.120   118823631.4740   92589912.3670
  88731657.5300
  20326011.580    20326019.720    20326018.440   106814065.9990   83231857.4350
  79763874.1620
  21387190.040    21387198.720    21387198.820   112390740.7060   87577334.1560
  83928203.5920
  24120862.820    24120889.040                   126755603.5120   98770518.9360

 23  3  6 16  5 26.0000000  0  9G02G08G10G16G18G23G26G27G31
  25426659.720    25426668.340                   133618223.8120  104118251.9970

  24044707.360    24044724.560    24044725.380   126355873.8340   98459222.5720
  94356717.2250
  23610985.460    23611014.320    23611009.180   124076972.7010   96683492.5670
  92654679.3100
  20783689.620    20783694.380                   109219169.9770   85105940.8920

  21463618.660    21463624.260    21463628.240   112792529.3230   87890488.8460
  84228137.4410
  22610914.560    22610924.980    22610928.940   118821791.3630   92588478.5180
  88730283.4150
  20326187.120    20326195.260    20326193.980   106814988.4710   83232576.2420
  79764563.0270
  21386872.840    21386881.540    21386881.640   112389073.8930   87576035.3430
  83926958.9010
  24121521.600    24121547.820                   126759065.1450   98773216.2440

 23  3  6 16  5 27.0000000  0  9G02G08G10G16G18G23G26G27G31
  25427273.200    25427281.800                   133621447.6840  104120764.1110

  24044214.180    24044231.380    24044232.180   126353282.1320   98457203.0770
  94354781.8590
  23610419.540    23610448.360    23610443.240   124073998.9190   96681175.3670
  92652458.6570
  20783404.000    20783408.780                   109217669.0710   85104771.3570

  21464024.820    21464030.400    21464034.380   112794663.6180   87892151.9290
  84229731.2150
  22610564.440    22610574.880    22610578.840   118819951.5700   92587044.9210
  88728909.5430
  20326362.720    20326370.880    20326369.580   106815911.2970   83233295.3280
  79765252.1430
  21386555.680    21386564.380    21386564.460   112387407.1820   87574736.6120
  83925714.2740
  24122180.360    24122206.580                   126762526.6560   98775913.4530

