     2.11           OBSERVATION DATA    M (MIXED)           RINEX VERSION / TYPE
Mdb2Rinex 5.6.29X   Unknown             20230309 235853 UTC PGM / RUN BY / DATE
gfzrnx-1.15-8044    HEADER EDIT         20230302 033721 UTC COMMENT
SNR is mapped to RINEX snr flag value [1-9]                 COMMENT
LX:     < 12dBHz -> 1; 12-17dBHz -> 2; 18-23dBHz -> 3       COMMENT
       24-29dBHz -> 4; 30-35dBHz -> 5; 36-41dBHz -> 6       COMMENT
       42-47dBHz -> 7; 48-53dBHz -> 8; >= 54dBHz -> 9       COMMENT
Map of observations from RINEX 3 to RINEX 2.11              COMMENT
 G: C1C->C1 C2W->P2 C5Q->C5 L1C->L1 L2W->L2 L5Q->L5         COMMENT
MAD1                                                        MARKER NAME
IGN & CAM           Unknown                                 OBSERVER / AGENCY
1833575             LEICA GR50          4.61/7.811          REC # / TYPE / VERS
Unknown             LEIAR20         LEIM                    ANT # / TYPE
  4854006.8637  -312714.6848  4112992.0029                  APPROX POSITION XYZ
        0.0350        0.0000        0.0000                  ANTENNA: DELTA H/E/N
     6    C1    P2    C5    L1    L2    L5                  # / TYPES OF OBSERV
    30.000                                                  INTERVAL
  2023    03    01    00    00   00.0000000     GPS         TIME OF FIRST OBS
  2023    03    01    23    59   30.0000000     GPS         TIME OF LAST OBS
    32                                                      # OF SATELLITES
   G01   905   905   906   903   903   906                  PRN / # OF OBS
   G02  1147  1140        1143  1140                        PRN / # OF OBS
   G03   873   865   865   864   856   865                  PRN / # OF OBS
   G04   982   978   984   977   976   984                  PRN / # OF OBS
   G05  1022  1021        1017  1017                        PRN / # OF OBS
   G06  1055  1055  1059  1048  1048  1059                  PRN / # OF OBS
   G07  1104  1089        1095  1083                        PRN / # OF OBS
   G08   865   864   866   862   862   866                  PRN / # OF OBS
   G09   828   828   818   826   826   818                  PRN / # OF OBS
   G10  1064  1061  1058  1060  1058  1058                  PRN / # OF OBS
   G11  1101  1099  1103  1100  1099  1103                  PRN / # OF OBS
   G12   868   868         867   867                        PRN / # OF OBS
   G13   899   891         892   891                        PRN / # OF OBS
   G14  1147  1144  1150  1144  1142  1150                  PRN / # OF OBS
   G15   835   835         834   834                        PRN / # OF OBS
   G16   879   827         863   821                        PRN / # OF OBS
   G17  1127  1127        1127  1127                        PRN / # OF OBS
   G18  1028  1024  1009  1025  1022  1009                  PRN / # OF OBS
   G19  1145  1143        1141  1140                        PRN / # OF OBS
   G20   934   896         914   888                        PRN / # OF OBS
   G21   945   942         940   939                        PRN / # OF OBS
   G22     1                 1                              PRN / # OF OBS
   G23  1102  1097  1098  1096  1094  1098                  PRN / # OF OBS
   G24   860   860   868   859   859   868                  PRN / # OF OBS
   G25   900   899   904   893   893   904                  PRN / # OF OBS
   G26   812   811   814   811   810   814                  PRN / # OF OBS
   G27   901   900   904   900   899   904                  PRN / # OF OBS
   G28   970   964   979   962   958   979                  PRN / # OF OBS
   G29   963   960         962   960                        PRN / # OF OBS
   G30   990   987   993   979   978   993                  PRN / # OF OBS
   G31   996   995         992   992                        PRN / # OF OBS
   G32  1112  1112  1109  1109  1109  1109                  PRN / # OF OBS
                                                            END OF HEADER
 23  3  1  0  0  0.0000000  0  9G01G03G04G06G09G17G19G21G28
  22401955.880    22401957.660    22401957.320   117723207.8240   91732456.5700
  87910364.4260
  21176031.300    21176031.460    21176031.760   111281029.4510   86712618.5000
  83099874.6280
  20434778.320    20434777.200    20434781.600   107385995.2410   83677369.5700
  80190814.5760
  22499908.020    22499908.860    22499909.480   118237825.3630   92133381.9830
  88294511.1830
  21609125.960    21609126.260    21609127.160   113556916.4500   88486085.1030
  84799270.0420
  21333652.820    21333650.860                   112109157.6180   87357789.6860

  21331799.480    21331795.800                   112099375.1570   87350148.8430

  24326936.940    24326935.660                   127839356.1870   99615026.1810

  25263618.980    25263616.420    25263620.880   132761228.6520  103450289.3950
  99139900.5770
 23  3  1  0  0 30.0000000  0  9G01G03G04G06G09G17G19G21G28
  22418185.280    22418187.180    22418186.900   117808494.4860   91798913.6700
  87974052.4820
  21185581.880    21185582.060    21185582.380   111331218.0300   86751726.4750
  83137353.1110
  20431247.580    20431246.380    20431250.820   107367440.9720   83662911.7060
  80176959.1230
  22483491.200    22483492.160    22483492.800   118151554.6860   92066158.1010
  88230088.2970
  21593692.960    21593693.200    21593694.100   113475815.4410   88422889.5330
  84738707.6260
  21340425.980    21340424.040                   112144750.7590   87385524.5850

  21328145.780    21328142.060                   112080174.7680   87335187.4990

  24342729.800    24342728.840                   127922349.4880   99679696.2220

  25273807.820    25273805.280    25273809.700   132814771.3290  103492010.9790
  99179883.7750
 23  3  1  0  1  0.0000000  0  9G01G03G04G06G09G17G19G21G28
  22434465.540    22434467.360    22434467.140   117894047.4120   91865578.2610
  88037939.3700
  21195172.440    21195172.620    21195173.120   111381616.8680   86790998.2910
  83174988.5890
  20427823.400    20427822.200    20427826.600   107349446.8340   83648890.3110
  80163521.9500
  22467102.340    22467103.420    22467104.060   118065431.1050   91999048.8380
  88165775.2530
  21578333.560    21578333.700    21578334.580   113395101.1880   88359995.3310
  84678434.0090
  21347298.200    21347296.260                   112180864.5790   87413665.2050

  21324616.260    21324612.440                   112061626.9730   87320734.6650

  24358552.300    24358551.520                   128005498.0460   99744487.2800

  25284084.760    25284082.020    25284086.620   132868776.8030  103534093.1770
  99220212.5760
 23  3  1  0  1 30.0000000  0  9G01G03G04G06G09G17G19G21G28
  22450796.220    22450797.840    22450797.660   117979864.9600   91932449.0510
  88102023.8800
  21204802.720    21204802.880    21204803.720   111432224.4070   86830432.7350
  83212779.9310
  20424505.700    20424504.500    20424508.820   107332012.2560   83635304.9390
  80150502.6420
  22450741.740    22450742.900    22450743.540   117979455.9320   91932055.2190
  88101573.0380
  21563047.980    21563047.960    21563048.880   113314774.8130   88297403.3650
  84618450.0490
  21354269.120    21354267.160                   112217497.1080   87442210.0170

  21321210.920    21321207.060                   112043731.7750   87306790.3530

  24374404.360    24374403.520                   128088800.1930   99809398.0420

  25294449.180    25294446.320    25294451.280   132923242.7680  103576534.2280
  99260885.2000
 23  3  1  0  2  0.0000000  0  9G01G03G04G06G09G17G19G21G28
  22467177.440    22467178.880    22467178.720   118065948.1370   91999526.8320
  88166306.7390
  21214472.900    21214473.080    21214474.140   111483041.7350   86870030.6470
  83250727.9220
  20421294.880    20421293.700    20421297.880   107315139.2640   83622157.1660
  80137902.6880
  22434410.160    22434411.400    22434411.980   117893633.0860   91865180.2880
  88037484.5580
  21547836.940    21547836.760    21547837.820   113234840.0460   88235116.5430
  84558758.5200
  21361338.860    21361336.840                   112254648.6250   87471159.2360

  21317930.240    21317926.360                   112026491.5410   87293356.3960

  24390285.800    24390284.980                   128172256.8110   99874429.1610

  25304901.300    25304898.560    25304903.600   132978169.5070  103619334.2720
  99301901.9230
 23  3  1  0  2 30.0000000  0  9G01G03G04G06G09G17G19G21G28
  22483608.340    22483609.820    22483609.560   118152293.0890   92066808.5810
  88230785.0670
  21224182.340    21224182.600    21224183.540   111534065.0870   86909789.0990
  83288829.7740
  20418190.400    20418189.220    20418193.280   107298824.9810   83609444.7470
  80125719.9520
  22418107.420    22418108.700    22418109.260   117807961.6220   91798423.3220
  87973509.1280
  21532700.160    21532699.960    21532701.160   113155295.7950   88173134.0190
  84499358.6110
  21368506.540    21368504.420                   112292314.9060   87500509.5690

  21314773.780    21314769.900                   112009904.2970   87280431.2690

  24406196.140    24406194.980                   128255864.6650   99939578.1620

  25315440.380    25315437.660    25315442.740   133033552.4910  103662489.8550
  99343259.3450
 23  3  1  0  3  0.0000000  0  9G01G03G04G06G09G17G19G21G28
  22500089.280    22500090.700    22500090.280   118238900.2410   92134294.6410
  88295459.2110
  21233931.140    21233931.440    21233932.320   111585295.0950   86949708.5780
  83327085.9470
  20415192.520    20415191.280    20415195.300   107283070.9180   83597168.8640
  80113955.5640
  22401834.220    22401835.400    22401836.040   117722445.0170   91731787.0220
  87909649.3580
  21517638.340    21517638.120    21517639.440   113076145.2530   88111458.2790
  84440252.7050
  21375772.220    21375770.000                   112330496.1440   87530261.1620

  21311741.980    21311738.100                   111993972.0650   87268016.5410

  24422135.360    24422134.200                   128339624.2150  100004845.3610

  25326066.160    25326063.340    25326068.620   133089391.5100  103706000.7440
  99384957.3090
 23  3  1  0  3 30.0000000  0  9G01G03G04G06G09G17G19G21G28
  22516620.260    22516621.620    22516621.040   118325770.3310   92201985.5960
  88360329.6910
  21243719.400    21243719.660    21243720.600   111636732.5940   86989789.7430
  83365497.0600
  20412301.560    20412300.260    20412304.340   107267878.7650   83585330.8350
  80102610.7900
  22385591.060    22385592.280    22385592.860   117637086.9530   91665274.2700
  87845907.9720
  21502652.040    21502651.880    21502653.220   112997391.8910   88050092.0210
  84381443.3750
  21383135.940    21383133.660                   112369192.7640   87560414.3540

  21308835.300    21308831.420                   111978697.2820   87256114.1000

  24438103.440    24438102.240                   128423536.2880  100070231.4010

  25336778.740    25336776.040    25336781.160   133145686.5930  103749867.0520
  99426995.8140
 23  3  1  0  4  0.0000000  0  9G01G03G04G06G09G17G19G21G28
  22533200.080    22533201.480    22533200.840   118412898.0130   92269877.2690
  88425392.5410
  21253546.160    21253546.380    21253547.300   111688372.4060   87030028.5540
  83404059.2530
  20409516.700    20409515.380    20409519.520   107253244.2060   83573927.2930
  80091682.3940
  22369377.620    22369378.780    22369379.520   117551885.1180   91598883.2500
  87782283.2430
  21487740.820    21487740.740    21487742.020   112919033.1660   87989033.2750
  84322928.7450
  21390596.600    21390594.320                   112408398.8890   87590964.5590

  21306052.940    21306049.020                   111964075.7770   87244720.7110

  24454099.540    24454098.180                   128507595.6490  100135732.2040

  25347577.060    25347574.260    25347579.180   133202431.7770  103794084.0350
  99469370.4640
 23  3  1  0  4 30.0000000  0  9G01G03G04G06G09G17G19G21G28
  22549829.500    22549830.960    22549830.320   118500286.7960   92337972.3900
  88490650.3550
  21263412.120    21263412.320    21263413.240   111740218.1920   87070427.8610
  83442775.2600
  20406838.740    20406837.420    20406841.660   107239171.6490   83562961.6750
  80081173.6820
  22353195.220    22353196.260    22353197.140   117466845.9720   91532618.9930
  87718780.0040
  21472905.860    21472905.840    21472907.060   112841075.2800   87928286.8680
  84264713.4460
  21398154.900    21398152.560                   112448117.7500   87621914.3010

  21303395.960    21303392.020                   111950113.2420   87233840.8080

  24470124.280    24470123.120                   128591806.2470  100201350.8420

  25358461.480    25358458.680    25358463.540   133259629.7240  103838653.9140
  99512083.2620
 23  3  1  0  5  0.0000000  0  9G01G03G04G06G09G17G19G21G28
  22566508.180    22566509.560    22566509.100   118587934.0030   92406268.8860
  88556101.1510
  21273316.800    21273317.000    21273317.840   111792267.4760   87110985.7390
  83481643.2250
  20404267.420    20404266.120    20404270.420   107225659.4060   83552432.6660
  80071083.3860
  22337043.840    22337044.780    22337045.780   117381969.9000   91466481.8060
  87655398.5430
  21458147.180    21458147.240    21458148.440   112763518.3420   87867852.9010
  84206797.5660
  21405810.180    21405807.840                   112488346.1300   87653261.0670

  21300864.080    21300860.100                   111936808.1380   87223473.1760

  24486177.220    24486176.240                   128676165.3550  100267085.1810

  25369431.400    25369428.700    25369433.660   133317277.1220  103883573.9450
  99555131.5810
 23  3  1  0  5 30.0000000  0  9G01G03G04G06G09G17G19G21G28
  22583235.360    22583236.680    22583236.440   118675835.8560   92474763.8140
  88621742.1290
  21283259.520    21283259.720    21283260.460   111844516.6990   87151699.4170
  83520660.5050
  20401802.160    20401800.940    20401805.280   107212704.6580   83542338.0660
  80061409.4080
  22320923.340    22320924.180    22320925.320   117297256.1980   91400471.1430
  87592138.3330
  21443464.620    21443464.700    21443465.920   112686361.3150   87807730.5560
  84149180.3340
  21413561.620    21413559.300                   112529079.8170   87685001.5840

  21298456.860    21298452.880                   111924158.2780   87213616.1290

  24502257.740    24502256.780                   128760669.4070  100332932.4720

  25380486.120    25380483.360    25380488.360   133375369.5290  103928840.7290
  99598512.2510
 23  3  1  0  6  0.0000000  0  9G01G03G04G06G09G17G19G21G28
  22600011.840    22600013.180    22600013.060   118763996.4600   92543460.3640
  88687576.3170
  21293241.060    21293241.220    21293241.960   111896970.1220   87192572.2080
  83559830.2570
  20399443.960    20399442.820    20399447.160   107200312.4280   83532681.7950
  80052155.4750
  22304835.120    22304835.820    22304837.100   117212711.9990   91334592.5570
  87529004.7060
  21428859.440    21428859.580    21428860.780   112609610.9680   87747925.1070
  84091866.7940
  21421409.760    21421407.580                   112570322.2180   87717138.5020

  21296175.460    21296171.520                   111912169.6100   87204274.3050

  24518366.740    24518365.840                   128845322.7130  100398896.0320

  25391626.000    25391623.560    25391628.320   133433910.1270  103974456.7540
  99642227.5950
 23  3  1  0  6 30.0000000  0  9G01G03G04G06G09G17G19G21G28
  22616836.360    22616837.740    22616837.800   118852409.9040   92612353.9240
  88753599.3100
  21303260.400    21303260.580    21303261.260   111949622.0720   87233599.7020
  83599148.2680
  20397191.880    20397190.780    20397195.100   107188477.6730   83523459.9180
  80043317.8470
  22288778.600    22288779.320    22288780.560   117128334.4700   91268843.8540
  87465995.5210
  21414331.080    21414331.260    21414332.360   112533264.1520   87688434.1040
  84034854.5890
  21429353.520    21429351.480                   112612067.2430   87749667.0760

  21294019.000    21294015.040                   111900837.2630   87195443.8980

  24534503.020    24534502.120                   128930119.3580  100464971.3250

  25402850.000    25402847.360    25402852.300   133492892.3490  104020416.8970
  99686272.7330
 23  3  1  0  7  0.0000000  0  9G01G03G04G06G09G17G19G21G28
  22633709.540    22633710.760    22633710.960   118941078.5590   92681446.3580
  88819812.8860
  21313317.960    21313318.280    21313318.920   112002475.1800   87274783.9360
  83638616.4940
  20395046.520    20395045.460    20395049.740   107177203.7060   83514675.0170
  80034898.9880
  22272754.800    22272755.580    22272756.840   117044129.0500   91203229.2580
  87403114.8890
  21399880.560    21399880.680    21399881.660   112457325.9810   87629261.5220
  83978147.5380
  21437393.140    21437391.260                   112654316.4740   87782588.5410

  21291988.240    21291984.180                   111890165.1770   87187127.9810

  24550667.140    24550666.020                   129015061.8090  100531160.2110

  25414158.240    25414155.680    25414160.640   133552317.9240  104066722.5240
  99730648.9310
 23  3  1  0  7 30.0000000  0  9G01G03G04G06G09G17G19G21G28
  22650630.560    22650631.560    22650631.900   119029998.5930   92750734.6720
  88886214.1640
  21323413.080    21323413.520    21323414.180   112055525.8040   87316122.0820
  83678232.2120
  20393007.300    20393006.280    20393010.520   107166487.5540   83506324.7830
  80026896.6740
  22256763.580    22256764.380    22256765.720   116960095.0220   91137748.2170
  87340362.2240
  21385507.600    21385507.700    21385508.520   112381795.2690   87570406.4380
  83921744.7580
  21445527.980    21445526.180                   112697065.8940   87815899.7600

  21290082.660    21290078.500                   111880150.9180   87179324.6580

  24566858.280    24566856.920                   129100146.6750  100597460.0780

  25425550.120    25425547.480    25425552.300   133612182.1140  104113369.9080
  99775352.6880
 23  3  1  0  8  0.0000000  0  9G01G03G04G06G09G17G19G21G28
  22667599.560    22667600.440    22667600.840   119119171.2430   92820219.8310
  88952804.1080
  21333546.100    21333546.640    21333547.320   112108775.4510   87357615.3120
  83717996.5550
  20391074.680    20391073.620    20391077.840   107156331.3360   83498410.8590
  80019312.5010
  22240805.820    22240806.700    22240807.980   116876236.7450   91072404.1230
  87277740.8130
  21371212.920    21371213.020    21371213.780   112306675.9800   87511871.9500
  83865649.2120
  21453758.120    21453756.380                   112740316.0650   87849601.1740

  21288302.680    21288298.460                   111870796.8630   87172035.7760

  24583076.840    24583075.400                   129185375.5960  100663872.2020

  25437025.480    25437022.940    25437027.680   133672485.4900  104160359.5460
  99820384.3920
 23  3  1  0  8 30.0000000  0  9G01G03G04G06G09G17G19G21G28
  22684616.180    22684616.980    22684617.440   119208594.2450   92889900.0680
  89019580.9920
  21343716.620    21343717.260    21343717.880   112162222.1230   87399262.0690
  83757908.0270
  20389248.300    20389247.260    20389251.460   107146733.5760   83490932.0950
  80012145.3570
  22224881.660    22224882.680    22224883.880   116792555.0550   91007197.6350
  87215251.2540
  21356996.580    21356996.680    21356997.420   112231968.5380   87453658.3730
  83809861.1990
  21462083.080    21462081.300                   112784064.2200   87883690.6230

  21286648.200    21286643.940                   111862102.4620   87165260.9080

  24599322.380    24599320.680                   129270746.3610  100730394.8840

  25448583.780    25448581.320    25448586.020   133733224.9640  104207688.9110
  99865741.7430
 23  3  1  0  9  0.0000000  0  9G01G03G04G06G09G17G19G21G28
  22701680.440    22701681.140    22701681.580   119298267.2470   92959775.1200
  89086544.5800
  21353924.620    21353925.340    21353925.920   112215865.7750   87441062.3150
  83797966.5980
  20387528.320    20387527.280    20387531.440   107137694.8280   83483888.9170
  80005395.6500
  22208991.660    22208992.720    22208993.880   116709052.7780   90942130.9440
  87152895.6810
  21342859.080    21342859.100    21342859.880   112157675.3430   87395767.5920
  83754382.5380
  21470502.760    21470500.860                   112828309.5610   87918167.4980

  21285119.420    21285115.180                   111854068.8430   87159000.9320

  24615594.660    24615592.840                   129356258.2930  100797027.5520

  25460225.080    25460222.580    25460227.260   133794399.4990  104255357.3700
  99911423.9330
 23  3  1  0  9 30.0000000  0  9G01G03G04G06G09G17G19G21G28
  22718791.800    22718792.600    22718792.940   119388188.4480   93029843.5680
  89153693.5030
  21364169.800    21364170.600    21364171.180   112269704.8580   87483014.8420
  83838171.1070
  20385914.480    20385913.460    20385917.580   107129214.0630   83477280.5330
  79999062.6230
  22193136.080    22193137.180    22193138.280   116625731.2380   90877205.0920
  87090675.0830
  21328800.580    21328800.460    21328801.260   112083797.2370   87338200.2600
  83699213.8460
  21479016.560    21479014.520                   112873049.3300   87953029.6310

  21283716.200    21283712.080                   111846695.3600   87153255.3530

  24631893.520    24631891.660                   129441910.0370  100863769.1400

  25471948.320    25471945.860    25471950.720   133855991.3631  104303358.5611
  99957429.0690
 23  3  1  0 10  0.0000000  0  9G01G03G04G06G09G17G19G21G28
  22735949.860    22735950.900    22735951.120   119478355.4760   93100103.5550
  89221026.0000
  21374451.840    21374452.620    21374453.220   112323737.3070   87525118.0440
  83878520.0070
  20384406.520    20384405.540    20384409.520   107121289.7530   83471105.7560
  79993145.1310
  22177315.100    22177316.140    22177317.240   116542591.2080   90812420.6790
  87028590.0120
  21314821.080    21314820.900    21314821.740   112010334.5160   87280956.6030
  83644355.3420
  21487624.040    21487621.820                   112918281.0360   87988275.1000

  21282438.460    21282434.400                   111839981.0960   87148023.4550

  24648218.680    24648216.840                   129527699.6080  100930618.1540

  25483753.580                    25483756.060   133918028.6331
 100003754.7640
 23  3  1  0 10 30.0000000  0  9G01G03G04G06G09G17G19G21G28
  22753154.840    22753156.120    22753156.260   119568768.9480   93170555.5800
  89288542.5320
  21384770.900    21384771.600    21384772.240   112377964.0330   87567372.6320
  83919013.9830
  20383004.680    20383003.740    20383007.560   107113923.2520   83465365.6340
  79987644.1800
  22161529.380    22161530.340    22161531.440   116459636.5010   90747780.6610
  86966643.3380
  21300921.280    21300921.040    21300921.920   111937290.4670   87224039.1820
  83589809.4870
  21496325.080    21496322.740                   112964004.4850   88023903.7430

  21281286.400    21281282.380                   111833927.2190   87143306.1400

  24664570.100    24664568.540                   129613627.3200  100997574.7990

  25495640.440    25495637.820    25495642.760
 100050400.8380
 23  3  1  0 11  0.0000000  0 10G01G03G04G06G07G09G17G19G21G28
  22770407.060    22770408.320    22770408.600   119659429.8440   93241200.4120
  89356243.8190
  21395127.220    21395127.820    21395128.500   112432386.3600   87609779.6360
  83959654.0350
  20381709.340    20381708.400    20381712.120   107107116.4070   83460061.6110
  79982561.1660
  22145779.780    22145780.640    22145781.620   116376871.3340   90683288.3420
  86904838.2070
  25464499.300    25464513.420                   133816847.0661  104272886.9191

  21287101.840    21287101.620    21287102.520   111864668.7620   87167450.8570
  83535579.0060
  21505119.740    21505117.360                   113010220.3570   88059916.0980

  21280260.720    21280256.720                   111828537.0270   87139105.9780

  24680948.160    24680946.700                   129699695.0790  101064640.5280

  25507608.780                    25507611.120
 100097367.4950
 23  3  1  0 11 30.0000000  0 10G01G03G04G06G07G09G17G19G21G28
  22787700.800    22787702.100    22787702.540   119750309.2980   93312015.5460
  89424108.3090
  21405515.340    21405515.820    21405516.540   112486975.7370   87652316.8050
  84000418.8190
  20380515.120    20380514.160    20380517.820   107100841.0250   83455171.7150
  79977875.0160
  22130061.300    22130062.120    22130063.020   116294269.9650   90618923.6570
  86843155.3860
  25447894.560    25447909.020                   133729594.2070  104204899.3150

  21273357.760    21273357.600    21273358.460   111792443.1280   87111171.1610
  83481644.3040
  21514002.380    21514000.100                   113056898.9270   88096288.9930

  21279356.060    21279352.040                   111823782.5490   87135401.1800

  24697347.220    24697346.120                   129785873.2760  101131792.3430

  25519653.280                    25519655.680   134106682.4071
 100144632.4370
 23  3  1  0 12  0.0000000  0 10G01G03G04G06G07G09G17G19G21G28
  22805044.940    22805046.340    22805046.840   119841453.8520   93383037.2520
  89492170.7660
  21415944.080    21415944.500    21415945.360   112541779.0830   87695020.7090
  84041343.3940
  20379431.040    20379430.040    20379433.760   107095144.4200   83450732.8120
  79973621.0710
  22114383.440    22114384.220    22114385.020   116211882.1940   90554725.4100
  86781632.0720
  25431264.300    25431278.980                   133642209.6910  104136809.1630

  21259698.360    21259698.300    21259699.080   111720662.8120   87055238.4660
  83428042.1350
  21522981.720    21522979.620                   113104085.8790   88133058.0310

  21278581.400    21278577.360                   111819711.3470   87132228.8070

  24713776.580    24713775.280                   129872209.4490  101199067.2440

  25531782.420                    25531784.860
 100192229.9350
 23  3  1  0 12 30.0000000  0 10G01G03G04G06G07G09G17G19G21G28
  22822435.160    22822436.700    22822437.100   119932840.4190   93454247.5310
  89560413.9480
  21426409.220    21426409.600    21426410.440   112596773.6650   87737873.6250
  84082410.7650
  20378452.880    20378451.820    20378455.680   107090004.2380   83446727.4840
  79969782.6240
  22098742.460    22098743.140    22098743.940   116129688.1820   90490678.1400
  86720253.4320
  25414605.360    25414619.840                   133554673.4670  104068600.8460

  21246119.820    21246119.860    21246120.480   111649307.3890   86999636.8560
  83374757.2490
  21532053.380    21532051.400                   113151757.8090   88170204.9740

  21277932.540    21277928.520                   111816301.6750   87129571.9030

  24730231.660    24730230.200                   129958680.5790  101266447.3070

                                  25543993.960
 100240142.1120
 23  3  1  0 13  0.0000000  0 10G01G03G04G06G07G09G17G19G21G28
  22839871.280    22839872.900    22839873.120   120024467.5990   93525645.3130
  89628836.8140
  21436910.580    21436910.840    21436911.620   112651958.4190   87780874.7260
  84123620.1550
  20377580.480    20377579.380    20377583.380   107085419.8110   83443155.2110
  79966359.2040
  22083138.680    22083139.320    22083140.120   116047689.7250   90426783.2550
  86659020.8460
  25397917.540    25397932.120                   133466987.0310  104000275.5350

  21232622.340    21232622.500    21232622.920   111578378.0710   86944367.2760
  83321790.5740
  21541216.940    21541215.060                   113199912.6200   88207728.1860

  21277409.480    21277405.480                   111813553.0890   87127430.1370

  24746711.940    24746710.500                   130045285.0960  101333931.3270

                                  25556283.180
 100288367.2970
 23  3  1  0 13 30.0000000  0 10G01G03G04G06G07G09G17G19G21G28
  22857353.480    22857355.120    22857355.160   120116336.1940   93597231.2150
  89697439.9650
  21447448.360    21447448.500    21447449.260   112707334.5380   87824024.9440
  84164972.4490
  20376814.140    20376813.040    20376817.100   107081392.6200   83440017.1470
  79963351.8880
  22067572.860    22067573.500    22067574.340   115965890.8990   90363043.9270
  86597937.3150
  25381202.280    25381216.860                   133379154.8970  103931836.7100

  21219206.660    21219206.880    21219207.100   111507878.2620   86889432.3790
  83269144.6350
  21550472.380    21550470.580                   113248550.2650   88245627.6250

  21277012.620    21277008.620                   111811467.5420   87125805.0270

  24763217.720    24763216.520                   130132023.8970  101401519.9500

                                  25568652.420
 100336905.3510
 23  3  1  0 14  0.0000000  0 10G01G03G04G06G07G09G17G19G21G28
  22874880.300    22874882.080    22874881.860   120208439.4620   93668999.9760
  89766218.3610
  21458021.320    21458021.480    21458022.100   112762895.6860   87867319.3380
  84206462.9060
  20376152.660    20376151.640    20376155.680   107077916.6290   83437308.5910
  79960756.1900
  22052044.320    22052045.060    22052045.900   115884288.2410   90299457.4620
  86537000.2950
  25364458.800    25364473.140                   133291173.7890  103863281.8420

  21205871.900    21205872.180    21205872.300   111437803.8730   86834828.9700
  83216816.3760
  21559818.320    21559816.620                   113297663.6110   88283897.7380

  21276740.900    21276736.940                   111810039.6590   87124692.3790

  24779747.840    24779746.860                   130218890.9650  101469208.5830

                                  25581099.840
 100385750.8020
 23  3  1  0 14 30.0000000  0 10G01G03G04G06G07G09G17G19G21G28
  22892452.800    22892454.720    22892454.300   120300783.4880   93740956.3280
  89835176.5390
  21468630.720    21468630.900    21468631.440   112818648.3600   87910762.9770
  84248096.3900
  20375597.380    20375596.420    20375600.380   107074998.5840   83435034.8020
  79958577.1480
  22036554.900    22036555.720    22036556.640   115802891.1390   90236031.1800
  86476216.7660
  25347688.680    25347703.000                   133203052.9060  103794618.0900

  21192619.760    21192620.080    21192620.220   111368163.6070   86780563.8480
  83164812.3130
  21569255.780    21569254.140                   113347257.8950   88322542.6120

  21276595.680    21276591.720                   111809276.5760   87124097.7600

  24796303.580    24796302.740                   130305892.2260  101537001.7260

                                  25593626.480
 100434907.4710
 23  3  1  0 15  0.0000000  0 10G01G03G04G06G07G09G17G19G21G28
  22910070.640    22910072.600    22910072.140   120393365.8620   93813098.4050
  89904312.7020
  21479276.160    21479276.260    21479276.880   112874590.5560   87954354.2930
  84289871.4060
  20375147.980    20375147.040    20375150.900   107072636.7560   83433194.4240
  79956813.4590
  22021104.760    22021105.640    22021106.700   115721700.4360   90172765.7240
  86415587.3750
  25330892.080    25330906.240                   133114793.1800  103725846.1480

  21179450.300    21179450.560    21179450.880   111298957.6720   86726637.1620
  83113132.5840
  21578784.160    21578782.520                   113397329.9800   88361559.7950

  21276576.680    21276572.700                   111809176.8430   87124020.0340

  24812884.540    24812883.860                   130393025.5730  101604897.8050

                                  25606231.920
 100484352.0361
 23  3  1  0 15 30.0000000  0 10G01G03G04G06G07G09G17G19G21G28
  22927732.160    22927734.000    22927733.580   120486177.3400   93885419.0130
  89973619.9390
  21489956.000    21489956.080    21489956.720   112930713.4650   87998086.4260
  84331781.3590
  20374802.760    20374801.840    20374805.660   107070822.5520   83431780.7650
  79955458.7000
  22005692.800    22005693.700    22005694.880   115640710.2420   90109656.5020
  86355107.7040
  25314068.120    25314081.840                   133026388.8510  103656961.5350

  21166362.180    21166362.420    21166363.020   111230179.4210   86673043.7320
  83061772.2160
  21588401.660    21588399.960                   113447870.2100   88400941.7800

  21276682.340    21276678.440                   111809732.3450   87124452.8770

  24829488.860    24829488.140                   130480281.4640  101672889.3740

                                  25618914.080
 100534119.9321
 23  3  1  0 16  0.0000000  0  9G01G03G04G06G07G09G17G19G21
  22945438.020    22945439.900    22945439.340   120579221.9000   93957921.2420
  90043101.2330
  21500671.040    21500671.160    21500671.640   112987021.4990   88041962.8110
  84373829.5620
  20374562.640    20374561.700    20374565.500   107069560.5610   83430797.4030
  79954516.3160
  21990320.380    21990321.300    21990322.580   115559927.7850   90046709.1550
  86294783.1710
  25297217.860    25297231.300                   132937847.1680  103587969.8860

  21153356.680    21153356.920    21153357.820   111161835.4200   86619788.6870
  83010736.1360
  21598108.820    21598107.080                   113498881.5410   88440690.8480

  21276913.640    21276909.880                   111810948.0950   87125400.2040

  24846117.360    24846116.420                   130567664.6320  101740980.1150

 23  3  1  0 16 30.0000000  0  9G01G03G04G06G07G09G17G19G21
  22963187.980    22963189.980    22963189.200   120672498.2800   94030604.1030
  90112755.6420
  21511421.160    21511421.280    21511421.720   113043513.8420   88085982.8170
  84416015.4050
  20374427.440    20374426.480    20374430.320   107068850.1320   83430243.8310
  79953985.8130
  21974987.900    21974988.760    21974990.160   115479355.1740   89983925.3210
  86234615.3320
  25280341.800    25280355.000                   132849096.6081  103518831.1191

  21140434.140    21140434.320    21140435.460   111093926.9610   86566873.0270
  82960025.3060
  21607905.320    21607903.480                   113550362.0570   88480805.5140

  21277270.640    21277266.920                   111812823.9770   87126861.9180

  24862769.760    24862768.800                   130655173.3980  101809168.7440

 23  3  1  0 17  0.0000000  0  9G01G03G04G06G07G09G17G19G21
  22980983.660    22980985.780    22980984.900   120766015.1990   94103474.3970
  90182589.6730
  21522208.060    21522208.220    21522208.760   113100199.6070   88130153.5440
  84458345.6840
  20374398.980    20374397.980    20374401.900   107068700.5690   83430127.2920
  79953874.1300
  21959697.720    21959698.420    21959699.860   115399004.4420   89921314.3770
  86174613.1930
  25263442.440    25263455.400                   132760297.2580  103449638.6850

  21127596.640    21127596.760    21127598.040   111026465.3330   86514305.5390
  82909648.1280
  21617792.620    21617790.720                   113602319.9440   88521292.1680

  21277755.040    21277751.320                   111815369.1010   87128845.1150

  24879447.880    24879446.480                   130742817.0450  101877462.4210

 23  3  1  0 17 30.0000000  0  9G01G03G04G06G07G09G17G19G21
  22998820.600    22998822.720    22998821.860   120859748.6990   94176513.4680
  90252585.4390
  21533027.320    21533027.480    21533028.140   113157055.4360   88174456.7870
  84500802.9530
  20374472.780    20374471.800    20374475.780   107069088.5380   83430429.6130
  79954163.8630
  21944445.780    21944446.440    21944447.880   115318855.0270   89858860.2980
  86114761.3690
  25246515.820    25246528.500                   132671354.4160  103380334.3890

  21114840.140    21114840.180    21114841.520   110959429.1840   86462069.5990
  82859588.7030
  21627766.040    21627764.120                   113654730.3780   88562131.4510

  21278362.460    21278358.760                   111818560.8280   87131332.1650

  24896147.140    24896145.680                   130830571.8940  101945842.8330

 23  3  1  0 18  0.0000000  0  9G01G03G04G06G07G09G17G19G21
  23016701.680    23016703.740    23016702.880   120953714.1330   94249733.2530
  90322754.3970
  21543881.900    21543882.120    21543882.960   113214097.0460   88218904.7910
  84543398.9510
  20374651.900    20374650.920    20374655.000   107070029.9640   83431163.1990
  79954866.8780
  21929235.720    21929236.380    21929237.840   115238925.5700   89796577.6160
  86055073.8150
  25229565.420    25229577.880                   132582263.9161  103310906.9831

  21102168.020    21102168.020    21102169.320   110892836.3970   86410179.1260
  82809860.3370
  21637828.280    21637826.380                   113707607.7400   88603334.5760

  21279096.060    21279092.300                   111822415.4990   87134335.7970

  24912870.520    24912868.900                   130918453.5520  102014321.9490

 23  3  1  0 18 30.0000000  0  9G01G03G04G06G07G09G17G19G21
  23034626.600    23034628.680    23034627.760   121047910.3810   94323132.8940
  90393095.7210
  21554771.720    21554772.100    21554772.980   113271323.8830   88263497.1270
  84586133.2650
  20374936.200    20374935.260    20374939.420   107071524.2650   83432327.5930
  79955982.7620
  21914067.920    21914068.640    21914070.080   115159218.3850   89734468.1380
  85995552.2410
  25212591.640    25212603.940                   132493068.1261  103241403.2691

  21089580.480    21089580.560    21089581.720   110826688.4300   86358635.2810
  82760464.1630
  21647979.060    21647977.180                   113760950.2700   88644900.1700

  21279955.800    21279951.980                   111826932.9960   87137855.9110

  24929617.700    24929616.120                   131006460.8270  102082898.9990

 23  3  1  0 19  0.0000000  0  9G01G03G04G06G07G09G17G19G21
  23052594.060    23052596.020    23052595.060   121142329.5030   94396706.2160
  90463603.4720
  21565695.420    21565695.900    21565696.740   113328728.4770   88308227.9750
  84629000.3360
  20375324.340    20375323.420    20375327.640   107073564.0730   83433917.0640
  79957505.9990
  21898941.580    21898942.340    21898943.720   115079728.9100   89672528.3100
  85936193.2440
  25195593.960    25195605.960                   132403743.8111  103171798.9461

  21077076.540    21077076.700    21077077.700   110760979.8720   86307433.8290
  82711396.1090
  21658216.720    21658214.860                   113814749.4210   88686821.5780

  21280940.240    21280936.420                   111832106.1680   87141886.9410

  24946387.500    24946385.680                   131094586.0480  102151567.9680

 23  3  1  0 19 30.0000000  0  9G01G03G04G06G07G09G17G19G21
  23070604.660    23070606.440    23070605.560   121236975.1880   94470456.0690
  90534280.3990
  21576653.780    21576654.260    21576655.220   113386315.0870   88353100.6500
  84672003.3120
  20375817.140    20375816.200    20375820.440   107076153.6250   83435934.9030
  79959439.7610
  21883857.960    21883858.700    21883860.140   115000464.2360   89610763.6480
  85877002.1160
  25178573.620    25178585.240                   132314308.2860  103102110.6510

  21064657.380    21064657.600    21064658.400   110695716.9240   86256579.6030
  82662660.8190
  21668541.820    21668539.940                   113869007.9360   88729100.9320

  21282050.320    21282046.480                   111837939.6410   87146432.4900

  24963180.400    24963178.600                   131182832.9970  102220331.7870

 23  3  1  0 20  0.0000000  0  9G01G03G04G06G07G09G17G19G21
  23088657.740    23088659.440    23088658.660   121331844.3930   94544380.1010
  90605124.2490
  21587646.320    21587646.740    21587647.760   113444081.1220   88398113.1430
  84715140.2810
  20376414.080    20376413.100    20376417.360   107079290.3380   83438379.1050
  79961782.1230
  21868817.180    21868817.900    21868819.340   114921424.7080   89549174.4260
  85817979.1180
  25161530.680    25161541.920                   132224753.8260  103032329.7300

  21052322.920    21052323.100    21052323.800   110630899.0830   86206072.2120
  82614257.9170
  21678953.560    21678951.640                   113923721.7570   88771735.0720

  21283285.520    21283281.700                   111844430.8660   87151490.5710

  24979996.020    24979994.240                   131271198.5410  102289188.0020

 23  3  1  0 20 30.0000000  0  9G01G03G04G06G07G09G17G19G21
  23106752.900    23106754.580    23106753.840   121426934.9120   94618476.5840
  90676133.3710
  21598672.680    21598673.000    21598674.080   113502024.9830   88443264.1950
  84758410.0450
  20377114.800    20377113.760    20377118.020   107082972.5650   83441248.3850
  79964531.8480
  21853819.500    21853820.260    21853821.600   114842611.5680   89487761.6050
  85759125.1650
  25144465.420    25144476.060                   132135081.5750  102962456.8760

  21040073.240    21040073.320    21040073.980   110566526.6720   86155911.9070
  82566187.6280
  21689451.440    21689449.420                   113978888.2730   88814721.9640

  21284645.680    21284641.900                   111851578.6780   87157060.2820

  24996833.840    24996831.880                   131359680.7920  102358135.1760

 23  3  1  0 21  0.0000000  0  9G01G03G04G06G07G09G17G19G21
  23124890.380    23124891.960    23124891.260   121522247.7340   94692746.2890
  90747308.5150
  21609733.160    21609733.420    21609734.640   113560148.1660   88488554.9750
  84801813.7050
  20377919.620    20377918.460    20377922.700   107087201.7830   83444543.8860
  79967690.0340
  21838865.780    21838866.540    21838867.840   114764029.1970   89426528.6050
  85700443.5460
  25127378.640    25127388.780                   132045296.4540  102892496.0600

  21027908.960    21027909.000    21027909.680   110502603.1670   86106101.3920
  82518452.5570
  21700035.440    21700033.340                   114034507.5690   88858061.6620

  21286131.140    21286127.420                   111859384.8580   87163143.0050

  25013693.920    25013691.740                   131448280.7820  102427174.1000

 23  3  1  0 21 30.0000000  0 10G01G03G04G06G07G09G11G17G19G21
  23143069.600    23143071.000    23143070.380   121617779.7570   94767186.7980
  90818647.3330
  21620827.320    21620827.500    21620828.680   113618448.1490   88533983.5270
  84845349.3950
  20378827.980    20378826.760    20378830.880   107091975.3420   83448263.5540
  79971254.7210
  21823955.960    21823956.840    21823958.020   114685677.9530   89365475.7060
  85641934.5230
  25110270.560    25110280.000                   131955398.6990  102822447.4020

  21015830.000    21015830.020    21015830.780   110439127.9720   86056640.2210
  82471052.2680
  25534798.240    25534796.720    25534800.500   134186262.7461  104560717.9201
 100204040.6461
  21710704.740    21710702.580                   114090575.4310   88901750.8980

  21287741.440    21287737.780                   111867847.1330   87169736.9740

  25030576.040    25030573.840                   131536996.4250  102496303.1360

 23  3  1  0 22  0.0000000  0 10G01G03G04G06G07G09G11G17G19G21
  23161291.280    23161292.440    23161292.020   121713534.9720   94841801.2280
  90890152.8230
  21631956.020    21631956.080    21631957.020   113676929.4840   88579553.3900
  84889020.5220
  20379840.780    20379839.500    20379843.460   107097297.7020   83452410.8520
  79975229.2200
  21809091.600    21809092.500    21809093.540   114607565.2690   89304608.6960
  85583603.6430
  25093142.400    25093151.200                   131865395.8720  102752316.7670

  21003837.560    21003837.620    21003838.480   110376107.5660   86007533.4360
  82423991.6090
  25515192.620    25515191.120    25515195.320   134083235.8730  104480437.2130
 100127104.9610
  21721460.020    21721457.920                   114147095.4420   88945792.4540

  21289477.460    21289473.840                   111876969.9850   87176845.6790

  25047480.840    25047478.620                   131625831.5480  102565525.2670

 23  3  1  0 22 30.0000000  0 10G01G03G04G06G07G09G11G17G19G21
  23179553.040    23179554.100    23179553.860   121809501.2310   94916580.1090
  90961815.9140
  21643117.020    21643117.060    21643117.720   113735580.6510   88625255.5900
  84932818.4670
  20380955.760    20380954.480    20380958.260   107103157.1950   83456976.6970
  79979604.8280
  21794271.000    21794271.960    21794272.780   114529682.5060   89243920.8430
  85525444.4520
  25075992.800    25076000.860                   131775279.4080  102682097.5480

  20991929.840    20991929.900    20991930.860   110313532.3070   85958773.5280
  82377263.3660
  25495578.800    25495577.460    25495581.860   133980165.7830  104400122.8100
 100050136.9840
  21732298.780    21732296.800                   114204054.0310   88990175.7600

  21291337.000    21291333.380                   111886742.0760   87184460.2850

  25064406.000    25064403.620                   131714774.1120  102634831.0950

 23  3  1  0 23  0.0000000  0 10G01G03G04G06G07G09G11G17G19G21
  23197856.420    23197857.480    23197857.280   121905686.2100   94991529.4210
  91033642.3340
  21654311.880    21654312.000    21654312.480   113794409.8380   88671096.5030
  84976749.3510
  20382174.500    20382173.240    20382176.940   107109561.8880   83461967.3750
  79984387.5660
  21779496.360    21779497.240    21779497.900   114452040.7500   89183420.7860
  85467465.2320
  25058823.780    25058831.040                   131685060.7430  102611798.5960

  20980108.780    20980108.820    20980109.840   110251412.2990   85910368.3540
  82330875.0780
  25475958.880    25475957.800    25475962.040   133877062.6810  104319782.7100
  99973144.3940
  21743222.360    21743220.540                   114261458.3120   89034906.3520

  21293321.700    21293318.020                   111897171.8600   87192587.3800

  25081353.080    25081350.780                   131803831.5390  102704226.4500

 23  3  1  0 23 30.0000000  0 11G01G03G04G06G07G09G11G17G19G21G31
  23216200.300    23216201.440    23216201.260   122002084.2320   95066644.7280
  91105627.8340
  21665539.600    21665539.740    21665540.300   113853412.0340   88717072.2330
  85020809.4210
  20383495.980    20383494.800    20383498.460   107116506.5780   83467378.8320
  79989573.5400
  21764767.100    21764767.960    21764768.500   114374637.8450   89123106.8480
  85409664.3720
  25041634.920    25041641.720                   131594679.6331  102541336.2261

  20968373.740    20968373.760    20968374.860   110189744.3500   85862315.4230
  82284824.3540
  25456332.140    25456331.060    25456335.540   133773923.7520  104239414.6650
  99896125.0110
  21754229.540    21754227.880                   114319301.8350   89079979.2070

  21295430.580    21295426.840                   111908254.3250   87201223.0590

  25098320.980    25098318.980                   131892998.9340  102773707.4510

  25243856.940    25243854.000                   132657362.2271  103369358.3161

 23  3  1  0 24  0.0000000  0 11G01G03G04G06G07G09G11G17G19G21G31
  23234585.040    23234586.280    23234586.120   122098696.8660   95141927.2710
  91177773.5930
  21676800.700    21676800.840    21676801.460   113912589.4030   88763184.4630
  85065000.3040
  20384920.620    20384919.560    20384923.160   107123993.1960   83473212.5700
  79995164.2080
  21750084.240    21750085.080    21750085.520   114297478.8450   89062982.9710
  85352045.6560
  25024427.260    25024433.460                   131504257.4270  102470878.4930

  20956725.500    20956725.500    20956726.660   110128532.4430   85814617.8580
  82239114.1960
  25436699.540    25436698.360    25436702.820   133670753.1440  104159021.9640
  99819081.9710
  21765320.540    21765318.880                   114377585.1530   89125394.7580

  21297664.100    21297660.320                   111919991.5680   87210368.9580

  25115310.120    25115308.560                   131981844.5411  102842987.2191

  25256123.440    25256120.020                   132721821.4410  103419586.3040

 23  3  1  0 24 30.0000000  0 11G01G03G04G06G07G09G11G17G19G21G31
  23253009.920    23253011.220    23253011.160   122195520.3010   95217374.0790
  91250076.7840
  21688094.480    21688094.700    21688095.380   113971938.7650   88809430.7110
  85109319.6260
  20386447.760    20386446.780    20386450.380   107132018.3730   83479465.9650
  80001157.0510
  21735447.720    21735448.560    21735449.000   114220563.4390   89003048.9070
  85294608.8450
  25007200.760    25007206.420                   131413735.9260  102400343.3450

  20945163.780    20945163.760    20945164.980   110067775.2420   85767274.5920
  82193743.5720
  25417060.580    25417059.480    25417063.860   133567549.7840  104078603.7330
  99742014.5070
  21776494.320    21776492.660                   114436303.7080   89171149.4600

  21300021.640    21300017.860                   111932380.5920   87220022.7330

  25132319.800    25132318.340                   132071230.8501  102912640.8111

  25268475.800    25268472.440                   132786734.9100  103470168.2340

 23  3  1  0 25  0.0000000  0 11G01G03G04G06G07G09G11G17G19G21G31
  23271475.000    23271476.580    23271476.580   122292555.8780   95292986.1800
  91322538.3770
  21699421.380    21699421.600    21699422.280   114031462.0730   88855812.5140
  85153768.8500
  20388077.720    20388076.760    20388080.400   107140583.8150   83486140.3480
  80007553.3290
  21720858.420    21720859.320    21720859.720   114143896.4820   88943308.4370
  85237357.5610
  24989956.260    24989961.840                   131323120.1150  102329734.6520

  20933689.280    20933689.260    20933690.500   110007476.4980   85720288.5700
  82148715.3010
  25397416.280    25397415.220    25397419.540   133464317.8620  103998163.2290
  99664925.6870
  21787750.940    21787749.260                   114495457.4220   89217243.2510

  21302503.540    21302499.800                   111945422.9990   87230185.6330

  25149350.220    25149348.940                   132160726.3591  102982377.5091

  25280914.880    25280911.480                   132852103.0980  103521104.4780

 23  3  1  0 25 30.0000000  0 11G01G03G04G06G07G09G11G17G19G21G31
  23289979.800    23289981.580    23289981.640   122389799.7550   95368760.5810
  91395155.5170
  21710780.740    21710781.040    21710781.620   114091156.1630   88902327.3820
  85198345.5990
  20389809.820    20389808.820    20389812.540   107149686.0570   83493233.0060
  80014350.4630
  21706316.340    21706317.240    21706317.660   114067477.6240   88883761.2940
  85180291.5600
  24972694.060    24972699.300                   131232410.2650  102259052.6240

  20922301.720    20922301.740    20922302.960   109947634.8260   85673658.7160
  82104028.3620
  25377766.160    25377764.960    25377769.540   133361056.1580  103917699.5780
  99587814.6530
  21799089.620    21799087.900                   114555042.1300   89263672.8860

  21305109.220    21305105.500                   111959115.6850   87240855.2440

  25166400.720    25166399.480                   132250327.5071  103052196.5301

  25293439.800    25293436.320                   132917921.5500  103572391.5750

 23  3  1  0 26  0.0000000  0 11G01G03G04G06G07G09G11G17G19G21G31
  23308524.400    23308526.200    23308526.400   122487252.2050   95444697.5260
  91467928.4110
  21722172.820    21722173.200    21722173.820   114151022.0390   88948976.1170
  85243050.6350
  20391644.220    20391643.160    20391646.980   107159325.8150   83500744.5190
  80021548.9980
  21691822.260    21691823.100    21691823.620   113991310.8150   88824410.5470
  85123413.7540
  24955414.660    24955419.440                   131141609.8940  102188299.9860

  20911001.700    20911001.760    20911002.940   109888252.9830   85627387.1770
  82059684.8030
  25358111.200    25358109.920    25358114.500   133257767.8890  103837215.1610
  99510683.7600
  21810510.160    21810508.420                   114615057.2520   89310437.8930

  21307838.900    21307835.040                   111973459.6410   87252032.3420

  25183471.440    25183470.180                   132340034.1251  103122099.5441

  25306050.300    25306046.680                   132984189.8520  103624029.2480

 23  3  1  0 26 30.0000000  0 11G01G03G04G06G07G09G11G17G19G21G31
  23327108.340    23327110.020    23327110.360   122584910.9010   95520795.1850
  91540855.3200
  21733597.260    21733597.680    21733598.440   114211057.8920   88995757.2950
  85287882.5840
  20393580.480    20393579.420    20393583.300   107169500.9510   83508673.2000
  80029147.3190
  21677376.340    21677377.080    21677377.680   113915397.0790   88765256.9950
  85066724.9370
  24938118.300    24938122.780                   131050720.3510  102117477.8470

  20899789.180    20899789.280    20899790.400   109829330.8450   85581473.8390
  82015684.5270
  25338451.220    25338449.780    25338454.420   133154453.2560  103756710.2360
  99433533.2160
  21822011.920    21822010.120                   114675499.2140   89357535.5020

  21310692.140    21310688.240                   111988453.1080   87263715.5470

  25200561.940    25200560.440

  25318745.720    25318742.140                   133050904.7180  103676014.8210

 23  3  1  0 27  0.0000000  0 11G01G03G04G06G07G09G11G17G19G21G31
  23345731.700    23345733.280    23345733.760   122682777.0450   95597054.4930
  91613937.1550
  21745054.400    21745054.900    21745055.760   114271265.6850   89042672.4590
  85332842.9480
  20395618.980    20395617.880    20395621.800   107180213.0990   83517020.3350
  80037146.6630
  21662979.560    21662980.180    21662980.880   113839741.2640   88706304.4160
  85010228.7270
  24920805.840    24920809.960                   130959746.6330  102046590.0340

  20888664.860    20888665.000    20888666.040   109770872.1490   85535921.6290
  81972030.3220
  25318786.820    25318785.340    25318790.040   133051116.3940  103676187.9180
  99356366.0200
  21833594.940    21833593.040                   114736368.3320   89404965.9670

  21313669.160    21313665.280                   112004097.4880   87275905.9610

  25217672.300    25217671.120                   132519762.4421  103262145.7121

  25331526.160    25331522.620                   133118066.4940  103728348.6990

 23  3  1  0 27 30.0000000  0 11G01G03G04G06G07G09G11G17G19G21G31
  23364393.260    23364394.680    23364395.260   122780843.6870   95673470.0380
  91687168.7050
  21756543.080    21756543.640    21756544.560   114331639.1290   89089716.6930
  85377927.0040
  20397758.380    20397757.260    20397761.220   107191455.5830   83525780.7160
  80045542.0280
  21648631.200    21648631.800    21648632.540   113764339.9310   88647550.1410
  84953922.5590
  24903477.020    24903480.600                   130868685.6360  101975634.1750

  20877627.900    20877628.020    20877629.020   109712872.2620   85490726.9300
  81928718.7430
  25299117.520    25299115.980    25299120.660   132947753.1620  103595645.1440
  99279179.1160
  21845257.800    21845255.780                   114797656.7990   89452723.1890

  21316768.700    21316764.840                   112020385.8330   87288598.1650

  25234801.640    25234800.220                   132609777.5370  103332287.2830

  25344390.300    25344386.880                   133185667.6360  103781024.8970

 23  3  1  0 28  0.0000000  0 11G01G03G04G06G07G09G11G17G19G21G31
  23383093.980    23383095.260    23383096.020   122879116.3820   95750046.1410
  91760554.1200
  21768064.500    21768065.000    21768066.120   114392184.4900   89136894.8900
  85423139.4290
  20399999.800    20399998.660    20400002.660   107203234.2930   83534958.9390
  80054337.8250
  21634333.000    21634333.600    21634334.320   113689202.2520   88589001.3100
  84897813.2610
  24886133.240    24886136.640                   130777546.7630  101904617.6040

  20866679.720    20866679.780    20866680.820   109655339.1120   85445895.9210
  81885755.6900
  25279444.760    25279443.240    25279447.900   132844371.8900  103515088.2530
  99201978.8100
  21857001.260    21856999.260                   114859368.9960   89500810.5950

  21319992.060    21319988.200                   112037324.7020   87301797.2730

  25251950.880    25251949.740                   132699897.2410  103402510.3490

  25357338.700    25357335.660                   133253712.9040  103834047.1100

 23  3  1  0 28 30.0000000  0 11G01G03G04G06G07G09G11G17G19G21G31
  23401833.040    23401834.200    23401835.140   122977590.5120   95826779.2200
  91834089.9750
  21779617.880    21779618.320    21779619.460   114452897.8540   89184203.9980
  85468477.3290
  20402342.420    20402341.300    20402345.260   107215544.9130   83544551.6400
  80063530.8320
  21620084.760    21620085.380    21620086.140   113614327.1580   88530657.0820
  84841900.0470
  24868774.500    24868777.620                   130686328.9350  101833539.4710

  20855819.940    20855819.920    20855821.000   109598270.4750   85401426.8670
  81843139.5260
  25259768.160    25259766.660    25259771.260   132740970.9900  103434516.0950
  99124763.8010
  21868824.360    21868822.400                   114921499.6240   89549224.0470

  21323338.440    21323334.560                   112054909.9370   87315500.0460

  25269119.120    25269118.020                   132790116.8230  103472811.2730

  25370370.780    25370367.720                   133322196.7680  103887411.1580

 23  3  1  0 29  0.0000000  0 11G01G03G04G06G07G09G11G17G19G21G31
  23420609.560    23420610.680    23420611.880   123076262.0330   95903666.1000
  91907773.2280
  21791202.600    21791203.060    21791204.060   114513775.9630   89231641.4720
  85513938.2490
  20404785.540    20404784.440    20404788.360   107228383.6710   83554555.8780
  80073118.2310
  21605886.360    21605887.060    21605887.840   113539714.2470   88472517.1570
  84786182.6350
  24851400.740    24851403.700                   130595031.9790  101762399.6680

  20845048.220    20845048.120    20845049.240   109541664.6880   85357318.4770
  81800868.9930
  25240087.740    25240086.100    25240090.640   132637549.1330  103353927.5610
  99047533.1600
  21880726.160    21880724.180                   114984043.6220   89597959.6110

  21326807.160    21326803.260                   112073137.9050   87329703.6450

  25286305.840    25286304.500                   132880432.4060  103543186.9740

  25383485.380    25383482.400                   133391114.4240  103941113.2080

 23  3  1  0 29 30.0000000  0 11G01G03G04G06G07G09G11G17G19G21G31
  23439424.420    23439425.580    23439426.900   123175134.9860   95980709.9400
  91981606.8820
  21802819.560    21802820.040    21802820.940   114574823.5080   89279210.9750
  85559525.6830
  20407329.960    20407328.920    20407332.760   107241754.8570   83564974.9890
  80083103.2110
  21591739.340    21591740.080    21591740.920   113465371.1080   88414587.4500
  84730666.6600
  24834013.320    24834016.120                   130503663.6600  101691204.1980

  20834365.780    20834365.620    20834366.760   109485528.0720   85313575.6790
  81758948.8150
  25220404.660    25220402.960    25220407.460   132534113.3370  103273328.2210
  98970292.0750
  21892707.180    21892705.200                   115047003.9570   89647019.5880

  21330399.060    21330395.180                   112092013.2440   87344411.6910

  25303511.380    25303510.320                   132970848.0230  103613640.6400

  25396683.300    25396680.160                   133460469.1580  103995155.8020

 23  3  1  0 30  0.0000000  0 11G01G03G04G06G07G09G11G17G19G21G31
  23458276.700    23458277.900    23458279.220   123274204.3340   96057906.8070
  92055587.2050
  21814468.000    21814468.360    21814469.160   114636036.2290   89326909.1870
  85605236.4730
  20409974.760    20409973.780    20409977.600   107255653.7320   83575805.2920
  80093482.2570
  21577643.360    21577644.180    21577645.100   113391296.3060   88356866.8360
  84675351.0800
  24816612.220    24816614.900                   130412222.8900  101619952.2490

  20823772.100    20823771.900    20823773.060   109429857.9390   85270196.3730
  81717376.9920
  25200718.340    25200716.800    25200721.340   132430661.4320  103192716.3080
  98893039.0020
  21904766.240    21904764.180                   115110374.5140   89696399.2140

  21334113.100    21334109.280                   112111530.7920   87359620.1580

  25320735.140    25320734.240                   133061359.0730  103684168.6300

  25409963.320    25409959.940                   133530254.9520  104049534.3220

 23  3  1  0 30 30.0000000  0 11G01G03G04G06G07G09G11G17G19G21G31
  23477166.220    23477167.620    23477168.760   123373469.7630   96135256.4570
  92129713.9570
  21826148.000    21826148.180    21826148.940   114697414.5440   89374736.4410
  85651070.9140
  20412720.000    20412719.000    20412722.860   107270080.2310   83587046.7280
  80104255.2970
  21563599.040    21563599.920    21563600.880   113317493.1610   88299357.8940
  84620238.3440
  24799198.020    24799200.540                   130320713.1050  101548646.5070

  20813267.560    20813267.300    20813268.500   109374656.2690   85227182.1010
  81676154.9820
  25181029.560    25181028.060    25181032.620   132327196.0340  103112093.8800
  98815775.8390
  21916903.080    21916900.940                   115174153.9100   89746097.4240

  21337949.360    21337945.620                   112131690.5850   87375329.0730

  25337976.940    25337975.880                   133151965.0830  103754770.6840

  25423325.000    25423321.680                   133600470.7840  104104247.9350

 23  3  1  0 31  0.0000000  0 11G01G03G04G06G07G09G11G17G19G21G31
  23496093.040    23496094.600    23496095.520   123472931.0070   96212758.6800
  92203986.9070
  21837859.500    21837859.640    21837860.420   114758958.9550   89422693.1060
  85697029.3870
  20415565.620    20415564.640    20415568.560   107285034.2910   83598699.2510
  80115422.3020
  21549607.020    21549607.960    21549609.000   113243964.9680   88242063.2160
  84565330.9380
  24781771.220    24781773.820                   130229137.5670  101477289.4650

  20802852.560    20802852.260    20802853.500   109319925.0980   85184534.4520
  81635284.3240
  25161338.700    25161337.360    25161341.880   132223719.7750  103031463.0360
  98738504.5940
  21929117.500    21929115.360                   115238341.0050   89796113.3180

  21341907.860    21341904.160                   112152492.6510   87391538.4530

  25355237.160    25355235.720                   133242666.4860  103825447.0280

  25436768.280    25436764.820                   133671115.7890  104159295.9450

 23  3  1  0 31 30.0000000  0 11G01G03G04G06G07G09G11G17G19G21G31
  23515056.520    23515058.240    23515058.940   123572585.0690   96290411.1660
  92278403.8740
  21849602.220    21849602.280    21849603.080   114820667.2520   89470777.4880
  85743110.2440
  20418511.140    20418510.120    20418514.140   107300513.1320   83610760.6930
  80126981.1830
  21535667.460    21535668.460    21535669.560   113170712.4430   88184983.3390
  84510629.3850
  24764332.340    24764334.900                   130137497.1530  101405881.8560

  20792526.980    20792526.640    20792527.880   109265663.7700   85142252.9140
  81594764.5200
  25141645.740    25141644.480    25141648.980   132120232.6530  102950823.6960
  98661225.2150
  21941408.780    21941406.680                   115302931.9250   89846443.8830

  21345988.100    21345984.380                   112173934.5410   87408246.4040

  25372514.700    25372513.220                   133333460.0850  103896195.1780

  25450292.360    25450288.920                   133742185.8970  104214675.2630

 23  3  1  0 32  0.0000000  0 11G01G03G04G06G07G09G11G17G19G21G31
  23534056.360    23534058.320    23534058.780   123672430.4150   96368212.6950
  92352963.6710
  21861375.960    21861376.040    21861376.840   114882538.6760   89518988.9810
  85789312.9310
  20421556.280    20421555.260    20421559.300   107316515.4530   83623230.0430
  80138930.9760
  21521780.820    21521781.800    21521782.960   113097737.6310   88128119.8550
  84456135.2170
  24746881.560    24746883.960                   130045794.2610  101334425.5630

  20782290.940    20782290.560    20782291.800   109211873.0240   85100338.0640
  81554596.1300
  25121951.000    25121949.860    25121954.200   132016736.0670  102870176.9360
  98583938.7640
  21953776.440    21953774.400                   115367924.2230   89897087.2050

  21350189.800    21350186.080                   112196014.8260   87425451.8030

  25389809.500    25389808.280                   133424344.7150  103967014.2560

  25463897.160    25463893.540                   133813678.5350  104270383.7360

 23  3  1  0 32 30.0000000  0 11G01G03G04G06G07G09G11G17G19G21G31
  23553092.800    23553094.880    23553095.120   123772467.4720   96446163.6130
  92427666.6520
  21873181.000    21873181.120    21873181.960   114944574.4590   89567328.5350
  85835638.3280
  20424701.160    20424700.160    20424704.160   107333041.8910   83636107.7920
  80151272.1570
  21507947.800    21507948.780    21507949.960   113025044.6470   88071475.9850
  84401851.5110
  24729419.700    24729421.960                   129954033.5570  101262924.1120

  20772144.940    20772144.560    20772145.740   109158555.5660   85058792.0080
  81514781.1690
  25102255.180    25102253.960    25102258.420   131913233.4580  102789525.5570
  98506647.8370
  21966220.300    21966218.260                   115433317.0910   89948042.6660

  21354513.200    21354509.400                   112218734.3800   87443155.3400

  25407121.720    25407120.500                   133515321.1130  104037904.8880

  25477582.120    25477578.660

 23  3  1  0 33  0.0000000  0 11G01G03G04G06G07G09G11G17G19G21G31
  23572165.100    23572167.340    23572167.280   123872693.0980   96524261.4610
  92502510.4170
  21885016.820    21885017.060    21885017.860   115006772.2230   89615794.3110
  85882084.6960
  20427945.220    20427944.220    20427948.160   107350089.4730   83649391.6310
  80164002.5000
  21494168.520    21494169.440    21494170.540   112952633.9570   88015052.0820
  84347778.6050
  24711947.020    24711949.140                   129862215.3100  101191377.8400

  20762088.820    20762088.500    20762089.620   109105710.4590   85017614.0150
  81475318.9330
  25082558.300    25082556.960    25082561.400   131809724.5650  102708869.2450
  98429352.1880
  21978739.600    21978737.480                   115499106.4220   89999307.0550

  21358957.620    21358953.800                   112242090.1040   87461354.5890

  25424450.760    25424449.420                   133606388.6101  104108869.0931

  25491346.540    25491343.220                   133957929.5681  104382786.7291

 23  3  1  0 33 30.0000000  0 11G01G03G04G06G07G09G11G17G19G21G31
  23591272.960    23591275.220    23591274.880   123973105.0570   96602504.5050
  92577493.3400
  21896883.220    21896883.540    21896884.180   115069130.5810   89664385.2360
  85928650.9970
  20431288.040    20431287.060    20431290.960   107367656.1240   83663079.9320
  80177120.4570
  21480443.320    21480444.160    21480445.040   112880507.0220   87958849.2850
  84293917.5860
  24694463.720    24694465.620                   129770340.9150  101119787.7910

  20752122.600    20752122.380    20752123.440   109053337.8010   84976804.1760
  81436209.5040
  25062860.220    25062858.880    25062863.460   131706210.3510  102628208.7760
  98352052.5360
  21991333.680    21991331.500                   115565288.8590   90050877.7630

  21363522.740    21363518.880                   112266079.7090   87480047.7750

  25441796.280    25441794.840                   133697539.7100  104179895.8460

  25505190.120    25505186.820                   134030678.0690  104439473.7580

 23  3  1  0 34  0.0000000  0 11G01G03G04G06G07G09G11G17G19G21G31
  23610416.660    23610418.840    23610418.280   124073704.8810   96680893.9390
  92652616.5420
  21908780.620    21908781.060    21908781.580   115131651.8850   89713103.1220
  85975338.9680
  20434730.000    20434728.960    20434732.900   107385743.5830   83677174.0620
  80190627.3360
  21466773.080    21466773.780    21466774.580   112808669.0450   87902871.6450
  84240272.3510
  24676970.760    24676972.340                   129678416.0270  101048158.3790

  20742246.980    20742246.840    20742247.920   109001441.2960   84936365.3580
  81397455.6440
  25043161.940    25043160.580    25043165.300   131602695.1850  102547547.6040
  98274752.2340
  22004002.660    22004000.440                   115631864.8800   90102755.1570

  21368208.840    21368205.020                   112290705.1150   87499236.3910

  25459158.680    25459157.220                   133788779.5090  104250991.6910

  25519112.660    25519109.720

 23  3  1  0 34 30.0000000  0 11G01G03G04G06G07G09G11G17G19G21G31
  23629595.540    23629597.560    23629596.860   124174489.3540   96759427.2680
  92727877.6610
  21920708.560    21920709.080    21920709.720   115194333.7510   89761946.1250
  86022146.8450
  20438270.460    20438269.400    20438273.400   107404348.8120   83691671.6500
  80204520.8610
  21453157.880    21453158.480    21453159.260   112737120.4780   87847119.5210
  84186843.2340
  24659468.300    24659469.820                   129586441.4320  100976490.2340

  20732461.840    20732461.740    20732462.900   108950020.0330   84896296.8550
  81359056.6670
  25023463.540    25023462.040    25023466.900   131499179.0140  102466885.6090
  98197451.1810
  22016745.720    22016743.480                   115698830.3880   90154936.0460

  21373015.340    21373011.580                   112315963.1570   87518917.9670

  25476537.540    25476536.080                   133880104.9920  104322154.2770

  25533113.940    25533110.560                   134177417.7571  104553817.9501

 23  3  1  0 35  0.0000000  0 10G01G03G04G06G07G09G11G17G19G21
  23648809.060    23648810.940    23648810.200   124275456.0950   96838102.6370
  92803274.8770
  21932666.740    21932667.240    21932668.000   115257174.6710   89810913.0650
  86069073.4880
  20441909.040    20441907.920    20441911.960   107423469.5220   83706570.9100
  80218799.3170
  21439598.000    21439598.520    21439599.300   112665862.6200   87791593.9220
  84133631.2040
  24641956.860    24641957.920                   129494418.7770  100904784.5850

  20722767.120    20722767.000    20722768.260   108899073.8170   84856598.5280
  81321012.4400
  25003764.980    25003763.480    25003768.320   131395662.5240  102386223.3870
  98120149.8460
  22029562.200    22029559.960                   115766181.7920   90207417.6320

  21377941.840    21377938.100                   112341851.7110   87539090.8560

  25493932.160    25493930.560                   133971513.3380  104393381.4930

 23  3  1  0 35 30.0000000  0 10G01G03G04G06G07G09G11G17G19G21
  23668057.300    23668059.020    23668058.300   124376605.6350   96916920.4540
  92878808.6110
  21944655.460    21944655.940    21944656.660   115320175.9590   89860004.9640
  86116119.8970
  20445645.860    20445644.660    20445648.680   107443106.3750   83721872.3590
  80233463.2090
  21426094.220    21426094.660    21426095.480   112594899.6620   87736298.1080
  84080639.3920
  24624437.000    24624437.580                   129402352.1220  100833044.6220

  20713163.280    20713163.140    20713164.440   108848605.3390   84817272.4500
  81283324.9600
  24984066.980    24984065.560    24984070.520   131292149.2090  102305563.6440
  98042850.9140
  22042452.040    22042449.780                   115833918.4920   90260199.4460

  21382988.380    21382984.600                   112368371.2920   87559755.4420

  25511342.600    25511340.940                   134063005.3080  104464673.7960

 23  3  1  0 36  0.0000000  0 10G01G03G04G06G07G09G11G17G19G21
  23687340.100    23687341.600    23687341.080   124477937.0050   96995879.9570
  92954478.1300
  21956674.740    21956675.080    21956675.800   115383337.5600   89909221.7910
  86163286.0240
  20449480.700    20449479.480    20449483.480   107463258.5510   83737575.3590
  80248511.9270
  21412647.040    21412647.460    21412648.300   112524234.3980   87681234.2700
  84027869.8930
  24606909.460    24606909.740                   129310244.8580  100761273.0130

  20703650.580    20703650.440    20703651.700   108798615.9130   84778319.6680
  81245995.2110
  24964369.980    24964368.800    24964373.680   131188641.3030  102224908.1090
  97965556.0610
  22055414.840    22055412.620                   115902038.5870   90313280.0090

  21388154.840    21388151.000                   112395521.3170   87580911.2880

  25528769.040    25528767.400                   134154580.4500  104536030.9320

 23  3  1  0 36 30.0000000  0 10G01G03G04G06G07G09G11G17G19G21
  23706656.840    23706658.320    23706658.020   124579447.4240   97074978.9700
  93030281.3220
  21968724.180    21968724.320    21968724.960   115446657.5160   89958562.0070
  86210570.3970
  20453413.040    20453411.880    20453415.780   107483923.3420   83753677.7970
  80263943.4210
  21399256.580    21399257.100    21399257.940   112453867.6530   87626403.0460
  83975323.3100
  24589374.300    24589374.320                   129218097.7770  100689470.3610

  20694228.880    20694228.720    20694229.920   108749104.8420   84739739.6280
  81209022.6760
  24944674.180    24944673.060    24944677.960   131085139.0340  102144256.9670
  97888265.3640
  22068449.860    22068447.800                   115970538.1130   90366656.2370

  21393440.600    21393436.740                   112423298.5070   87602555.8370

  25546210.740    25546209.240                   134246236.0690  104607450.6890

 23  3  1  0 37  0.0000000  0 10G01G03G04G06G07G09G11G17G19G21
  23726007.500    23726009.200    23726009.120   124681136.9160   97154217.5300
  93106218.2510
  21980803.860    21980803.980    21980804.480   115510136.7470   90008026.3260
  86257973.7100
  20457442.940    20457441.880    20457445.660   107505100.8880   83770179.7810
  80279757.8220
  21385923.680    21385924.320    21385925.120   112383803.2190   87571807.3910
  83923002.4690
  24571832.280    24571832.140                   129125915.0010  100617639.8830

  20684898.620    20684898.460    20684899.540   108700074.3390   84701534.0590
  81172409.0100
  24924980.060    24924978.860    24924983.860   130981645.5510  102063612.6430
  97810981.2400
  22081556.900    22081554.920                   116039415.8710   90420327.1880

  21398845.720    21398841.880                   112451702.9670   87624689.1680

  25563667.680    25563666.180                   134337972.5010  104678933.5360

 23  3  1  0 37 30.0000000  0 10G01G03G04G06G07G09G11G17G19G21
  23745391.400    23745393.620    23745393.660   124783002.0950   97233592.9420
  93182286.3240
  21992913.380    21992913.440    21992914.020   115573772.6910   90057612.7720
  86305494.0600
  20461569.800    20461568.760    20461572.520   107526787.8150   83787078.6880
  80295952.6130
  21372648.380    21372649.120    21372649.880   112314041.3430   87517447.4900
  83870907.5720
  24554283.560    24554283.240                   129033696.5380  100545781.5860

  20675659.620    20675659.440    20675660.400   108651523.1460   84663701.9740
  81136153.2720
  24905287.540    24905286.440    24905291.300   130878160.5410  101982974.9960
  97733703.4440
  22094735.040    22094733.200                   116108667.3830   90474289.3760

  21404369.660    21404365.840                   112480731.5910   87647308.8570

  25581139.120    25581137.520                   134429785.8160  104750476.2020

 23  3  1  0 38  0.0000000  0 10G01G03G04G06G07G09G11G17G19G21
  23764808.900    23764811.480    23764811.580   124885043.1920   97313105.4280
  93258485.7950
  22005052.980    22005053.020    22005053.800   115637566.6090   90107322.3080
  86353132.3580
  20465793.680    20465792.620    20465796.380   107548984.5510   83804374.8500
  80312528.0980
  21359431.440    21359432.260    21359433.020   112244586.0700   87463326.5030
  83819041.6250
  24536728.940    24536728.400                   128941447.2470  100473899.2320

  20666512.340    20666512.140    20666512.940   108603453.7490   84626245.3200
  81100257.3080
  24885597.300    24885596.340    24885601.000   130774687.4710  101902346.5730
  97656434.5740
  22107984.220    22107982.540                   116178292.1470   90528542.4080

  21410012.500    21410008.680                   112510384.6600   87670415.1240

  25598625.600    25598624.000                   134521677.2850  104822079.8100

 23  3  1  0 38 30.0000000  0 10G01G03G04G06G07G09G11G17G19G21
  23784259.360    23784262.040    23784262.000   124987256.0510   97392751.7730
  93334813.5170
  22017221.980    22017222.120    22017222.980   115701515.1250   90157152.3040
  86400886.1120
  20470113.780    20470112.680    20470116.460   107571686.9040   83822065.0010
  80329481.1620
  21346272.780    21346273.620    21346274.420   112175436.8790   87409444.0280
  83767404.2600
  24519168.400    24519167.700                   128849166.5720  100401992.4190

  20657456.340    20657456.120    20657456.760   108555864.0110   84589162.4160
  81064719.5310
  24865909.020    24865908.220    24865912.720   130671225.2930  101821726.6710
  97579173.8380
  22121303.340    22121301.840                   116248284.5080   90583081.8860

  21415773.280    21415769.520                   112540657.5320   87694004.3590

  25616126.340    25616124.460                   134613643.3610  104893741.4710

 23  3  1  0 39  0.0000000  0 10G01G03G04G06G07G09G11G17G19G21
  23803742.760    23803745.380    23803745.060   125089640.9770   97472532.1930
  93411269.7410
  22029420.620    22029420.820    22029421.880   115765619.5820   90207103.8130
  86448756.2940
  20474530.220    20474529.120    20474532.840   107594895.3470   83840149.5100
  80346812.1460
  21333173.180    21333173.960    21333174.900   112106597.9670   87355803.3230
  83715998.5820
  24501602.700    24501602.020                   128756858.9520  100330064.6110

  20648492.080    20648491.880    20648492.400   108508756.4440   84552455.2350
  81029541.8120
  24846223.600    24846222.780    24846227.160   130567777.5840  101741118.0640
  97501923.9120
  22134692.340    22134691.000                   116318644.1150   90637907.5250

  21421652.140    21421648.420                   112571550.9270   87718077.1190

  25633641.320    25633639.420                   134705684.3170  104965461.6000

 23  3  1  0 39 30.0000000  0 10G01G03G04G06G07G09G11G17G19G21
  23823259.020    23823261.340    23823260.820   125192197.7710   97552446.5500
  93487854.3560
  22041649.140    22041649.300    22041650.480   115829880.6810   90257177.3860
  86496743.4720
  20479042.860    20479041.880    20479045.580   107618609.7040   83858628.2340
  80364520.9250
  21320133.280    21320134.040    21320135.120   112038072.7800   87302407.0800
  83664827.1840
  24484032.560    24484031.860                   128664528.3070  100258118.8540

  20639619.920    20639619.800    20639620.180   108462132.9730   84516125.2720
  80994725.6030
  24826541.520    24826540.500    24826544.940   130464347.2420  101660522.9830
  97424686.9510
  22148150.860    22148149.660                   116389368.9960   90693017.7960

  21427648.980    21427645.320                   112603064.3320   87742632.9990

  25651170.280    25651168.300                   134797798.7770  105037238.8780

 23  3  1  0 40  0.0000000  0 10G01G03G04G06G07G09G11G17G19G21
  23842807.160    23842809.260    23842808.620   125294922.4370   97632491.7170
  93564564.3210
  22053906.880    22053907.060    22053908.180   115894295.3050   90307370.5900
  86544845.2870
  20483651.000    20483650.100    20483653.880   107642825.9450   83877498.0320
  80382604.4820
  21307153.040    21307153.780    21307154.880   111969861.0350   87249255.0790
  83613889.8500
  24466458.020    24466457.520                   128572174.3300  100186154.9050

  20630839.540    20630839.460    20630839.820   108415991.6750   84480171.0390
  80960269.4750
  24806862.500    24806861.580    24806865.880   130360933.4410  101579940.7900
  97347462.3520
  22161678.080    22161676.940                   116460454.7260   90748409.2480

  21433762.940    21433759.360                   112635193.4110   87767668.6340

  25668713.000    25668710.860                   134889984.2490  105109071.5250

 23  3  1  0 40 30.0000000  0 10G01G03G04G06G07G09G11G17G19G21
  23862387.080    23862388.920    23862388.420   125397814.6910   97712667.4780
  93641399.4460
  22066194.000    22066194.140    22066195.100   115958864.1570   90357683.9690
  86593062.2690
  20488354.600    20488353.780    20488357.640   107667543.8610   83896758.7480
  80401062.6750
  21294233.120    21294233.820    21294234.920   111901966.2210   87196350.0350
  83563189.1930
  24448879.780    24448879.280                   128479800.8230  100114175.7180

  20622151.240    20622151.140    20622151.560   108370334.3350   84444593.8980
  80926174.7170
  24787187.380    24787186.220    24787190.520   130257539.1370  101499373.7950
  97270252.3070
  22175273.620    22175272.500                   116531899.4710   90804080.4480

  21439993.980    21439990.420                   112667937.8630   87793183.7750

  25686268.880    25686266.780                   134982252.8061  105180966.4871

 23  3  1  0 41  0.0000000  0 10G01G03G04G06G07G09G11G17G19G21
  23881998.900    23882000.540    23882000.240   125500875.2250   97792974.3670
  93718360.2260
  22078510.800    22078510.840    22078511.640   116023588.8790   90408118.8040
  86641395.6450
  20493153.840    20493153.020    20493156.960   107692764.1530   83916410.9260
  80419896.0120
  21281374.360    21281375.060    21281376.060   111834392.7860   87143695.4170
  83512728.5100
  24431298.800    24431298.200                   128387412.5940  100042185.0460

  20613555.540    20613555.380    20613555.940   108325163.6770   84409395.9850
  80892443.3870
  24767516.600    24767515.480    24767519.680   130154168.3010  101418825.0530
  97193059.7800
  22188937.400    22188936.300                   116603702.9360   90860031.1690

  21446342.240    21446338.700                   112701298.2520   87819178.8720

  25703838.480    25703836.380

 23  3  1  0 41 30.0000000  0 10G01G03G04G06G07G09G11G17G19G21
  23901641.540    23901642.800    23901642.860   125604097.7660   97873407.4950
  93795441.9780
  22090856.180    22090856.220    22090856.880   116088464.1280   90458670.9410
  86689841.4310
  20498047.500    20498046.640    20498050.660   107718480.5130   83936449.6540
  80439099.7930
  21268576.220    21268576.980    21268577.780   111767138.2170   87091289.2640
  83462505.9360
  24413714.520    24413713.960                   128295007.1010   99970180.9280

  20605051.640    20605051.420    20605052.140   108280475.5800   84374574.1160
  80859072.4340
  24747849.740    24747848.400    24747852.700   130050817.8130  101338292.2070
  97115882.4690
  22202668.040    22202666.800                   116675857.5650   90916255.5310

  21452806.640    21452803.060                   112735268.4990   87845649.1790

  25721420.500    25721418.740                   135166975.7631  105324906.2411

 23  3  1  0 42  0.0000000  0 10G01G03G04G06G07G09G11G17G19G21
  23921315.600    23921316.460    23921317.120   125707486.1540   97953969.8630
  93872647.5510
  22103231.120    22103231.200    22103231.780   116153494.7270   90509344.1240
  86738403.2280
  20503036.300    20503035.400    20503039.480   107744696.8070   83956877.9390
  80458676.9020
  21255840.200    21255841.040    21255841.680   111700210.0720   87039137.4710
  83412527.1400
  24396128.540    24396127.740                   128202592.5280   99898169.7010

  20596640.660    20596640.420    20596641.280   108236275.8470   84340132.7760
  80826066.1550
  24728187.960    24728186.780    24728191.000   129947494.8400  101257780.8100
  97038725.6880
  22216466.080    22216464.620                   116748366.1820   90972755.7230

  21459387.700    21459384.100                   112769852.0210   87872597.3660

  25739015.820    25739014.380                   135259439.8750  105396955.9790

 23  3  1  0 42 30.0000000  0 10G01G03G04G06G07G09G11G17G19G21
  23941020.100    23941020.840    23941022.060   125811035.2720   98034657.4690
  93949973.1740
  22115634.780    22115635.160    22115635.560   116218676.6050   90560135.1780
  86787077.9950
  20508119.300    20508118.360    20508122.480   107771407.9770   83977691.8350
  80478623.5530
  21243166.060    21243166.920    21243167.540   111633607.1060   86987239.0680
  83362791.1670
  24378540.460    24378539.820                   128110167.8580   99826150.6390

  20588322.040    20588321.840    20588322.780   108192561.5040   84306069.6680
  80793422.3390
  24708531.240    24708530.000    24708534.160   129844197.6090  101177289.4630
  96961588.1380
  22230330.300    22230328.660                   116821222.7820   91029527.0670

  21466084.520    21466080.820                   112805043.8090   87900019.5220

  25756623.660    25756622.200                   135351968.8631  105469060.1791

 23  3  1  0 43  0.0000000  0 10G01G03G04G06G07G09G11G17G19G21
  23960755.380    23960756.240    23960757.740   125914745.8490   98115470.8890
  94027419.3240
  22128067.540    22128068.160    22128068.520   116284011.3630   90611045.3620
  86835866.9180
  20513296.600    20513295.580    20513299.740   107798614.5640   83998891.7780
  80498940.1620
  21230554.600    21230555.540    21230556.180   111567333.6420   86935597.4130
  83313301.2540
  24360951.400    24360950.520                   128017737.2620   99754126.9170

  20580096.320    20580096.160    20580097.180   108149335.1660   84272386.8300
  80761142.9550
  24688879.980    24688878.720    24688882.980   129740929.8850  101096821.0980
  96884472.6290
  22244260.520    22244258.740                   116894426.3480   91086568.7780

  21472896.980    21472893.160                   112840843.1600   87927915.0960

  25774243.860

 23  3  1  0 43 30.0000000  0 10G01G03G04G06G07G09G11G17G19G21
  23980520.720    23980521.820    23980523.280   126018613.4980   98196406.7010
  94104982.8110
  22140528.780    22140529.440    22140529.980   116349495.7080   90662072.1160
  86884767.5550
  20518567.340    20518566.260    20518570.420   107826312.3110   84020474.4420
  80519623.5490
  21218005.840    21218006.720    21218007.560   111501389.2320   86884212.1650
  83264057.0530
  24343361.280    24343360.320                   127925301.0200   99682098.8020

  20571963.040    20571962.920    20571963.980   108106594.5860   84239082.4960
  80729226.3050
  24669234.240    24669232.940    24669237.340   129637690.7980  101016375.0670
  96807378.5060
  22258255.840    22258253.880                   116967971.8760   91143876.9550

  21479824.340    21479820.420                   112877246.5610   87956281.3580

  25791876.120    25791876.280                   135537222.4191  105613420.3901

 23  3  1  0 44  0.0000000  0 10G01G03G04G06G07G09G11G17G19G21
  24000316.140    24000317.580    24000318.840   126122639.3920   98277465.8090
  94182664.4330
  22153018.860    22153019.540    22153020.320   116415131.7600   90713217.0820
  86933781.4690
  20523931.740    20523930.620    20523934.780   107854502.2030   84042440.5970
  80540674.4500
  21205520.580    21205521.440    21205522.420   111435778.7400   86833087.1160
  83215062.2170
  24325771.160    24325770.100                   127832864.2370   99610070.2480

  20563922.800    20563922.720    20563923.780   108064342.8030   84206159.0450
  80697674.6690
  24649594.840    24649593.660    24649597.920   129534484.7470  100935954.7510
  96730309.0190
  22272316.100    22272313.980                   117041858.7520   91201451.1130

  21486866.680    21486862.720                   112914254.4730   87985118.6680

  25809520.460                                   135629944.4381

 23  3  1  0 44 30.0000000  0 10G01G03G04G06G07G09G11G17G19G21
  24020141.340    24020143.020    24020144.000   126226821.3170   98358646.5190
  94260462.5970
  22165537.640    22165538.200    22165539.300   116480918.3620   90764479.3610
  86982907.8060
  20529389.320    20529388.260    20529392.380   107883182.0870   84064788.5590
  80562091.2480
  21193099.180    21193099.960    21193101.020   111370503.7870   86782223.5210
  83166317.9460
  24308181.040    24308180.280                   127740428.7180   99538042.6870

  20555975.540    20555975.500    20555976.580   108022579.7140   84173616.3970
  80666487.9640
  24629961.720    24629960.580    24629965.040   129431312.8300  100855561.0480
  96653265.0630
  22286440.680    22286438.440                   117116083.7840   91259288.7740

  21494023.600    21494019.620                   112951864.3990   88014425.0830

  25827176.440

 23  3  1  0 45  0.0000000  0 10G01G03G04G06G07G09G11G17G19G21
  24039995.980    24039997.780    24039998.560   126331157.6520   98439947.5330
  94338376.0650
  22178084.980    22178085.520    22178086.720   116546854.8600   90815858.4360
  87032146.0900
  20534939.840    20534938.820    20534942.880   107912350.2380   84087516.9880
  80583872.6610
  21180742.000    21180742.720    21180743.860   111305566.4780   86731623.0270
  83117825.8060
  24290591.680    24290591.260                   127647996.7930   99466017.9370

  20548121.360    20548121.280    20548122.360   107981305.5810   84141454.7490
  80635666.3970
  24610335.600    24610334.600    24610338.940   129328176.7730  100775195.3080
  96576247.8980
  22300629.180    22300626.900                   117190644.6710   91317388.1360

  21501294.780    21501290.840                   112990074.4850   88044199.1510

  25844843.520    25844843.480

 23  3  1  0 45 30.0000000  0  9G01G03G04G06G07G09G11G17G19
  24059880.000    24059881.760    24059882.400   126435648.1020   98521368.6550
  94416404.6520
  22190661.020    22190661.500    22190662.740   116612942.0810   90867354.9580
  87081496.9250
  20540583.200    20540582.260    20540586.200   107942006.3260   84110625.6310
  80606018.4440
  21168449.760    21168450.400    21168451.600   111240970.3550   86681288.3870
  83069588.4530
  24273003.900    24273003.540                   127555572.4480   99393999.0820

  20540360.500    20540360.420    20540361.440   107940522.1170   84109675.4390
  80605211.2270
  24590716.720    24590716.040    24590720.180   129225079.6750  100694859.8920
  96499259.7770
  22314881.240    22314878.980                   117265539.6670   91375747.8390

  21508680.060    21508676.160                   113028884.1280   88074440.4110

 23  3  1  0 46  0.0000000  0  9G01G03G04G06G07G09G11G17G19
  24079792.320    24079794.000    24079794.500   126540287.2850   98602905.6760
  94494544.2920
  22203264.900    22203265.240    22203266.540   116679175.5420   90918965.4420
  87130956.9650
  20546318.380    20546317.420    20546321.320   107972144.8110   84134110.1620
  80628524.4550
  21156222.160    21156222.760    21156223.980   111176713.7650   86631218.3280
  83021604.6530
  24255417.180    24255416.920                   127463153.8360   99321984.6950

  20532692.360    20532692.260    20532693.160   107900225.8490   84078275.7610
  80575119.8710
  24571105.000    24571104.320    24571108.440   129122019.4060  100614553.1810
  96422299.1990
  22329195.600    22329193.420                   117340762.1450   91434362.7150

  21516178.260    21516174.420                   113068287.3430   88105144.1940

 23  3  1  0 46 30.0000000  0  9G01G03G04G06G07G09G11G17G19
  24099733.240    24099734.720    24099735.160   126645076.5890   98684559.6650
  94572796.0590
  22215897.040    22215897.340    22215898.500   116745557.7760   90970691.8440
  87180528.0960
  20552145.620    20552144.620    20552148.560   108002767.0640   84157971.6620
  80651391.7320
  21144060.120    21144060.780    21144062.000   111112801.9900   86581416.9480
  82973878.3430
  24237832.760    24237832.320                   127370747.0380   99249979.4850

  20525117.540    20525117.420    20525118.220   107860420.1320   84047258.3300
  80545394.8370
  24551501.160    24551500.420    24551504.700   129019000.9260  100534279.0690
  96345369.8280
  22343572.300    22343570.160                   117416312.1130   91493232.7860

  21523789.620    21523785.840                   113108285.3330   88136311.4370

 23  3  1  0 47  0.0000000  0  9G01G03G04G06G07G09G11G17G19
  24119702.120    24119703.480    24119703.860   126750013.6310   98766328.7740
  94651158.1370
  22228557.160    22228557.600    22228558.440   116812087.5070   91022533.1770
  87230209.3740
  20558064.480    20558063.460    20558067.420   108033870.6440   84182208.2220
  80674618.4290
  21131963.960    21131964.680    21131965.920   111049236.4260   86531885.3530
  82926410.5640
  24220250.800    24220250.200                   127278353.6880   99177984.7530

  20517636.000    20517635.860    20517636.560   107821104.5630   84016622.8460
  80516035.8390
  24531905.640    24531904.740    24531909.080   128916025.1720  100454038.1970
  96268472.3270
  22358010.540    22358008.580                   117492185.9760   91552355.2350

  21531513.600    21531509.800                   113148875.1540   88167939.8440

 23  3  1  0 47 30.0000000  0  9G01G03G04G06G07G09G11G17G19
  24139698.800    24139700.180    24139700.540   126855097.4210   98848212.2230
  94729629.7750
  22241245.380    22241245.920    22241246.460   116878764.7060   91074489.4150
  87280000.7700
  20564074.640    20564073.600    20564077.620   108065454.3480   84206818.8980
  80698203.6610
  21119934.220    21119934.980    21119936.180   110986019.8160   86482625.6640
  82879203.3690
  24202671.880    24202671.000                   127185976.2470   99106002.4170

  20510247.880    20510247.720    20510248.360   107782279.9300   83986369.8920
  80487043.4210
  24512318.620    24512317.620    24512322.080   128813094.4660  100373832.4650
  96191608.4670
  22372510.080    22372508.320                   117568381.9490   91611728.6980

  21539349.900    21539346.060                   113190055.3430   88200028.2710

 23  3  1  0 48  0.0000000  0  9G01G03G04G06G07G09G11G17G19
  24159723.580    24159724.980    24159725.380   126960328.5240   98930210.4560
  94808211.4210
  22253962.020    22253962.620    22253962.940   116945591.0760   91126561.9010
  87329903.5700
  20570176.220    20570175.200    20570179.220   108097518.7400   84231804.1350
  80722147.8460
  21107971.700    21107972.500    21107973.620   110923156.6040   86433641.3470
  82832260.0730
  24185097.020    24185095.960                   127093620.2780   99034036.8200

  20502953.660    20502953.500    20502954.120   107743948.7740   83956501.4730
  80458419.5310
  24492740.920    24492739.740    24492744.420   128710212.8720  100293664.9800
  96114781.3220
  22387070.660    22387069.220                   117644899.1960   91671352.4980

  21547298.580    21547294.700                   113231826.0590   88232576.8580

 23  3  1  0 48 30.0000000  0  9G01G03G04G06G07G09G11G17G19
  24179775.440    24179776.940    24179777.500   127065702.3530   99012319.9080
  94886899.6550
  22266706.440    22266706.980    22266707.420   117012563.1010   91178747.8880
  87379915.1390
  20576368.400    20576367.340    20576371.340   108130059.0660   84257160.2330
  80746447.4380
  21096076.360    21096077.140    21096078.140   110860645.9780   86384931.7790
  82785580.0680
  24167526.240    24167525.000                   127001285.3480   98962087.6090

  20495752.900    20495752.660    20495753.380   107706108.4200   83927015.4970
  80430162.1350
  24473172.400    24473171.160    24473175.840   128607379.2340  100213534.8670
  96037989.9560
  22401691.340    22401690.120                   117721732.0400   91731222.2160

  21555358.740    21555354.800                   113274182.3810   88265581.7570

 23  3  1  0 49  0.0000000  0  9G01G03G04G06G07G09G11G17G19
  24199854.740    24199856.440    24199857.160   127171220.2230   99094541.6090
  94965695.4330
  22279478.960    22279479.460    22279480.100   117079683.1700   91231049.2260
  87430037.2490
  20582651.400    20582650.280    20582654.200   108163076.4850   84282888.0960
  80771103.2990
  21084249.080    21084249.780    21084250.720   110798493.0530   86336500.9340
  82739167.1730
  24149960.320    24149959.120                   126908976.5510   98890158.7400

  20488646.120    20488645.860    20488646.660   107668761.9990   83897914.4040
  80402273.5920
  24453613.820    24453612.660    24453617.240   128504598.3130  100133445.8190
  95961237.9500
  22416372.080    22416370.980                   117798880.3060   91791337.7260

  21563530.460    21563526.600                   113317125.0380   88299043.5520

 23  3  1  0 49 30.0000000  0  9G01G03G04G06G07G09G11G17G19
  24219960.720    24219962.380    24219963.200   127276876.8970   99176871.4600
  95044594.8620
  22292278.820    22292279.320    22292280.020   117146947.1670   91283462.7220
  87480266.8350
  20589024.200    20589023.080    20589026.880   108196565.6730   84308983.5670
  80796111.4580
  21072489.580    21072490.280    21072491.060   110736696.4160   86288347.7170
  82693020.3380
  24132399.260    24132398.160                   126816692.6840   98818249.3130

  20481632.720    20481632.480    20481633.320   107631906.1730   83869195.6070
  80374751.4160
  24434065.000    24434063.720    24434068.360   128401868.2920  100053396.4340
  95884523.9850
  22431111.780    22431110.720                   117876337.8340   91851694.2140

  21571812.700    21571808.940                   113360648.5060   88332957.9300

 23  3  1  0 50  0.0000000  0  9G01G03G04G06G07G09G11G17G19
  24240093.360    24240095.040    24240095.900   127382674.3660   99259311.0340
  95123599.4340
  22305106.640    22305107.200    22305107.680   117214358.1520   91335990.7500
  87530606.1980
  20595487.160    20595486.020    20595489.600   108230528.4330   84335448.0580
  80821473.2640
  21060798.960    21060799.680    21060800.260   110675261.8450   86240476.6330
  82647143.8890
  24114844.060    24114843.020                   126724439.9140   98746364.1050

  20474713.380    20474713.160    20474713.980   107595544.7040   83840862.0070
  80347598.3920
  24414526.820    24414525.440    24414530.020   128299194.6870   99973391.0410
  95807852.1380
  22445910.400    22445909.360                   117954104.8390   91912291.8560

  21580205.760    21580202.100                   113404754.0340   88367325.8540

 23  3  1  0 50 30.0000000  0  9G01G03G04G06G07G09G11G17G19
  24260251.580    24260253.200    24260253.960   127488606.3120   99341855.3970
  95202704.4330
  22317961.520    22317962.060    22317961.980   117281910.9210   91388629.2610
  87581051.4370
  20602039.000    20602037.880    20602041.140   108264958.3010   84362276.5330
  80847183.8890
  21049176.760    21049177.520    21049177.780   110614186.8350   86192885.7250
  82601535.9340
  24097294.360    24097293.440                   126632216.2460   98674501.5820

  20467887.280    20467887.060    20467887.660   107559673.1460   83812910.1600
  80320811.2090
  24394998.780    24394997.560    24395001.780   128196574.6010   99893427.3240
  95731220.2700
  22460766.640    22460765.600                   118032174.2110   91973125.1060

  21588708.160    21588704.580                   113449434.2690   88402141.5970

 23  3  1  0 51  0.0000000  0  9G01G03G04G06G07G09G11G17G19
  24280436.560    24280438.180    24280438.920   127594679.1240   99424509.5160
  95281914.6220
  22330844.880    22330845.360    22330844.860   117349613.0040   91441384.1150
  87631608.1700
  20608680.940    20608679.800    20608682.960   108299861.5320   84389473.8570
  80873247.9900
  21037624.900    21037625.740    21037625.800   110553481.6430   86145582.9900
  82556204.1490
  24079752.260    24079751.260                   126540031.9510   98602669.7420

  20461155.980    20461155.700    20461156.200   107524299.6970   83785346.4420
  80294395.9790
  24375482.920    24375481.720    24375485.780   128094017.9860   99813513.0660
  95654635.7890
  22475681.420    22475680.380                   118110551.5700   92034198.3320

  21597321.180    21597317.580                   113494695.6740   88437410.2030

 23  3  1  0 51 30.0000000  0  9G01G03G04G06G07G09G11G17G19
  24300646.100    24300647.920    24300648.580   127700881.6350   99507264.6970
  95361221.6520
  22343754.720    22343755.240    22343754.580   117417454.3270   91494247.4710
  87682268.8920
  20615410.740    20615409.640    20615412.800   108335226.7670   84417031.1840
  80899657.0950
  21026142.040    21026142.880    21026142.900   110493138.8700   86098562.6650
  82511142.9960
  24062216.340    24062215.340                   126447880.1380   98530863.1840

  20454517.640    20454517.340    20454517.820   107489414.9770   83758163.5520
  80268345.7150
  24355977.680    24355976.260    24355980.440   127991517.1660   99733642.3260
  95578092.9610
  22490652.340    22490651.160                   118189223.6050   92095501.1800

  21606042.540    21606038.820                   113540526.3470   88473122.3970

 23  3  1  0 52  0.0000000  0  9G01G03G04G06G07G09G11G17G19
  24320881.300    24320883.180    24320883.720   127807218.0850   99590124.2390
  95440628.7070
  22356692.080    22356692.600    22356691.940   117485440.3210   91547223.5480
  87733037.6380
  20622229.200    20622228.180    20622231.300   108371058.1290   84444951.7300
  80926414.2850
  21014729.660    21014730.480    21014730.580   110433166.5680   86051831.0140
  82466358.5050
  24044688.180    24044687.160                   126355769.3690   98459088.6450

  20447973.440    20447973.080    20447973.580   107455025.0480   83731366.2160
  80242664.9410
  24336484.400    24336483.180    24336487.260   127889079.8610   99653821.0330
  95501597.6040
  22505680.100    22505678.720                   118268194.3000   92157036.7510

  21614872.900    21614869.020                   113586929.9180   88509281.0000

 23  3  1  0 52 30.0000000  0  9G01G03G04G06G07G09G11G17G19
  24341141.280    24341143.280    24341143.740   127913685.0430   99673085.4650
  95520133.2320
  22369656.560    22369656.960    22369656.500   117553568.6480   91600310.5490
  87783912.6770
  20629135.640    20629134.680    20629137.800   108407351.9560   84473232.6350
  80953516.8190
  21003387.860    21003388.620    21003388.820   110373565.1460   86005388.3560
  82421850.9480
  24027167.800    24027166.980                   126263700.1570   98387346.4550

  20441523.060    20441522.660    20441523.200   107421128.2560   83704953.1500
  80217352.4260
  24317003.400    24317002.100    24317006.240   127786706.2760   99574049.4270
  95425149.7850
  22520763.700    22520762.160                   118347458.4590   92218801.0000

  21623811.480    21623807.520                   113633902.3760   88545882.9010

 23  3  1  0 53  0.0000000  0  9G01G03G04G06G07G09G11G17G19
  24361426.080    24361428.200    24361428.480   128020282.3150   99756148.2420
  95599735.0460
  22382648.160    22382648.540    22382648.420   117621840.2370   91653509.1760
  87834894.6790
  20636130.000    20636129.060    20636132.180   108444107.8100   84501873.5610
  80980964.3770
  20992117.320    20992118.020    20992118.400   110314338.1400   85959237.4440
  82377623.0050
  24009656.260    24009655.460                   126171676.5770   98315639.8310

  20435166.800    20435166.400    20435166.900   107387726.0660   83678925.4730
  80192409.2370
  24297535.020    24297533.900    24297538.020   127684399.6000   99494329.9410
  95348751.9310
  22535902.800    22535901.100                   118427014.4170   92280792.6210

  21632858.040    21632854.100                   113681442.5240   88582927.1520

 23  3  1  0 53 30.0000000  0  9G01G03G04G06G07G09G11G17G19
  24381735.080    24381737.280    24381737.460   128127006.8520   99839310.1830
  95679431.9050
  22395666.680    22395667.120    22395667.180   117690253.3100   91706818.0520
  87885982.3380
  20643211.700    20643210.760    20643213.920   108481322.5710   84530872.0750
  81008754.6220
  20980918.240    20980918.880    20980919.420   110255486.4670   85913378.9970
  82333675.3350
  23992153.540    23992152.920                   126079699.6520   98243969.5660

  20428904.440    20428904.080    20428904.460   107354817.3230   83653282.3100
  80167834.5430
  24278079.580    24278078.520    24278082.560   127582160.4230   99414663.0730
  95272404.5430
  22551096.680    22551094.860                   118506858.2960   92343008.5960

  21642011.980    21642008.080                   113729546.9040   88620411.0710

 23  3  1  0 54  0.0000000  0  9G01G03G04G06G07G09G11G17G19
  24402068.240    24402070.460    24402070.480   128233858.2370   99922570.9660
  95759223.4830
  22408712.240    22408712.740    22408712.900   117758808.4620   91760237.6340
  87937176.1140
  20650380.580    20650379.640    20650382.820   108518995.4920   84560227.6020
  81036887.0020
  20969791.240    20969791.860    20969792.480   110197013.4170   85867815.5880
  82290010.4080
  23974660.560    23974659.980                   125987773.5030   98172338.8500

  20422736.200    20422735.920    20422736.160   107322403.2290   83628024.5880
  80143629.2340
  24258637.620    24258636.600    24258640.580   127479991.9610   99335051.3120
  95196109.9240
  22566344.860    22566342.980                   118586987.8630   92405447.1930

  21651273.060    21651269.240                   113778214.3150   88658333.7220

 23  3  1  0 54 30.0000000  0  9G01G03G04G06G07G09G11G17G19
  24422425.080    24422427.340    24422427.100   128340833.8350  100005928.5460
  95839107.8600
  22421784.560    22421785.140    22421785.320   117827504.4160   91813766.9390
  87988475.0230
  20657636.140    20657635.140    20657638.400   108557123.8560   84589938.0200
  81065359.4920
  20958736.500    20958737.100    20958737.820   110138920.3000   85822548.2350
  82246629.2020
  23957177.560    23957177.080                   125895899.8460   98100749.0560

  20416661.980    20416661.760    20416661.820   107290483.0160   83603151.7100
  80119792.7280
  24239209.160    24239208.160    24239212.240   127377895.1740   99255495.3910
  95119868.8420
  22581646.800    22581644.880                   118667399.9980   92468105.9700

  21660640.660    21660636.940                   113827441.5330   88696692.5840

 23  3  1  0 55  0.0000000  0  9G01G03G04G06G07G09G11G17G19
  24442805.460    24442807.720    24442807.240   128447933.6650  100089382.9450
  95919084.9800
  22434883.920    22434884.520    22434884.620   117896342.2150   91867406.7760
  88039879.8630
  20664978.360    20664977.260    20664980.600   108595707.3560   84620003.0880
  81094171.8440
  20947754.800    20947755.360    20947756.160   110081210.8090   85777579.8100
  82203534.4700
  23939705.240    23939704.800                   125804082.5210   98029203.1370

  20410682.060    20410681.860    20410681.860   107259058.2880   83578664.9230
  80096326.2270
  24219795.140    24219794.100    24219798.080   127275873.5660   99175998.0420
  95043683.8810
  22597002.220    22597000.320                   118748093.3320   92530983.8650

  21670114.660    21670111.060                   113877227.9730   88735487.2080

 23  3  1  0 55 30.0000000  0  9G01G03G04G06G07G09G11G17G19
  24463209.020    24463211.340    24463210.520   128555155.0440  100172932.0430
  95999152.8810
  22448010.020    22448010.700    22448010.620   117965320.4330   91921156.0310
  88091389.5700
  20672406.640    20672405.500    20672408.840   108634743.1660   84650420.6070
  81123321.9690
  20936846.260    20936846.900    20936847.660   110023886.1660   85732911.2610
  82160727.1180
  23922244.020    23922243.660                   125712323.1830   97957702.4280

  20404796.240    20404795.980    20404796.100   107228128.1110   83554563.4980
  80073229.0330
  24200395.640    24200394.580    24200398.400   127173928.1240   99096560.0480
  94967555.8070
  22612410.320    22612408.520                   118829063.5680   92594077.5220

  21679694.480    21679690.980                   113927570.0300   88774714.7710

 23  3  1  0 56  0.0000000  0  9G01G03G04G06G07G09G11G17G19
  24483635.640    24483637.840    24483636.680   128662496.7820  100256574.9370
  96079310.6230
  22461162.900    22461163.620    22461163.420   118034438.9710   91975014.6220
  88143004.0590
  20679920.720    20679919.560    20679922.860   108674229.7990   84681189.4170
  81152808.7470
  20926011.460    20926012.120    20926012.900   109966948.9310   85688544.5930
  82118209.0610
  23904794.420    23904793.920                   125620624.6010   97886249.0300

  20399004.600    20399004.260    20399004.560   107197692.9000   83530847.7700
  80050501.4660
  24181010.960    24181010.000    24181013.680   127072061.2480   99017183.2760
  94891486.4160
  22627870.720    22627869.040                   118910308.6210   92657385.3310

  21689379.700    21689376.240                   113978465.7500   88814373.7490

 23  3  1  0 56 30.0000000  0  9G01G03G04G06G07G09G11G17G19
  24504084.380    24504086.580    24504085.160   128769955.2050  100340308.7580
  96159555.4990
  22474342.020    22474342.720    22474342.700   118103695.4590   92028980.7060
  88194721.5560
  20687519.840    20687518.680    20687521.960   108714163.3680   84712306.4880
  81182629.2710
  20915250.420    20915251.080    20915251.780   109910399.2970   85644479.9510
  82075980.4430
  23887356.560    23887355.900                   125528987.5660   97814843.6180

  20393306.780    20393306.400    20393306.800   107167750.7330   83507516.2320
  80028142.0770
  24161641.340    24161640.380    24161643.920   126970272.9400   98937867.7130
  94815475.6590
  22643382.440    22643380.820                   118991823.0680   92720903.0450

  21699169.460    21699165.960                   114029910.6420   88854460.6600

 23  3  1  0 57  0.0000000  0  9G01G03G04G06G07G09G11G17G19
  24524555.800    24524557.960    24524556.420   128877532.8590  100424135.4700
  96239889.4610
  22487548.020    22487548.820    22487549.080   118173093.6650   92083057.2140
  88246544.8640
  20695204.480    20695203.300    20695206.520   108754546.2480   84743773.6690
  81212785.3210
  20904564.320    20904565.000    20904565.580   109854243.6410   85600722.3140
  82034046.0420
  23869931.620    23869930.900                   125437418.4940   97743491.1230

  20387703.620    20387703.180    20387703.620   107138305.8150   83484572.1520
  80006154.0110
  24142287.880    24142286.840    24142290.280   126868569.4540   98858618.2570
  94739528.2500
  22658945.740    22658944.160                   119073608.6220   92784632.0190

  21709064.060    21709060.480                   114081906.6620   88894977.0260

 23  3  1  0 57 30.0000000  0  9G01G03G04G06G07G09G11G17G19
  24545049.020    24545051.280    24545049.680   128985225.4340  100508051.7510
  96320309.1820
  22500780.340    22500781.180    22500781.740   118242630.3680   92137241.6350
  88298471.5990
  20702973.680    20702972.540    20702975.640   108795373.7510   84775587.3130
  81243273.3980
  20893953.080    20893953.760    20893954.260   109798481.3750   85557271.2010
  81992405.3860
  23852519.640    23852518.780                   125345917.7530   97672191.9240

  20382194.520    20382194.140    20382194.500   107109355.3680   83462013.3830
  79984535.1900
  24122950.360    24122949.300    24122952.680   126766949.9900   98779434.2660
  94663643.6030
  22674559.480    22674557.940                   119155659.2950   92848567.5740

  21719062.460    21719058.840                   114134448.5140   88935918.7170

 23  3  1  0 58  0.0000000  0  9G01G03G04G06G07G09G11G17G19
  24565564.240    24565566.380    24565564.860   129093032.9300  100592057.5600
  96400814.7650
  22514039.400    22514040.040    22514040.800   118312306.9140   92191535.0360
  88350502.7750
  20710827.460    20710826.360    20710829.420   108836645.7610   84807747.3220
  81274093.4130
  20883417.440    20883418.080    20883418.520   109743116.4180   85514129.6780
  81951061.4330
  23835121.420    23835120.500                   125254489.5420   97600949.2370

  20376779.840    20376779.540    20376779.840   107080901.1510   83439841.2750
  79963286.9280
  24103629.460    24103628.540    24103631.740   126665418.3530   98700318.7340
  94587824.5400
  22690223.520    22690222.140                   119237974.5280   92912709.2770

  21729164.540    21729160.920                   114187535.4600   88977285.1480

 23  3  1  0 58 30.0000000  0  9G01G03G04G06G07G09G11G17G19
  24586100.460    24586102.640    24586101.060   129200951.2480  100676149.7270
  96481403.0850
  22527324.600    22527325.040    22527325.680   118382120.3730   92245935.1210
  88402636.1740
  20718764.940    20718763.920    20718767.060   108878357.8100   84840250.2170
  81305242.0190
  20872957.300    20872957.940    20872958.300   109688148.4000   85471297.4600
  81910013.8890
  23817737.040    23817735.960                   125163133.9830   97529763.1370

  20371459.060    20371458.860    20371459.120   107052940.5730   83418053.8190
  79942407.2820
  24084325.240    24084324.380    24084327.500   126563973.9950   98621271.1900
  94512070.6420
  22705936.880    22705935.640                   119320548.6740   92977052.7310

  21739369.360    21739365.820                   114241162.6160   89019072.5260

 23  3  1  0 59  0.0000000  0  9G01G03G04G06G07G09G11G17G19
  24606657.540    24606659.700    24606658.280   129308979.7840  100760327.7870
  96562073.7200
  22540635.860    22540636.220    22540636.640   118452071.3410   92300442.3540
  88454872.2810
  20726786.000    20726785.060    20726788.240   108920509.0830   84873095.3670
  81336718.6270
  20862573.340    20862573.960    20862574.300   109633580.5510   85428777.0600
  81869265.1800
  23800367.160    23800365.820                   125071854.6500   97458636.4190

  20366232.420    20366232.240    20366232.540   107025474.6760   83396651.8290
  79921897.0500
  24065038.280    24065037.220    24065040.580   126462620.0630   98542294.1100
  94436384.2740
  22721699.120    22721698.060                   119403379.6390   93041596.3110

  21749676.680    21749673.220                   114295328.2430   89061279.4940

 23  3  1  0 59 30.0000000  0  9G01G03G04G06G07G09G11G17G19
  24627235.360    24627237.540    24627236.100   129417116.7850  100844590.3540
  96642825.3290
  22553973.120    22553973.560    22553973.760   118522159.3620   92355056.3760
  88507210.7090
  20734890.300    20734889.360    20734892.560   108963097.5430   84906281.1840
  81368521.7020
  20852265.940    20852266.520    20852266.980   109579414.9320   85386570.0910
  81828816.8310
  23783012.060    23783010.680                   124980653.6830   97387570.7920

  20361099.900    20361099.680    20361100.120   106998503.2640   83375635.1570
  79901756.0740
  24045768.820    24045767.700    24045771.280   126361358.5220   98463389.0010
  94360766.8950
  22737509.660    22737508.580                   119486464.2800   93106337.5550

  21760086.020    21760082.560                   114350029.7250   89103904.0130

 23  3  1  1  0  0.0000000  0 10G01G03G04G06G07G09G11G17G19G20
  24647833.760    24647836.040    24647834.560   129525362.9770  100928938.0090
  96723658.4820
  22567336.920    22567337.460    22567337.580   118592386.3660   92409778.7050
  88559652.9460
  20743077.860    20743076.940    20743080.180   109006123.6090   84939807.9940
  81400651.5640
  20842035.980    20842036.540    20842037.100   109525656.0640   85344680.0680
  81788672.2310
  23765673.100    23765671.400                   124889536.7250   97316570.6270

  20356061.920    20356061.680    20356062.220   106972028.6890   83355005.6410
  79881986.1250
  24026517.760    24026516.720    24026520.360   126260193.7980   98384559.3600
  94285221.8200
  22753368.440    22753367.260                   119569802.4400   93171276.3500

  21770597.320    21770593.960                   114405267.1290   89146946.1360

  25620667.240    25620663.760                   134637509.5941  104912342.8821

 23  3  1  1  0 30.0000000  0  9G01G03G04G06G07G09G11G17G19
  24668451.660    24668453.960    24668452.360   129633710.7020  101013364.7770
  96804567.4830
  22580725.960    22580726.540    22580726.640   118662746.0200   92464604.3950
  88612194.2240
  20751347.220    20751346.360    20751349.600   109049579.4410   84973669.6800
  81433102.3380
  20831882.720    20831883.260    20831883.980   109472300.1620   85303104.0400
  81748828.5380
  23748349.420    23748347.460                   124798500.1930   97245633.1270

  20351117.340    20351117.080    20351117.720   106946044.8780   83334758.5370
  79862582.6510
  24007284.420    24007283.480    24007287.200   126159122.0400   98305802.1770
  94209746.1670
  22769273.800    22769272.500                   119653385.3890   93236405.8890

  21781209.000    21781205.660                   114461031.8450   89190399.1440

 23  3  1  1  1  0.0000000  0  9G01G03G04G06G07G09G11G17G19
  24689090.240    24689092.500    24689090.740   129742166.9280  101097876.0950
  96885557.4960
  22594141.800    22594142.340    22594142.460   118733246.4700   92519539.8040
  88664840.6560
  20759699.600    20759698.820    20759702.040   109093471.6050   85007871.3620
  81465878.9620
  20821808.200    20821808.740    20821809.520   109419357.8890   85261850.3280
  81709293.7280
  23731043.120    23731041.000                   124707555.0830   97174766.8610

  20346267.780    20346267.500    20346268.180   106920560.2310   83314900.3810
  79843551.9160
  23988070.740    23988069.840    23988073.760   126058153.8170   98227125.6520
  94134347.8380
  22785226.800    22785225.300                   119737218.3420   93301730.2350

  21791922.200    21791918.880                   114517329.8700   89234267.7190

 23  3  1  1  1 30.0000000  0  9G01G03G04G06G07G09G11G17G19
  24709748.160    24709750.200    24709748.480   129850724.2000  101182466.1470
  96966622.9560
  22607583.180    22607583.760    22607583.960   118803881.5300   92574580.0940
  88717587.5950
  20768133.600    20768132.780    20768136.100   109137792.4010   85042407.0470
  81498975.6560
  20811811.720    20811812.260    20811813.020   109366825.6280   85220916.1060
  81670065.1010
  23713753.560    23713751.380                   124616698.3580   97103969.4530

  20341512.100    20341511.800    20341512.500   106895568.8670   83295426.6030
  79824889.5470
  23968876.020    23968875.200    23968879.280   125957285.5160   98148526.9820
  94059024.1200
  22801225.540    22801223.920                   119821292.1750   93367242.2760

  21802735.180    21802731.860                   114574152.7080   89278545.2450

 23  3  1  1  2  0.0000000  0  9G01G03G04G06G07G09G11G17G19
  24730425.400    24730427.200    24730425.340   129959382.5870  101267134.9910
  97047763.9380
  22621050.440    22621051.000    22621051.360   118874652.5430   92629726.3280
  88770436.0650
  20776649.140    20776648.220    20776651.720   109182541.5890   85077276.5440
  81532392.2660
  20801893.980    20801894.480    20801895.240   109314707.2290   85180304.3750
  81631145.5330
  23696481.600    23696479.540                   124525934.0680   97033244.0780

  20336850.620    20336850.280    20336850.940   106871072.3870   83276338.4540
  79806596.7420
  23949701.060    23949700.260    23949704.500   125856520.9490   98070009.1620
  93983777.8770
  22817270.060    22817268.440                   119905606.5340   93432941.7430

  21813647.840    21813644.500                   114631499.3910   89323230.9580

 23  3  1  1  2 30.0000000  0  9G01G03G04G06G07G09G11G17G19
  24751121.100    24751122.900    24751121.060   130068138.9800  101351880.2080
  97128978.1100
  22634543.240    22634543.760    22634544.200   118945557.8430   92684977.2010
  88823384.8110
  20785245.540    20785244.580    20785248.140   109227715.8080   85112477.2340
  81566126.2520
  20792055.080    20792055.580    20792056.280   109263003.4000   85140015.6790
  81592535.5370
  23679227.600    23679225.500                   124435263.6390   96962591.8360

  20332282.980    20332282.680    20332283.180   106847069.2040   83257634.6930
  79788672.3080
  23930546.060    23930545.140    23930549.460   125755860.7920   97991572.6820
  93908609.6030
  22833359.440    22833357.860                   119990156.8970   93498825.1100

  21824659.380    21824655.980                   114689365.6630   89368321.5520

 23  3  1  1  3  0.0000000  0  9G01G03G04G06G07G09G11G17G19
  24771835.380    24771837.440    24771835.560   130176994.0050  101436702.2890
  97210265.9180
  22648061.960    22648062.600    22648062.880   119016599.0460   92740333.9700
  88876435.0480
  20793922.900    20793921.820    20793925.400   109273315.3590   85148009.3560
  81600177.8690
  20782295.880    20782296.360    20782297.080   109211718.5530   85100053.4620
  81554238.4160
  23661992.440    23661990.420                   124344691.9600   96892016.5570

  20327809.580    20327809.300    20327809.700   106823561.4200   83239316.9510
  79771117.8100
  23911411.700    23911410.740    23911415.120   125655309.4740   97913221.0200
  93833522.5940
  22849493.600    22849492.060                   120074942.5660   93564891.8310

  21835769.840    21835766.440                   114747751.5460   89413817.0260

 23  3  1  1  3 30.0000000  0 10G01G03G04G06G07G09G11G17G19G20
  24792567.860    24792570.100    24792568.300   130285944.4450  101521598.7090
  97291624.9680
  22661606.220    22661607.060    22661607.000   119087774.3400   92795795.2260
  88929585.4240
  20802680.520    20802679.280    20802682.880   109319336.6500   85183870.1080
  81634544.4230
  20772616.520    20772616.980    20772617.740   109160853.2120   85060418.1400
  81516254.5680
  23644776.240    23644774.380                   124254220.4600   96821519.3350

  20323430.100    20323429.820    20323430.180   106800547.2470   83221383.8400
  79753931.9130
  23892298.260    23892297.360    23892301.560   125554867.4880   97834954.5660
  93758517.2380
  22865671.660    22865670.140                   120159958.9400   93631138.3210

  21846978.420    21846975.000                   114806652.9050   89459714.1660

  25504462.120    25504461.300                   134026846.0691  104436500.3841

 23  3  1  1  4  0.0000000  0 10G01G03G04G06G07G09G11G17G19G20
  24813318.300    24813320.680    24813319.020   130394989.2090  101606568.6420
  97373054.4910
  22675176.040    22675176.900    22675176.700   119159083.9830   92851361.1630
  88982836.1200
  20811518.140    20811516.800    20811520.360   109365778.4170   85220058.5070
  81669224.9680
  20763017.460    20763017.980    20763018.780   109110410.1320   85021111.8480
  81478586.0420
  23627579.680    23627578.000                   124163852.1950   96751102.5610

  20319144.640    20319144.360    20319144.660   106778027.1600   83203835.7350
  79737114.9910
  23873206.180    23873205.220    23873209.340   125454537.6810   97756775.5180
  93683595.6460
  22881893.160    22881891.680                   120245203.6610   93697562.7460

  21858284.760    21858281.320                   114866067.6470   89506011.3440

  25487830.680    25487829.420                   133939450.0210  104368399.5930

 23  3  1  1  4 30.0000000  0 10G01G03G04G06G07G09G11G17G19G20
  24834085.820    24834088.540    24834087.020   130504124.4080  101691609.0520
  97454551.5300
  22688770.980    22688771.660    22688771.580   119230525.3050   92907029.7120
  89036185.1270
  20820434.900    20820433.540    20820436.980   109412636.3180   85256571.1650
  81704216.2590
  20753498.660    20753499.320    20753500.120   109060389.1070   84982134.4300
  81441232.6870
  23610402.580    23610401.260                   124073587.4550   96680766.4510

  20314952.740    20314952.460    20314952.660   106755998.6090   83186670.6440
  79720665.1060
  23854135.460    23854134.360    23854138.480   125354319.8530   97678683.7270
  93608757.6820
  22898157.200    22898155.680                   120330671.6970   93764161.1910

  21869687.860    21869684.260                   114925990.5300   89552704.4890

  25471192.040    25471191.140                   133852012.9200  104300266.7840

 23  3  1  1  5  0.0000000  0 10G01G03G04G06G07G09G11G17G19G20
  24854871.460    24854874.280    24854872.940   130613353.6760  101776722.7520
  97536118.8290
  22702391.840    22702392.360    22702392.500   119302103.3050   92962804.7540
  89089636.2020
  20829431.440    20829430.140    20829433.480   109459913.7230   85293410.7070
  81739520.8280
  20744061.620    20744062.420    20744063.140   109010797.6260   84943491.7320
  81404200.1060
  23593246.720    23593245.600                   123983433.7400   96610516.8540

  20310855.400    20310855.140    20310855.220   106734466.7390   83169892.5740
  79704586.1260
  23835087.460    23835086.180    23835090.360   125254221.5330   97600685.0400
  93534008.9770
  22914464.180    22914462.500                   120416365.3470   93830935.4460

  21881188.120    21881184.320                   114986424.2580   89599795.6950

  25454546.520    25454545.540                   133764540.4160  104232106.4490

 23  3  1  1  5 30.0000000  0 10G01G03G04G06G07G09G11G17G19G20
  24875673.960    24875676.840    24875675.640   130722671.3230  101861905.3160
  97617752.1050
  22716037.940    22716038.160    22716038.400   119373813.5450   93018682.8450
  89143186.0210
  20838506.640    20838505.400    20838508.720   109507604.5520   85330572.3960
  81775134.1100
  20734705.980    20734706.900    20734707.440   108961633.6740   84905182.1700
  81367486.7730
  23576111.820    23576110.760                   123893389.8110   96540352.7960

  20306851.700    20306851.440    20306851.520   106713427.1960   83153498.1390
  79688874.7890
  23816061.920    23816060.480    23816064.600   125154240.8680   97522778.0490
  93459348.0750
  22930812.720    22930810.780                   120502277.5580   93897880.0020

  21892784.220    21892780.300                   115047361.8230   89647279.4950

  25437893.360    25437892.520                   133677028.2370  104163915.2320

 23  3  1  1  6  0.0000000  0 10G01G03G04G06G07G09G11G17G19G20
  24896493.040    24896495.820    24896494.740   130832075.6560  101947155.4320
  97699450.0920
  22729709.100    22729709.140    22729709.300   119445655.6420   93074663.6930
  89196834.3250
  20847660.100    20847659.020    20847662.280   109555706.8160   85368054.6800
  81811054.6410
  20725432.180    20725433.080    20725433.460   108912899.3870   84867207.4130
  81331094.2990
  23558998.400    23558997.380                   123803458.5180   96470276.5160

  20302941.620    20302941.340    20302941.460   106692879.7600   83137487.1620
  79673530.9480
  23797059.040    23797057.460    23797061.640   125054379.9540   97444964.3480
  93384776.6410
  22947202.320    22947200.260                   120588405.5130   93964992.6750

  21904475.600    21904471.660                   115108800.5760   89695153.8420

  25421232.880    25421231.900                   133589476.9180  104095693.4640

 23  3  1  1  6 30.0000000  0 10G01G03G04G06G07G09G11G17G19G20
  24917328.360    24917331.180    24917330.220   130941566.1940  102032472.7170
  97781212.4840
  22743405.500    22743405.640    22743405.400   119517630.5290   93130748.0020
  89250581.7890
  20856891.700    20856890.780    20856894.000   109604219.7640   85405856.9710
  81847281.8330
  20716240.780    20716241.660    20716241.920   108864598.0410   84829570.0020
  81295025.1100
  23541907.140    23541906.200                   123713643.7710   96400291.0560

  20299125.360    20299125.040    20299125.240   106672825.3680   83121860.3790
  79658555.2730
  23778079.580    23778077.860    23778082.080   124954642.2760   97367246.6870
  93310297.2090
  22963632.620    22963630.600                   120674747.3490   94032271.9940

  21916262.120    21916258.240                   115170739.3640   89743417.8170

  25404565.120    25404563.980                   133501888.0000  104027442.4000

 23  3  1  1  7  0.0000000  0 10G01G03G04G06G07G09G11G17G19G20
  24938180.060    24938182.800    24938181.800   131051142.0970  102117856.5030
  97863038.5650
  22757127.160    22757127.560    22757126.740   119589738.5330   93186936.0390
  89304428.6600
  20866201.280    20866200.440    20866203.620   109653142.0730   85443978.2470
  81883814.7280
  20707132.340    20707133.060    20707133.340   108816732.4330   84792272.1340
  81259281.3270
  23524838.780    23524837.760                   123623948.8970   96330398.9900

  20295403.020    20295402.640    20295402.940   106653264.4020   83106618.0850
  79643948.0820
  23759124.100    23759122.440    23759126.500   124855030.6960   97289627.2880
  93235911.9490
  22980103.300    22980101.460                   120761301.1360   94099716.4690

  21928143.440    21928139.640                   115233176.2350   89792069.9160

  25387890.460    25387889.480                   133414262.5750  103959162.8930

 23  3  1  1  7 30.0000000  0 10G01G03G04G06G07G09G11G17G19G20
  24959047.240    24959050.000    24959048.980   131160799.9680  102203304.1740
  97944925.9300
  22770873.800    22770874.440    22770873.400   119661977.7980   93243226.3490
  89358373.5540
  20875588.120    20875587.300    20875590.420   109702470.1930   85482415.7400
  81920650.6640
  20698106.880    20698107.440    20698107.760   108769303.0970   84755314.2180
  81223863.3270
  23507793.400    23507792.340                   123534374.8550   96260601.0860

  20291774.240    20291773.840    20291774.160   106634195.0500   83091758.8480
  79629707.9820
  23740192.680    23740191.060    23740195.160   124755545.8750   97212106.6520
  93161621.3680
  22996613.380    22996611.680                   120848061.8710   94167322.2000

  21940118.580    21940114.880                   115296106.1550   89841106.2130

  25371208.580    25371207.700                   133326599.1550  103890853.7600

 23  3  1  1  8  0.0000000  0 10G01G03G04G06G07G09G11G17G19G20
  24979929.780    24979932.620    24979931.500   131270538.8050  102288814.9340
  98026873.7170
  22784645.400    22784646.220    22784645.420   119734348.4860   93299619.0700
  89412416.5590
  20885051.960    20885051.080    20885054.180   109752202.6470   85521168.3070
  81957788.5360
  20689164.940    20689165.400    20689165.740   108722312.6250   84718698.2700
  81188773.0430
  23490771.720    23490770.440                   123444925.0180   96190899.9530

  20288239.060    20288238.640    20288238.940   106615617.5430   83077282.8850
  79615835.1840
  23721285.880    23721284.320    23721288.440   124656190.6350   97134687.0070
  93087427.5410
  23013162.340    23013160.780                   120935027.4560   94235087.5470

  21952187.180    21952183.480                   115359526.9180   89890524.9830

  25354519.540    25354518.720                   133238898.4810  103822515.6190

 23  3  1  1  8 30.0000000  0 10G01G03G04G06G07G09G11G17G19G20
  25000827.460    25000830.260    25000828.940   131380356.9050  102374387.4570
  98108880.7410
  22798442.000    22798442.800    22798442.280   119806850.3390   93356113.9960
  89466557.5140
  20894592.340    20894591.400    20894594.600   109802337.4070   85560234.3530
  81995226.8360
  20680306.900    20680307.340    20680307.620   108675763.1110   84682425.9250
  81154012.0500
  23473774.140    23473772.580                   123355601.7780   96121297.4630

  20284797.440    20284796.980    20284797.220   106597531.5580   83063189.9240
  79602329.4380
  23702404.220    23702402.760    23702406.780   124556967.0940   97057369.9770
  93013332.0850
  23029749.700    23029748.160                   121022194.5920   94303009.9480

  21964348.680    21964345.020                   115423435.9140   89940324.1880

  25337823.660    25337822.740                   133151161.1180  103754148.8900

 23  3  1  1  9  0.0000000  0 10G01G03G04G06G07G09G11G17G19G20
  25021739.980    25021742.780    25021741.400   131490253.0290  102460020.7710
  98190945.9870
  22812263.480    22812264.320    22812263.980   119879483.3530   93412711.1340
  89520796.4610
  20904209.000    20904207.960    20904211.280   109852872.8630   85599612.6320
  82032964.3520
  20671533.220    20671533.620    20671533.920   108629657.0090   84646499.0970
  81119582.1710
  23456801.300    23456799.440                   123266408.4200   96051796.1820

  20281449.340    20281448.840    20281449.040   106579937.1430   83049480.0060
  79589190.7740
  23683548.220    23683546.780    23683550.680   124457878.0010   96980157.7130
  92939337.0010
  23046375.040    23046373.380                   121109561.0120   94371087.6390

  21976602.580    21976598.960                   115487830.5770   89990501.8380

  25321120.880    25321120.020                   133063387.8660  103685754.2050

 23  3  1  1  9 30.0000000  0 10G01G03G04G06G07G09G11G17G19G20
  25042666.820    25042669.580    25042667.900   131600223.9420  102545712.3450
  98273067.0750
  22826109.680    22826110.560    22826110.300   119952245.6700   93469409.0180
  89575131.9140
  20913901.240    20913900.080    20913903.460   109903805.3730   85639300.3070
  82070998.3690
  20662843.960    20662844.300    20662844.820   108583994.7940   84610918.1580
  81085483.7660
  23439853.220    23439851.240                   123177345.9720   95982396.8980

  20278194.420    20278193.880    20278194.040   106562832.3390   83036151.6030
  79576417.7180
  23664717.840    23664716.560    23664720.300   124358923.9880   96903050.7080
  92865442.7700
  23063037.520    23063035.800                   121197122.3630   94439317.2180

  21988948.080    21988944.500                   115552706.6380   90041054.5920

  25304411.160    25304410.040                   132975576.9980  103617330.1220

 23  3  1  1 10  0.0000000  0 10G01G03G04G06G07G09G11G17G19G20
  25063608.140    25063610.660    25063608.840   131710270.3230  102631462.7450
  98355244.5750
  22839980.800    22839981.820    22839981.480   120025139.4440   93526209.3410
  89629565.5490
  20923669.100    20923667.820    20923671.260   109955135.4220   85679297.7560
  82109329.2560
  20654240.040    20654240.280    20654241.040   108538780.9470   84575686.5930
  81051720.1980
  23422931.000    23422928.940                   123088419.5150   95913103.5880

  20275033.100    20275032.540    20275032.600   106546219.2530   83023206.3610
  79564011.8640
  23645914.080    23645912.760    23645916.620   124260109.8150   96826052.6590
  92791652.9850
  23079736.960    23079735.160                   121284878.0600   94507698.2420

  22001385.120    22001381.500                   115618063.5510   90091982.0450

  25287694.660    25287693.740                   132887731.5740  103548879.1800

 23  3  1  1 10 30.0000000  0 10G01G03G04G06G07G09G11G17G19G20
  25084563.160    25084565.400    25084563.720   131820388.9370  102717269.4260
  98437475.9270
  22853876.660    22853877.680    22853877.320   120098162.5840   93583110.4710
  89684095.8060
  20933511.820    20933510.480    20933513.960   110006859.2170   85719602.0180
  82147954.1700
  20645721.500    20645721.700    20645722.560   108494015.7620   84540804.6330
  81018291.6510
  23406034.780    23406032.720                   122999629.6210   95843916.6930

  20271964.920    20271964.360    20271964.300   106530095.7190   83010642.5760
  79551971.5740
  23627137.080    23627135.620    23627139.660   124161435.9140   96749163.9340
  92717967.9630
  23096472.540    23096470.680                   121372823.5570   94576227.1610

  22013912.780    22013909.180                   115683896.7360   90143280.6140

  25270971.360    25270970.460                   132799850.2390  103480400.2670

 23  3  1  1 11  0.0000000  0 10G01G03G04G06G07G09G11G17G19G20
  25105531.640    25105533.580    25105532.260   131930578.4330  102803131.3410
  98519760.3130
  22867797.200    22867798.180    22867798.160   120171315.3270   93640112.5850
  89738722.8300
  20943429.120    20943427.840    20943431.340   110058975.2540   85760211.9170
  82186871.9950
  20637288.780    20637289.060    20637289.960   108449701.7930   84506274.2630
  80985200.0560
  23389165.140    23389163.160                   122910979.8580   95774838.9760

  20268989.880    20268989.320    20268989.160   106514461.9000   82998460.3870
  79540296.9840
  23608387.200    23608385.820    23608389.920   124062905.1390   96672386.7380
  92644389.8320
  23113243.580    23113241.720                   121460955.9560   94644901.7220

  22026530.640    22026527.120                   115750204.0140   90194948.6130

  25254241.340    25254240.360                   132711933.6820  103411893.9080

 23  3  1  1 11 30.0000000  0 10G01G03G04G06G07G09G11G17G19G20
  25126513.280    25126514.980    25126513.960   132040836.8790  102889046.9820
  98602096.1270
  22881742.300    22881743.060    22881743.500   120244596.9670   93697215.1440
  89793446.1080
  20953420.540    20953419.400    20953423.000   110111481.0640   85801125.5290
  82226080.8740
  20628942.240    20628942.620    20628943.520   108405840.6420   84472096.7450
  80952446.5980
  23372322.540    23372320.700                   122822472.3830   95705872.1430

  20266107.860    20266107.360    20266107.060   106499316.9580   82986659.1440
  79528987.4580
  23589664.980    23589663.620    23589667.720   123964519.4220   96595722.5650
  92570919.9880
  23130049.620    23130047.820                   121549272.1640   94713719.5150

  22039238.020    22039234.620                   115816981.9750   90246983.3790

  25237504.700    25237503.480                   132623981.5380  103343359.8070

 23  3  1  1 12  0.0000000  0 10G01G03G04G06G07G09G11G17G19G20
  25147508.080    25147509.440    25147508.840   132151164.6190  102975016.6190
  98684483.6870
  22895712.320    22895712.780    22895713.420   120318009.2710   93754419.5220
  89848266.9510
  20963486.180    20963485.160    20963488.820   110164376.6750   85842342.8840
  82265580.8350
  20620682.680    20620683.100    20620683.980   108362436.4160   84438275.2730
  80920034.3610
  23355507.860    23355506.280                   122734111.9760   95637019.9240

  20263319.180    20263318.720    20263318.380   106484662.5350   82975240.1230
  79518044.2320
  23570971.220    23570969.800    23570973.920   123866283.0500   96519174.7590
  92497561.6820
  23146890.560    23146888.820                   121637771.8350   94782680.2650

  22052034.820    22052031.480                   115884229.6580   90299384.1590

  25220761.820    25220760.660                   132535996.9680  103274800.4490

 23  3  1  1 12 30.0000000  0 10G01G03G04G06G07G09G11G17G19G20
  25168514.680    25168516.160    25168515.880   132261555.6020  103061035.5220
  98766918.5010
  22909706.380    22909706.640    22909707.340   120391547.5700   93811722.0740
  89903181.8830
  20973624.800    20973623.820    20973627.460   110217655.6740   85883858.9810
  82305367.0990
  20612509.600    20612510.120    20612510.920   108319486.7560   84404808.0150
  80887961.5670
  23338720.880    23338719.560                   122645896.8410   95568280.9340

  20260622.900    20260622.520    20260622.200   106470493.8450   82964199.5900
  79507463.7270
  23552305.540    23552304.140    23552308.160   123768193.9690   96442741.7380
  92424313.3710
  23163765.000    23163763.300                   121726447.4270   94851778.0960

  22064919.600    22064916.340                   115951939.6570   90352145.1790

  25204011.840    25204010.580                   132447975.5130  103206212.3120

 23  3  1  1 13  0.0000000  0 10G01G03G04G06G07G09G11G17G19G20
  25189533.940    25189535.140    25189535.380   132372012.0960  103147105.4990
  98849402.1920
  22923725.020    22923725.200    22923725.900   120465215.4370   93869125.5930
  89958193.5700
  20983836.760    20983835.740    20983839.340   110271319.8840   85925675.2420
  82345441.0210
  20604424.140    20604424.680    20604425.380   108276997.5140   84371699.5170
  80856232.5930
  23321962.980    23321961.760                   122557833.4870   95499660.1760

  20258019.720    20258019.400    20258019.180   106456814.2790   82953540.1980
  79497248.4780
  23533669.000    23533667.620    23533671.620   123670258.3560   96366428.2980
  92351179.6660
  23180672.880    23180671.340                   121815299.2560   94921013.2490

  22077892.680    22077889.440                   116020113.3880   90405267.5580

  25187255.780    25187254.580                   132359921.4890  103137598.8940

 23  3  1  1 13 30.0000000  0 10G01G03G04G06G07G09G11G17G19G20
  25210564.880    25210566.020    25210566.340   132482529.9830  103233223.2980
  98931931.7960
  22937767.700    22937767.940    22937768.320   120539010.2500   93926628.0240
  90013300.0570
  20994121.260    20994120.140    20994123.680   110325364.9230   85967788.2620
  82385799.3320
  20596426.240    20596426.860    20596427.360   108234968.3080   84338949.4940
  80824847.1570
  23305234.120    23305232.900                   122469922.1460   95431157.8690

  20255509.100    20255508.820    20255508.740   106443621.0580   82943259.7760
  79487396.4070
  23515061.680    23515060.460    23515064.280   123572476.2290   96290234.4570
  92278160.5530
  23197613.360    23197611.860                   121904322.1370   94990381.6830

  22090952.920    22090949.680                   116088745.1020   90458746.8010

  25170493.020    25170491.940                   132271833.1850  103068958.6870

 23  3  1  1 14  0.0000000  0 11G01G03G04G06G07G09G11G17G19G20G30
  25231607.720    25231608.860    25231609.280   132593110.7930  103319390.1400
  99014508.3440
  22951835.080    22951835.500    22951835.340   120612934.8360   93984231.5670
  90068503.4640
  21004478.420    21004477.240    21004480.680   110379791.9030   86010198.8960
  82426442.8540
  20588516.860    20588517.560    20588517.880   108193404.2880   84306561.9480
  80793809.0900
  23288535.420    23288534.120                   122382169.0890   95362778.8940

  20253091.560    20253091.240    20253091.320   106430916.7540   82933360.3270
  79477909.4390
  23496484.640    23496483.400    23496487.180   123474853.0200   96214164.4490
  92205260.1340
  23214586.520    23214585.040                   121993516.9320   95059884.0770

  22104100.320    22104097.080                   116157835.0550   90512583.1040

  25153724.440    25153723.400                   132183713.6990  103000294.1960

  25885175.380                    25885193.640
 101579053.9551
 23  3  1  1 14 30.0000000  0 11G01G03G04G06G07G09G11G17G19G20G30
  25252661.120    25252662.560    25252662.840   132703748.2680  103405601.1450
  99097127.1590
  22965926.260    22965926.740    22965926.500   120686984.2820   94041932.4110
  90123800.1140
  21014906.980    21014905.800    21014909.160   110434594.0510   86052901.8660
  82467366.5360
  20580695.520    20580696.160    20580696.500   108152302.7720   84274534.7970
  80763116.4050
  23271866.400    23271864.980                   122294572.0960   95294521.5340

  20250766.100    20250765.720    20250765.940   106418696.2850   82923837.8920
  79468783.7720
  23477937.400    23477936.020    23477939.900   123377386.4040   96138216.4580
  92132476.6390
  23231590.900    23231589.360                   122082875.5880   95129514.1680

  22117333.480    22117330.240                   116227375.6990   90566770.6000

  25136949.220    25136948.120                   132095558.9740  102931602.2560

  25866004.020    25866016.560    25866020.720
 101503816.3380
 23  3  1  1 15  0.0000000  0 11G01G03G04G06G07G09G11G17G19G20G30
  25273723.600    25273725.300    25273725.420   132814433.3140  103491849.1860
  99179781.5910
  22980039.820    22980040.120    22980040.400   120761151.0280   94099724.6540
  90179184.3400
  21025405.140    21025403.980    21025407.380   110489762.0970   86095889.9550
  82508563.4530
  20572961.200    20572961.800    20572962.120   108111658.4540   84242863.9060
  80732765.1370
  23255226.220    23255224.580                   122207126.4430   95226382.0840

  20248531.220    20248530.780    20248531.140   106406951.8750   82914686.4170
  79460013.6130
  23459418.940    23459417.560    23459421.500   123280071.4680   96062386.6690
  92059806.4290
  23248624.640    23248623.100                   122172388.0440   95199264.0990

  22130650.480    22130647.100                   116297356.7620   90621301.2780

  25120165.840    25120164.480                   132007361.8530  102862877.2430

                                  25846817.580
 101428462.2450
 23  3  1  1 15 30.0000000  0 11G01G03G04G06G07G09G11G17G19G20G30
  25294799.420    25294801.160    25294801.340   132925066.6981  103577980.2691
  99262487.7380
  22994179.960    22994180.240    22994181.000   120835458.1310   94157626.2720
  90234673.3760
  21035976.900    21035975.800    21035979.220   110545317.2410   86139179.6760
  82550049.4320
  20565318.720    20565319.220    20565319.540   108071496.5770   84211568.9350
  80702774.1230
  23238619.680    23238617.840                   122119857.6560   95158380.4630

  20246391.260    20246390.780    20246391.220   106395706.2910   82905923.6350
  79451615.9400
  23440934.200    23440932.880    23440936.840   123182933.8660   95986695.0580
  91987268.6390
  23265691.460    23265689.920                   122262074.4340   95269149.5630

  22144055.120    22144051.600                   116367798.5160   90676190.9420

  25103379.080    25103377.460                   131919146.4090  102794137.9800

  25827573.560    25827586.860    25827589.020
 101353010.3630
 23  3  1  1 16  0.0000000  0 11G01G03G04G06G07G09G11G17G19G20G30
  25315885.040    25315886.980    25315887.340   133035873.5381  103664323.2321
  99345233.0520
  23008343.820    23008344.260    23008345.240   120909890.1880   94215625.2530
  90290255.7270
  21046619.060    21046618.040    21046621.400   110601242.3190   86182757.6570
  82591811.6600
  20557765.500    20557765.940    20557766.320   108031803.9460   84180639.6150
  80673133.5220
  23222044.480    23222042.480                   122032753.9480   95090507.4750

  20244343.240    20244342.760    20244343.240   106384943.8470   82897537.3210
  79443579.0560
  23422480.800    23422479.460    23422483.460   123085960.8580   95911131.7030
  91914853.7490
  23282788.020    23282786.460                   122351916.9110   95339156.6410

  22157543.900    22157540.380                   116438682.8170   90731425.4480

  25086585.800    25086584.160                   131830898.0330  102725373.0680

  25808318.700    25808331.300    25808334.080   135623630.1291  105680807.1031
 101277451.2860
 23  3  1  1 16 30.0000000  0 11G01G03G04G06G07G09G11G17G19G20G30
  25336980.360    25336982.100    25336982.800   133146728.6561  103750704.6111
  99428015.1380
  23022531.120    23022531.740    23022532.640   120984445.3550   94273720.1620
  90345929.9990
  21057330.880    21057329.920    21057333.240   110657533.6710   86226621.0500
  82633847.4050
  20550301.620    20550302.040    20550302.440   107992580.9270   84150076.2290
  80643843.6110
  23205500.740    23205498.720                   121945816.2810   95022763.8640

  20242386.760    20242386.260    20242386.760   106374662.4410   82889525.8540
  79435901.4020
  23404058.880    23404057.600    23404061.560   122989153.1800   95835697.1700
  91842562.3410
  23299913.420    23299912.000                   122441911.1280   95409281.9680

  22171116.040    22171112.460                   116510004.9940   90787001.1500

  25069786.160    25069784.540                   131742615.2500  102656581.3300

  25789035.800    25789049.420    25789051.580   135522296.4131  105601848.0081
 101201785.0850
 23  3  1  1 17  0.0000000  0 11G01G03G04G06G07G09G11G17G19G20G30
  25358085.800    25358088.120    25358088.160   133257638.5841  103837130.1101
  99510836.7410
  23036742.880    23036743.620    23036744.120   121059128.6570   94331914.9190
  90401699.9780
  21068113.020    21068112.140    21068115.380   110714194.5880   86270772.4080
  82676159.1310
  20542928.440    20542928.820    20542929.300   107953834.7700   84119884.4220
  80614909.7960
  23188989.940    23188988.060                   121859052.3140   94955155.6170

  20240522.700    20240522.220    20240522.640   106364866.8000   82881892.8930
  79428586.4830
  23385669.840    23385668.560    23385672.540   122892518.6090   95760397.5260
  91770400.1750
  23317068.160    23317066.620                   122532059.1280   95479527.1170

  22184771.940    22184768.400                   116581767.4160   90842919.8980

  25052981.060    25052979.280                   131654303.7510  102587767.2440

  25769727.920    25769741.140    25769743.180   135420834.6841  105522781.9961
 101126017.4130
 23  3  1  1 17 30.0000000  0 11G01G03G04G06G07G09G11G17G19G20G30
                                  25379203.200
  99593695.7320
  23050978.720    23050979.540    23050979.620   121133938.7200   94390208.4430
  90457564.6090
  21078964.900    21078964.000    21078967.340   110771221.8380   86315209.2240
  82718744.4110
  20535646.140    20535646.500    20535647.060   107915566.2430   84090064.7910
  80586332.6550
  23172512.540    23172510.800                   121772463.8230   94887684.1060

  20238750.740    20238750.260    20238750.600   106355555.2310   82874637.1340
  79421633.0480
  23367314.040    23367312.680    23367316.780   122796058.3390   95685233.7020
  91698368.1770
  23334251.300    23334249.760                   122622357.0410   95549889.0800

  22198510.860    22198507.420                   116653965.9020   90899178.4440

  25036170.140    25036168.580                   131565962.6870  102518930.0760

  25750393.520    25750406.680    25750408.860   135319235.6970  105443614.6150
 101050148.8920
 23  3  1  1 18  0.0000000  0 11G01G03G04G06G07G09G11G17G19G20G30
  25400324.640    25400326.100    25400326.880   133479607.2171  104010094.4651
  99676589.4780
  23065238.200    23065239.040    23065239.080   121208873.3920   94448599.0700
  90513522.3020
  21089885.740    21089884.840    21089888.320   110828611.4580   86359928.4020
  82761600.2920
  20528454.740    20528455.040    20528455.740   107877775.3490   84060617.3470
  80558112.1930
  23156068.740    23156067.060                   121686051.5620   94820349.9080

  20237070.420    20237069.960    20237070.160   106346725.2510   82867756.6360
  79415039.2460
  23348991.440    23348990.140    23348994.200   122699772.8730   95610206.0830
  91626466.7300
  23351462.060    23351460.460                   122712800.1060   95620364.1570

  22212331.860    22212328.560                   116726595.5690   90955772.9670

  25019353.540    25019352.080                   131477591.0150  102450069.0830

  25731033.620    25731046.940    25731049.000   135217501.9410  105364342.4370
 100974179.8730
 23  3  1  1 18 30.0000000  0 11G01G03G04G06G07G09G11G17G19G20G30
  25421456.640    25421458.680    25421459.500
  99759517.9630
  23079521.740    23079522.420    23079522.820   121283934.1090   94507087.9200
  90569574.0980
  21100875.480    21100874.580    21100878.200   110886363.0940   86404929.6760
  82804726.5030
  20521354.880    20521355.220    20521356.020   107840465.6980   84031544.8980
  80530251.0950
  23139659.300    23139657.660                   121599819.7480   94753156.3120

  20235481.920    20235481.460    20235481.600   106338377.9580   82861252.2580
  79408805.8800
  23330703.020    23330701.640    23330705.640   122603666.3120   95535317.8670
  91554698.8680
  23368700.120    23368698.520                   122803386.6490   95690951.0290

  22226234.660    22226231.500                   116799654.9870   91012702.3570

  25002531.500    25002529.980                   131389190.7300  102381185.8030

  25711648.760    25711662.000    25711664.000   135115636.9990  105284967.9850
 100898112.9070
 23  3  1  1 19  0.0000000  0 11G01G03G04G06G07G09G11G17G19G20G30
  25442597.500    25442599.420    25442600.320   133701750.7221  104183189.3541
  99842478.7070
  23093828.960    23093829.560    23093830.200   121359118.9130   94565673.4590
  90625718.5630
  21111933.500    21111932.520    21111936.200   110944472.9530   86450210.0830
  82848120.2230
  20514346.600    20514347.060    20514347.800   107803637.4320   84002847.5480
  80502749.4780
  23123284.400    23123282.760                   121513769.3750   94686104.0950

  20233984.860    20233984.380    20233984.480   106330510.9800   82855122.1540
  79402931.2030
  23312448.820    23312447.400    23312451.300   122507739.3990   95460569.6340
  91483065.1390
  23385964.700    23385963.120                   122894112.4320   95761646.4070

  22240218.320    22240215.200                   116873139.2590   91069962.8060

  24985703.840    24985702.200                   131300760.5850  102312279.2290

  25692238.780    25692252.360    25692253.740   135013641.3530  105205491.8110
 100821948.4640
 23  3  1  1 19 30.0000000  0 11G01G03G04G06G07G09G11G17G19G20G30
  25463745.620    25463747.480    25463748.220   133812884.0470  104269786.7170
  99925467.8460
  23108159.200    23108159.820    23108160.280   121434424.0650   94624352.7760
  90681952.8850
  21123058.620    21123057.560    21123061.140   111002935.4460   86495765.2700
  82891777.2830
  20507429.680    20507430.200    20507430.920   107767288.9430   83974524.0560
  80475606.1280
  23106943.920    23106942.300                   121427899.6290   94619192.6350

  20232578.440    20232577.920    20232578.040   106323120.2090   82849363.1220
  79397412.1330
  23294228.520    23294227.160    23294230.940   122411991.0060   95385960.5190
  91411564.7390
  23403254.560    23403253.000                   122984971.0050   95832445.2440

  22254281.580    22254278.400                   116947041.8890   91127549.2350

  24968869.760    24968868.180                   131212297.5260  102243347.0120

  25672803.780    25672817.420    25672818.100   134911513.9400  105125913.0120
 100745685.6150
 23  3  1  1 20  0.0000000  0 11G01G03G04G06G07G09G11G17G19G20G30
  25484902.480    25484904.660    25484905.100   133924063.7340  104356420.2010
 100008491.5940
  23122514.060    23122514.940    23122514.880   121509859.3480   94683133.4830
  90738284.3920
  21134252.380    21134251.220    21134254.620   111061758.5850   86541601.4800
  82935703.6500
  20500606.360    20500606.900    20500607.640   107731432.1700   83946583.7140
  80448829.9720
  23090640.320    23090638.680                   121342223.5930   94552432.1170

  20231264.440    20231263.900    20231264.020   106316215.0930   82843982.5150
  79392255.7220
  23276044.460    23276043.220    23276046.920   122316433.6220   95311500.2420
  91340206.9950
  23420570.900    23420569.420                   123075969.6140   95903353.2100

  22268425.820    22268422.440                   117021369.9860   91185467.1990

  24952031.320    24952029.720                   131123811.9140  102174397.2190

  25653345.880    25653359.660    25653360.000   134809266.8050  105046241.0020
 100669333.4720
 23  3  1  1 20 30.0000000  0 11G01G03G04G06G07G09G11G17G19G20G30
  25506066.300    25506068.540    25506068.700   134035279.6490  104443081.8860
 100091542.3650
  23136891.980    23136893.140    23136892.480   121585415.9720   94742008.7290
  90794706.5210
  21145512.680    21145511.440    21145514.760   111120931.6920   86587710.3930
  82979891.3590
  20493875.340    20493875.880    20493876.600   107696060.3220   83919021.2400
  80422415.9370
  23074372.380    23074370.640                   121256734.8860   94485817.5730

  20230041.100    20230040.580    20230040.680   106309786.3770   82838973.1340
  79387455.0650
  23257895.640    23257894.360    23257898.120   122221061.1160   95237184.0260
  91268987.2960
  23437911.800    23437910.300                   123167096.4640   95974361.0730

  22282648.660    22282645.120                   117096111.5990   91243707.3890

  24935187.180    24935185.840                   131035295.9020  102105423.8060

  25633863.860    25633877.820    25633877.800   134706893.6080  104966470.8270
 100592887.2390
 23  3  1  1 21  0.0000000  0 11G01G03G04G06G07G09G11G17G19G20G30
  25527237.460    25527239.540    25527239.520   134146533.4690  104529773.1410
 100174621.4690
  23151293.560    23151294.800    23151294.040   121661097.1690   94800981.0520
  90851221.6660
  21156839.800    21156838.520    21156841.740   111180456.1600   86634093.0910
  83024341.4480
  20487237.600    20487238.200    20487238.900   107661178.7470   83891840.7920
  80396368.0120
  23058141.240    23058139.380                   121171439.5280   94419353.6650

  20228908.960    20228908.500    20228908.480   106303836.8300   82834337.1370
  79383012.2340
  23239783.200    23239781.900    23239785.600   122125879.3960   95163016.4710
  91197910.0340
  23455277.240    23455275.820                   123258352.4910   96045469.6250

  22296950.220    22296946.640                   117171266.9300   91302269.9540

  24918338.060    24918336.580                   130946753.3680  102036429.6400

  25614359.060    25614372.740    25614372.900   134604399.8640  104886606.7470
 100516351.1580
 23  3  1  1 21 30.0000000  0 11G01G03G04G06G07G09G11G17G19G20G30
  25548415.120    25548417.440    25548416.920   134257822.6970  104616491.9630
 100257726.9670
  23165718.860    23165719.700    23165719.420   121736901.7310   94860049.5310
  90907828.9350
  21168233.180    21168231.920    21168235.060   111240329.0070   86680747.2550
  83069051.6910
  20480693.320    20480693.980    20480694.620   107626788.3130   83865043.0560
  80370686.8490
  23041947.280    23041945.260                   121086339.5880   94353042.0570

  20227867.700    20227867.240    20227867.220   106298364.8410   82830073.2570
  79378926.0180
  23221707.340    23221706.020    23221709.680   122030889.8710   95088998.6800
  91126976.3590
  23472666.580    23472664.980                   123349733.7190   96116675.7170

  22311329.780    22311326.280                   117246832.3690   91361152.0960

  24901483.800    24901482.360                   130858184.0180  101967414.5640

  25594831.320    25594845.140    25594845.220   134501787.1620  104806650.0560
 100439726.2690
 23  3  1  1 22  0.0000000  0 11G01G03G04G06G07G09G11G17G19G20G30
  25569598.960    25569601.260    25569600.500   134369143.7920  104703235.6100
 100340856.3130
  23180167.200    23180167.740    23180167.940   121812827.6630   94919212.5790
  90964526.8300
  21179692.140    21179690.900    21179694.020   111300546.3740   86727669.8770
  83114019.2000
  20474242.520    20474243.200    20474243.860   107592889.0720   83838628.0670
  80345372.4870
  23025790.520    23025788.460                   121001435.6460   94286883.1920

  20226916.820    20226916.360    20226916.460   106293367.9560   82826179.5950
  79375194.5880
  23203668.200    23203666.900    23203670.500   121936093.3700   95015131.2880
  91056186.7730
  23490078.720    23490077.020                   123441234.6770   96187975.1220

  22325786.440    22325782.980                   117322802.7460   91420349.7610

  24884624.220    24884622.720                   130769586.3240  101898377.4430

  25575281.440    25575294.760    25575295.020   134399055.8090  104726600.9140
 100363012.7890
 23  3  1  1 22 30.0000000  0 11G01G03G04G06G07G09G11G17G19G20G30
  25590789.060    25590791.460    25590790.520   134480498.5560  104790005.5040
 100424010.7920
  23194639.100    23194639.820    23194640.060   121888878.1690   94978472.7010
  91021317.7590
  21191216.880    21191215.680    21191218.880   111361109.5890   86774861.9900
  83159244.9790
  20467886.180    20467886.900    20467887.500   107559486.2270   83812599.8830
  80320428.8080
  23009672.240    23009670.080                   120916733.6940   94220881.7040

  20226056.880    20226056.440    20226056.640   106288848.8990   82822658.2620
  79371819.9770
  23185666.860    23185665.420    23185669.120   121841495.6610   94941418.8120
  90985545.6600
  23507513.860    23507512.060                   123532856.8250   96259368.9420

  22340320.240    22340316.760                   117399178.3700   91479863.2080

  24867759.900    24867758.300                   130680964.0500  101829321.1560

  25555709.940    25555722.700    25555722.960   134296211.4440  104646463.7440
 100286214.9420
 23  3  1  1 23  0.0000000  0 11G01G03G04G06G07G09G11G17G19G20G30
  25611984.980    25611987.280    25611986.140   134591883.7440  104876799.0630
 100507187.9170
  23209134.200    23209135.300    23209135.300   121965051.2820   95037828.3310
  91078200.2510
  21202806.780    21202805.580    21202808.940   111422014.8300   86822320.6190
  83204726.1650
  20461624.300    20461625.040    20461625.560   107526579.8390   83786958.5450
  80295855.8660
  22993592.720    22993590.400                   120832235.0920   94155038.6630

  20225287.420    20225286.940    20225287.200   106284805.1830   82819507.3210
  79368800.3250
  23167703.480    23167702.000    23167705.780   121747097.5460   94867861.8680
  90915053.6010
  23524971.180    23524969.260                   123624595.4220   96330853.5060

  22354930.260    22354926.780                   117475954.4460   91539688.6970

  24850890.780    24850888.980                   130592311.0451  101760234.8511

  25536116.860    25536129.380    25536129.560   134193254.6150  104566238.9890
 100209333.2330
 23  3  1  1 23 30.0000000  0 11G01G03G04G06G07G09G11G17G19G20G30
  25633186.140    25633188.640    25633187.340   134703297.0380  104963614.5640
 100590386.1050
  23223652.620    23223653.820    23223653.560   122041346.3800   95097279.0260
  91135173.8340
  21214461.340    21214460.100    21214463.620   111483259.6560   86870043.8630
  83250460.9280
  20455457.160    20455457.880    20455458.360   107494171.3070   83761705.1480
  80271654.6900
  22977552.320    22977549.820                   120747942.0470   94089355.7980

  20224608.160    20224607.700    20224607.960   106281235.7140   82816725.9200
  79366134.8140
  23149778.580    23149776.920    23149780.720   121652901.1190   94794462.0780
  90844712.1190
  23542449.920    23542448.100                   123716446.8890   96402426.0180

  22369615.820    22369612.380                   117553127.5580   91599823.5650

  24834016.800    24834015.180                   130503637.7400  101691138.8130

  25516502.820    25516514.920    25516514.920   134090187.2000  104485928.1100
 100132368.8810
 23  3  1  1 24  0.0000000  0 11G01G03G04G06G07G09G11G17G19G20G30
  25654392.760    25654395.080    25654393.700   134814737.5460  105050451.2860
 100673604.5660
  23238194.560    23238195.480    23238195.160   122117763.7900   95156825.0490
  91192238.7770
  21226180.220    21226179.020    21226182.580   111544842.5210   86918030.5110
  83296448.1360
  20449385.240    20449385.860    20449386.340   107462262.9580   83736841.4990
  80247827.0320
  22961551.480    22961548.960                   120663857.4990   94023835.3920

  20224019.100    20224018.680    20224018.900   106278140.2800   82814313.8950
  79363823.2930
  23131892.580    23131890.780    23131894.620   121558909.2870   94721221.7030
  90774523.4470
  23559949.700    23559948.000                   123808408.6480   96474084.4620

  22384376.320    22384372.980                   117630694.5720   91660265.3660

  24817138.200    24817136.480                   130414939.9170  101622023.6530

  25496868.440    25496879.900    25496879.820   133987011.9720  104405533.1730
 100055324.0600
 23  3  1  1 24 30.0000000  0 11G01G03G04G06G07G09G11G17G19G20G30
  25675603.580    25675606.260    25675604.740   134926201.7540  105137306.3780
 100756840.7660
  23252759.280    23252759.980    23252759.940   122194301.5190   95216464.8230
  91249393.5480
  21237962.680    21237961.540    21237965.080   111606759.6290   86966277.6100
  83342684.9380
  20443408.480    20443409.040    20443409.540   107430854.7670   83712367.5900
  80224372.8670
  22945590.480    22945588.020                   120579982.2120   93958478.0540

  20223519.720    20223519.380    20223519.600   106275516.3930   82812269.3170
  79361863.9130
  23114045.580    23114043.880    23114047.600   121465122.8970   94648141.4160
  90704488.1690
  23577469.680    23577468.140                   123900476.6150   96545825.6860

  22399210.840    22399207.700                   117708650.7090   91721010.3890

  24800254.640    24800252.940                   130326216.4940  101552888.5920

  25477213.340    25477224.520    25477224.260   133883729.4630  104325054.7050
  99978199.1280
 23  3  1  1 25  0.0000000  0 11G01G03G04G06G07G09G11G17G19G20G30
  25696819.360    25696821.960    25696821.160   135037691.5120  105224181.4630
 100840095.9440
  23267347.520    23267348.100    23267348.460   122270962.7880   95276200.8590
  91306640.5690
  21249809.000    21249807.880    21249811.280   111669012.2690   87014786.1550
  83389172.2950
  20437527.880    20437528.340    20437528.920   107399951.8640   83688287.4100
  80201296.0320
  22929670.580    22929668.260                   120496322.5650   93893288.7350

  20223110.580    20223110.300    20223110.480   106273366.6500   82810594.1980
  79360258.5950
  23096238.780    23096237.180    23096240.780   121371547.8070   94575225.7800
  90634610.7030
  23595010.000    23595008.620                   123992651.3190   96617650.0610

  22414119.580    22414116.640                   117786996.8370   91782059.2970

  24783366.840    24783365.620                   130237471.3831  101483736.5871

  25457539.080    25457549.700    25457549.600   133780345.3720  104244497.0480
  99900998.3790
 23  3  1  1 25 30.0000000  0 11G01G03G04G06G07G09G11G17G19G20G30
  25718039.100    25718041.860    25718040.980   135149201.7220  105311072.4070
 100923366.4770
  23281958.580    23281959.280    23281959.720   122347743.9820   95336030.3360
  91363977.1380
  21261718.100    21261716.980    21261720.260   111731595.0250   87063551.9370
  83435906.1740
  20431743.120    20431743.480    20431744.160   107369552.6580   83664599.7130
  80178595.3260
  22913791.580    22913789.520                   120412877.9460   93828266.9780

  20222790.900    20222790.680    20222790.800   106271686.9540   82809285.3490
  79359004.2820
  23078472.040    23078470.480    23078473.940   121278183.1450   94502474.1080
  90564890.3440
  23612569.380    23612568.200                   124084926.1500   96689552.4490

  22429101.200    22429098.380                   117865725.6450   91843406.3980

  24766474.240    24766473.080

  25437845.180    25437855.360    25437855.280   133676858.6830  104163859.4140
  99823720.9660
 23  3  1  1 26  0.0000000  0 11G01G03G04G06G07G09G11G17G19G20G30
  25739262.560    25739265.220    25739264.860   135260731.6050  105397978.7130
 101006651.6480
  23296592.500    23296593.420    23296593.560   122424645.5930   95395953.6330
  91421403.6380
  21273689.740    21273688.600    21273691.760   111794506.4650   87112573.8420
  83482885.5050
  20426054.640    20426054.940    20426055.720   107339659.4680   83641306.3200
  80156272.4930
  22897954.080    22897952.200                   120329651.2900   93763415.0610

  20222560.680    20222560.440    20222560.520   106270477.1320   82808342.6420
  79358100.8620
  23060745.920    23060744.420    23060747.840   121185032.0760   94429888.8780
  90495329.4950
  23630147.440    23630146.320                   124177298.6350   96761530.9290

  22444155.220    22444152.420                   117944834.9090   91905049.9540

  24749577.700    24749575.100

  25418132.180    25418142.000    25418141.980   133573272.2910  104083144.1040
  99746369.0920
 23  3  1  1 26 30.0000000  0 11G01G03G04G06G07G09G11G17G19G20G30
  25760490.080    25760492.620    25760492.440   135372281.9380  105484900.9090
 101089952.0870
  23311249.800    23311250.840    23311250.540   122501669.9650   95455972.5890
  91478921.8120
  21285724.020    21285722.840    21285725.940   111857747.1260   87161852.2750
  83530110.6740
  20420463.240    20420463.540    20420464.340   107310276.6280   83618410.6050
  80134330.7660
  22882159.000    22882157.220                   120246647.7710   93698737.0230

  20222420.260    20222419.900    20222420.040   106269738.9780   82807767.4640
  79357549.6510
  23043061.440    23043060.040    23043063.420   121092099.6930   94357474.0540
  90425931.9530
  23647743.960    23647743.220                   124269768.9300   96833585.6370

  22459281.580    22459278.620                   118024324.0390   91966989.5090

  24732676.520    24732676.340                   129971088.5641  101276178.2711

  25398401.300    25398410.920    25398410.460   133469591.1430  104002354.9500
  99668946.3830
 23  3  1  1 27  0.0000000  0 11G01G03G04G06G07G09G11G17G19G20G30
  25781720.160    25781722.680    25781722.760   135483846.1010  105571833.9740
 101173262.8200
  23325929.540    23325930.360    23325929.920   122578811.8170   95516083.1050
  91536527.7270
  21297819.580    21297818.460    21297821.540   111921309.8280   87211381.6510
  83577576.3240
  20414968.300    20414968.620    20414969.480   107281400.7020   83595909.8830
  80112767.5750
  22866405.900    22866404.120                   120163864.9760   93634230.9760

  20222368.500    20222367.960    20222368.240   106269466.5700   82807555.2040
  79357346.2330
  23025418.040    23025416.720    23025420.160   120999383.4660   94285227.6570
  90356695.8290
  23665357.680    23665357.060                   124362329.1730   96905710.4230

  22474478.620    22474475.500                   118104184.6580   92029218.5420

  24715772.180    24715770.460                   129882258.8321  101206949.1261

  25378651.660    25378661.200    25378660.500   133365812.3960  103921489.6710
  99591450.7730
 23  3  1  1 27 30.0000000  0 11G01G03G04G06G07G09G11G17G19G20G30
  25802953.200    25802955.880    25802956.100   135595427.3180  105658780.1950
 101256586.3360
  23340632.500    23340632.880    23340632.860   122656075.6630   95576288.6740
  91594224.7330
  21309976.920    21309975.860    21309978.880   111985197.2640   87261164.0690
  83625284.4750
  20409571.060    20409571.420    20409572.300   107253038.1220   83573809.1740
  80091587.7360
  22850696.240    22850694.400                   120081310.4550   93569902.7980

  20222406.080    20222405.420    20222405.900   106269663.8550   82807708.9420
  79357493.5640
  23007817.080    23007815.860    23007819.500   120906890.6290   94213155.3400
  90287626.5250
  23682988.820    23682988.140                   124454980.6920   96977906.3310

  22489746.640    22489743.360                   118184418.2270   92091738.1860

  24698863.860    24698860.620

  25358884.980    25358894.340    25358893.400   133261943.1540  103840553.8710
  99513887.5710
 23  3  1  1 28  0.0000000  0 11G01G03G04G06G07G09G11G17G19G20G30
  25824188.940    25824191.660    25824191.920   135707021.8110  105745736.7890
 101339919.6880
  23355358.160    23355358.220    23355358.820   122733459.3530   95636587.6290
  91652011.2040
  21322195.300    21322194.260    21322197.260   112049405.3610   87311196.3480
  83673232.0810
  20404271.460    20404271.840    20404272.700   107225188.5750   83552108.2320
  80070790.9970
  22835030.080    22835028.120                   119998984.4500   93505752.6800

  20222532.420    20222531.780    20222532.420   106270328.0050   82808226.4740
  79357989.5280
  22990258.740    22990257.600    22990261.440   120814621.7630   94141257.5450
  90218724.4710
  23700636.400    23700635.700                   124547718.9200   97050169.8010

  22505084.700    22505081.380                   118265019.6460   92154544.4660

  24681950.260    24681948.540                   129704519.6281  101068448.2861

  25339101.200    25339110.260    25339109.240   133157983.8570  103759547.8220
  99436257.0450
 23  3  1  1 28 30.0000000  0 11G01G03G04G06G07G09G11G17G19G20G30
  25845427.160    25845429.700    25845429.580   135818635.3671  105832712.7751
 101423262.1030
  23370106.560    23370106.620    23370107.480   122810962.9540   95696980.0170
  91709887.2380
  21334474.380    21334473.320    21334476.320   112113932.3830   87361477.1400
  83721417.8420
  20399069.860    20399070.280    20399071.120   107197853.9880   83530808.5540
  80050378.8130
  22819408.060    22819406.020                   119916890.3850   93441783.2920

  20222747.460    20222746.960    20222747.680   106271458.4520   82809107.3460
  79358833.6950
  22972743.640    22972742.580    22972746.500   120722579.6540   94069536.4450
  90149991.7620
  23718300.040    23718299.280                   124640541.4230   97122498.9360

  22520492.100    22520488.800                   118345986.0660   92217635.1580

  24665033.800    24665031.420                   129615623.7631  100999179.2791

  25319300.820    25319309.460    25319308.500   133053937.0740  103678473.5860
  99358561.1980
 23  3  1  1 29  0.0000000  0 11G01G03G04G06G07G09G11G17G19G20G30
  25866666.980    25866669.420    25866669.480   135930251.3140  105919686.1440
 101506611.4760
  23384877.620    23384877.720    23384878.540   122888585.1620   95757464.8110
  91767851.8370
  21346813.520    21346812.480    21346815.520   112178775.0720   87412003.9070
  83769839.3330
  20393966.340    20393966.780    20393967.560   107171034.8620   83509910.5380
  80030351.5530
  22803830.440    22803828.360                   119835029.7630   93377995.8020

  20223050.860    20223050.500    20223051.260   106273053.2110   82810350.0210
  79360024.5880
  22955271.980    22955270.960    22955274.860   120630765.7500   93997993.1720
  90081429.4550
  23735978.820    23735978.040                   124733443.7260   97194890.2470

  22535968.120    22535964.840                   118427313.0690   92281006.8220

  24648113.100    24648111.220                   129526705.4520  100929892.3450

  25299484.040    25299492.380    25299491.500   132949804.0630  103597332.1070
  99280800.8550
 23  3  1  1 29 30.0000000  0 11G01G03G04G06G07G09G11G17G19G20G30
  25887908.400    25887910.540    25887910.800   136041869.4291  106006666.6721
 101589966.9550
  23399671.240    23399671.360    23399672.040   122966325.9340   95818042.0110
  91825904.9790
  21359212.400    21359211.300    21359214.560   112243931.6080   87462775.2360
  83818495.1860
  20388961.260    20388961.700    20388962.380   107144733.0130   83489415.5900
  80010710.5640
  22788297.840    22788295.660                   119753405.2280   93314392.2690

  20223442.520    20223442.280    20223442.940   106275111.5870   82811953.9590
  79361561.7010
  22937844.300    22937843.340    22937847.140   120539182.7630   93926629.8460
  90013039.5950
  23753672.380    23753671.520                   124826423.6830   97267342.0610

  22551512.160    22551508.900                   118508997.5270   92344657.0180

  24631188.840    24631186.900                   129437767.6660  100860590.2350

  25279651.380    25279659.200    25279658.480   132845587.3790  103516125.4270
  99202978.0090
 23  3  1  1 30  0.0000000  0 11G01G03G04G06G07G09G11G17G19G20G30
  25909152.220    25909153.380    25909153.880   136153499.6780  106093651.1590
 101673326.8990
  23414487.260    23414487.420    23414488.000   123044184.8100   95878711.2430
  91884046.3180
  21371670.560    21371669.360    21371672.800   112309399.5990   87513789.2590
  83867383.6230
  20384054.860    20384055.280    20384055.920   107118949.7540   83469324.7410
  79991456.8390
  22772810.560    22772808.380                   119672019.1200   93250974.5280

  20223922.220    20223922.040    20223922.500   106277632.4510   82813918.2770
  79363444.1760
  22920461.120    22920459.960    22920463.820   120447832.9620   93855448.2080
  89944823.8710
  23771380.140    23771379.300                   124919478.2670   97339852.0400

  22567123.520    22567120.180                   118591035.7880   92408582.9110

  24614260.780    24614258.760                   129348810.6120  100791273.1080

  25259803.180    25259810.600    25259809.860   132741289.1010  103434855.0410
  99125094.1240
 23  3  1  1 30 30.0000000  0 11G01G03G04G06G07G09G11G17G19G20G30
  25930396.740    25930398.080    25930398.380   136265138.8470  106180642.4760
 101756693.5820
  23429326.520    23429326.700    23429327.380   123122165.9550   95939475.7530
  91942278.9560
  21384188.420    21384187.160    21384190.780   112375181.3030   87565047.7350
  83916506.3300
  20379248.280    20379248.680    20379249.300   107093691.0080   83449642.6040
  79972594.7870
  22757369.940    22757367.860                   119590878.2950   93187747.9320

  20224490.580    20224490.420    20224490.620   106280619.1850   82816245.6100
  79365674.5410
  22903123.620    22903122.300    22903126.160   120356723.2300   93784453.6450
  89876787.4160
  23789102.400    23789101.580                   125012608.5500   97412420.9870

  22582802.360    22582799.040                   118673428.9080   92472785.3100

  24597329.940    24597328.020                   129259839.2990  100721944.8670

  25239941.080    25239947.980    25239947.300   132636916.0010  103353526.3520
  99047154.3460
 23  3  1  1 31  0.0000000  0 11G01G03G04G06G07G09G11G17G19G20G30
  25951641.500    25951642.840    25951643.000   136376795.2601  106267637.7461
 101840061.1100
  23444187.600    23444188.040    23444188.900   123200262.6320   96000330.2840
  92000597.8680
  21396764.340    21396763.080    21396766.840   112441268.2370   87616544.0460
  83965856.9490
  20374540.580    20374541.020    20374541.580   107068951.8540   83430365.3430
  79954120.7490
  22741975.240    22741973.220                   119509978.4750   93124709.1350

  20225146.200    20225145.980    20225145.980   106284064.4260   82818930.2200
  79368247.2920
  22885831.080    22885829.600    22885833.460   120265849.6780   93713643.1030
  89808927.3170
  23806837.240    23806836.340                   125105804.8460   97485041.3630

  22598546.960    22598543.700                   118756167.3660   92537256.8110

  24580395.320    24580393.480                   129170847.6770  100652600.8080

  25220063.900    25220070.360    25220069.500   132532463.8810  103272136.0270
  98969155.4930
 23  3  1  1 31 30.0000000  0 11G01G03G04G06G07G09G11G17G19G20G30
  25972886.380    25972888.160    25972888.160   136488438.4021  106354632.2211
 101923430.7410
  23459071.440    23459072.120    23459073.020   123278478.0340   96061277.3260
  92059005.4340
  21409398.580    21409397.340    21409401.120   112507661.6400   87668279.1670
  84015436.4400
  20369932.720    20369933.100    20369933.680   107044737.1740   83411496.7610
  79936038.3560
  22726627.600    22726625.700                   119429326.2580   93061863.2770

  20225889.540    20225889.200    20225889.140   106287970.5750   82821973.9780
  79371164.2290
  22868584.560    22868583.000    22868586.860   120175218.1760   93643021.1730
  89741247.9680
  23824584.700    23824583.740                   125199068.3640   97557714.1180

  22614357.300    22614354.080                   118839251.1690   92601997.4100

  24563457.480    24563455.540                   129081839.8730  100583244.1530

  25200172.800    25200178.880    25200177.780   132427938.6090  103190688.6720
  98891101.9480
 23  3  1  1 32  0.0000000  0 11G01G03G04G06G07G09G11G17G19G20G30
  25994131.880    25994133.700    25994133.800
 102006801.1930
  23473977.800    23473978.840    23473979.540   123356811.9730   96122316.7400
  92117501.5340
  21422090.760    21422089.520    21422093.240   112574359.5230   87720251.5410
  84065243.2840
  20365424.940    20365425.300    20365425.940   107021048.5380   83393038.0840
  79918348.8000
  22711327.600    22711325.760                   119348924.2730   92999212.4180

  20226720.420    20226719.940    20226719.960   106292336.7240   82825376.1800
  79374424.6830
  22851384.520    22851382.940    22851386.900   120084831.3240   93572589.8770
  89673751.3250
  23842344.480    23842343.620                   125292396.1680   97630436.9730

  22630232.700    22630229.600                   118922677.2320   92667004.7070

  24546516.760    24546515.040                   128992816.3590  100513875.2260

  25180268.140    25180274.000    25180272.840   132323342.5540  103109186.0980
  98812995.5050
 23  3  1  1 32 30.0000000  0 11G01G03G04G06G07G09G11G17G19G20G30
  26015376.840    26015379.500    26015379.660   136711748.5301  106528629.7031
 102090173.4850
  23488907.120    23488908.480    23488908.840   123435266.5360   96183450.1290
  92176087.6980
  21434840.920    21434839.620    21434843.180   112641361.9610   87772461.2350
  84115277.5840
  20361017.980    20361018.380    20361018.980   106997889.7360   83374992.2600
  79901054.8850
  22696076.140    22696074.220                   119268777.1180   92936760.1180

  20227639.080    20227638.460    20227638.680   106297164.1810   82829137.8390
  79378029.6060
  22834231.900    22834230.420    22834234.400   119994693.9290   93502352.9760
  89606440.9670
  23860116.380    23860115.420                   125385787.3790   97703209.2350

  22646173.120    22646170.160                   119006444.4080   92732277.8030

  24529573.680    24529572.320                   128903780.0480  100444496.3340

  25160350.860    25160356.500    25160355.380   132218680.3320  103027631.9110
  98734839.5820
 23  3  1  1 33  0.0000000  0 11G01G03G04G06G07G09G11G17G19G20G30
  26036620.500    26036623.400    26036624.080   136823362.2701  106615617.9601
 102173539.0720
  23503857.460    23503859.060    23503859.160   123513831.7280   96244669.7270
  92234756.4810
  21447646.800    21447645.460    21447648.840   112708657.1930   87824899.0770
  84165530.5280
  20356710.260    20356710.660    20356711.240   106975252.4800   83357352.8400
  79884150.4390
  22680871.720    22680869.680                   119188877.5380   92874500.7360

  20228643.480    20228642.780    20228643.220   106302442.2280   82833250.6120
  79381971.0130
  22817125.380    22817123.880    22817127.940   119904798.7960   93432304.8470
  89539311.5240
  23877897.840    23877896.960                   125479229.4350   97776021.1010

  22662175.900    22662173.020                   119090539.3370   92797806.2880

  24512626.300    24512625.120                   128814722.1430  100375100.6350

  25140419.680    25140425.180    25140423.980   132113944.5750  102946020.3550
  98656628.6900
 23  3  1  1 33 30.0000000  0 10G03G04G06G07G09G11G17G19G20G30
  23518829.640    23518831.120    23518831.240   123592510.8450   96305978.1150
  92293510.3450
  21460508.660    21460507.340    21460510.440   112776246.6740   87877566.2020
  84216003.1860
  20352502.740    20352503.160    20352503.740   106953141.7610   83340123.7060
  79867639.1900
  22665715.720    22665713.440                   119109231.8140   92812439.1570

  20229734.100    20229733.380    20229734.000   106308173.3590   82837716.4360
  79386250.7630
  22800066.140    22800064.660    22800068.720   119815152.0190   93362450.2400
  89472367.5300
  23895689.160    23895688.360                   125572723.0030   97848873.1120

  22678241.200    22678238.320                   119174962.5120   92863590.5600

  24495675.720    24495674.540                   128725646.3700  100305690.9930

  25120475.820    25120481.120    25120479.980   132009141.3480  102864356.2090
  98578367.3500
 23  3  1  1 34  0.0000000  0 10G03G04G06G07G09G11G17G19G20G30
  23533825.420    23533826.540    23533826.820   123671312.8450   96367382.2560
  92352355.9670
  21473427.800    21473426.560    21473429.500   112844137.4440   87930468.0990
  84266700.8410
  20348397.420    20348397.900    20348398.440   106931568.1950   83323313.1390
  79851529.0580
  22650610.160    22650607.620                   119029851.1000   92750584.0800

  20230912.480    20230911.800    20230912.540   106314365.7770   82842541.7070
  79390874.9770
  22783056.380    22783054.820    22783058.880   119725765.2810   93292798.2580
  89405617.7330
  23913491.480    23913490.640                   125666274.0880   97921769.9360

  22694370.020    22694367.120                   119259719.7910   92929635.1730

  24478723.740    24478722.400                   128636562.9140  100236275.3640

  25100521.200    25100526.240    25100525.320   131904282.0990  102782648.3360
  98500064.1020
 23  3  1  1 34 30.0000000  0 10G03G04G06G07G09G11G17G19G20G30
  23548843.100    23548844.100    23548844.560   123750230.5260   96428876.5270
  92411287.9840
  21486402.560    21486401.380    21486404.300   112912320.4700   87983597.7240
  84317616.7350
  20344393.260    20344393.760    20344394.280   106910526.2080   83306916.7900
  79835815.8920
  22635554.240    22635551.640                   118950731.6230   92688932.5640

  20232177.080    20232176.500    20232177.220   106321011.4550   82847720.1640
  79395837.6670
  22766095.280    22766093.580    22766097.640   119636634.1970   93223345.4830
  89339058.8330
  23931303.020    23931302.140                   125759873.6740   97994704.5410

  22710560.380    22710557.480                   119344800.8230   92995932.0620

  24461769.020    24461767.380                   128547465.2350  100166848.6120

  25080555.180    25080560.040    25080559.440   131799362.2260  102700893.2090
  98421715.6070
 23  3  1  1 35  0.0000000  0 10G03G04G06G07G09G11G17G19G20G30
  23563883.020    23563884.020    23563884.540   123829265.5740   96490462.2460
  92470307.6100
  21499432.880    21499431.740    21499434.760   112980795.4980   88036954.8860
  84368750.6800
  20340490.860    20340491.360    20340491.880   106890019.0660   83290937.2000
  79820502.1200
  22620548.780    22620546.240                   118871877.5240   92627487.8450

  20233528.100    20233527.640    20233528.220   106328111.2130   82853252.4470
  79401139.4380
  22749183.660    22749181.900    22749185.900   119547763.1600   93154095.3430
  89272694.1140
  23949123.520    23949122.580                   125853520.2340   98067675.7400

  22726812.040    22726809.120                   119430204.1380   93062480.0670

  24444812.040    24444810.340                   128458355.7040  100097412.6770

  25060578.440    25060583.080    25060582.640   131694386.1370  102619094.2330
  98343325.0390
 23  3  1  1 35 30.0000000  0 10G03G04G06G07G09G11G17G19G20G30
  23578945.020    23578945.780    23578946.260   123908415.9070   96552137.7990
  92529413.3480
  21512518.100    21512516.920    21512520.060   113049558.6360   88090536.5540
  84420099.7800
  20336690.120    20336690.700    20336691.160   106870046.3650   83275374.0650
  79805587.4530
  22605593.960    22605591.620                   118793289.6140   92566250.5370

  20234965.000    20234964.580    20234965.080   106335662.2180   82859136.3510
  79406778.1780
  22732321.680    22732319.900    22732323.760   119459152.9090   93085048.4090
  89206524.1450
  23966952.140    23966950.920                   125947209.0480   98140679.8770

  22743124.060    22743121.240                   119515924.5260   93129275.1520

  24427852.600    24427850.760                   128369233.5080  100027966.8300

  25040591.120    25040595.620    25040595.280   131589354.3900  102537251.8590
  98264892.8780
 23  3  1  1 36  0.0000000  0 10G03G04G06G07G09G11G17G19G20G30
  23594029.020    23594029.540    23594029.860   123987682.1520   96613903.6720
  92588605.6430
  21525657.960    21525656.660    21525659.820   113118608.6560   88144341.7730
  84471663.1150
  20332991.500    20332992.160    20332992.580   106850610.3220   83260229.0990
  79791073.5330
  22590690.420    22590688.280                   118714971.0330   92505223.0930

  20236487.720    20236487.300    20236487.720   106343664.2210   82865371.6820
  79412753.7110
  22715510.000    22715508.160    22715512.000   119370806.8770   93016207.3610
  89140551.4780
  23984788.300    23984787.260                   126040938.1840   98213715.4330

  22759495.900    22759493.160                   119601959.4860   93196315.3460

  24410890.980    24410888.980                   128280100.0820   99958512.2780

  25020593.900    25020598.240    25020598.040   131484270.2260  102455368.6250
  98186421.5500
 23  3  1  1 36 30.0000000  0 10G03G04G06G07G09G11G17G19G20G30
  23609134.820    23609135.040    23609135.380   124067063.0710   96675758.9150
  92647883.5780
  21538851.760    21538850.420    21538853.600   113187942.4410   88198368.1020
  84523438.3480
  20329395.060    20329395.740    20329396.160   106831711.2020   83245502.5140
  79776960.5570
  22575838.440    22575836.460                   118636923.5800   92444406.9290

  20238095.860    20238095.440    20238095.760   106352115.1620   82871956.8430
  79419064.4840
  22698748.880    22698747.120    22698750.860   119282726.5570   92947573.3640
  89074777.2330
  24002631.380    24002630.340                   126134703.5140   98286779.1680

  22775926.800    22775924.100                   119688304.5330   93263597.1780

  24393927.000    24393925.040                   128190954.7400   99889048.4390

  25000587.080    25000591.220    25000591.100   131379134.9990  102373445.5470
  98107912.0410
 23  3  1  1 37  0.0000000  0 10G03G04G06G07G09G11G17G19G20G30
  23624262.840    23624263.080    23624263.500   124146561.3760   96737705.6230
  92707249.1700
  21552099.680    21552098.380    21552101.640   113257560.8460   88252616.2210
  84575426.1300
  20325901.660    20325902.300    20325902.700   106813353.3190   83231197.6720
  79763251.7580
  22561038.980    22561037.160                   118559152.1760   92383805.8700

  20239789.780    20239789.280    20239789.640   106361016.8770   82878893.2520
  79425711.8840
  22682039.340    22682037.620    22682041.360   119194917.4840   92879150.7340
  89009205.5500
  24020481.380    24020480.340                   126228505.5840   98359871.5230

  22792416.640    22792413.900                   119774959.0980   93331120.1890

  24376961.560    24376959.640                   128101801.3370   99819578.3000

  24980571.660    24980575.500    24980575.400   131273954.1580  102291486.8990
  98029368.4190
 23  3  1  1 37 30.0000000  0 10G03G04G06G07G09G11G17G19G20G30
  23639412.280    23639412.920    23639413.120   124226173.1850   96799740.7580
  92766699.5080
  21565400.620    21565399.340    21565402.840   113327458.1380   88307081.6450
  84627622.1600
  20322510.840    20322511.500    20322511.780   106795534.2790   83217312.7060
  79749945.3290
  22546291.840    22546290.120                   118481655.9000   92323419.1920

  20241568.540    20241567.980    20241568.420   106370364.5810   82886177.1900
  79432692.3150
  22665381.180    22665379.520    22665383.280   119107378.5440   92810938.5990
  88943835.5960
  24038337.060    24038336.200                   126322337.5800   98432987.1990

  22808964.140    22808961.360                   119861916.8260   93398879.4290

  24359994.040    24359992.220                   128012636.7830   99750099.4650

  24960547.160    24960550.860    24960551.100   131168726.3900  102209491.6420
  97950789.7510
 23  3  1  1 38  0.0000000  0 10G03G04G06G07G09G11G17G19G20G30
  23654583.740    23654584.600    23654584.420   124305899.7350   96861865.3040
  92826235.5420
  21578754.520    21578753.280    21578756.980   113397633.7110   88361763.9120
  84680025.9870
  20319223.100    20319223.720    20319224.020   106778256.8950   83203849.8150
  79737043.3930
  22531597.880    22531596.160                   118404438.7110   92263249.9700

  20243432.280    20243431.640    20243432.180   106380158.6720   82893808.9630
  79440006.1020
  22648775.220    22648773.620    22648777.340   119020113.7870   92742940.1150
  88878670.3710
  24056198.340    24056197.480                   126416198.5220   98506125.4040

  22825569.020    22825566.300                   119949175.8700   93466873.4610

  24343024.960    24343023.260                   127923463.3950   99680613.7680

  24940514.560    24940518.100    24940518.260   131063455.6330  102127462.8970
  97872178.9460
 23  3  1  1 38 30.0000000  0 10G03G04G06G07G09G11G17G19G20G30
  23669776.960    23669777.880    23669777.320   124385740.3840   96924078.7680
  92885856.7710
  21592160.940    21592159.760    21592163.520   113468085.0440   88416661.0570
  84732635.7570
  20316038.600    20316039.180    20316039.620   106761521.9950   83190809.6310
  79724546.5510
  22516957.420    22516955.800                   118327503.0030   92203300.1050

  20245380.660    20245379.960    20245380.540   106390397.5990   82901787.3640
  79447652.0690
  22632221.800    22632220.320    22632223.960   118933125.3540   92675156.9400
  88813711.5070
  24074064.400    24074063.460                   126510084.4550   98579283.0890

  22842230.340    22842227.700                   120036731.7850   93535098.8280

  24326054.240    24326052.600                   127834281.3620   99611121.3320

  24920474.040    24920477.580    24920477.660   130958143.9000  102045402.2170
  97793537.5230
 23  3  1  1 39  0.0000000  0 10G03G04G06G07G09G11G17G19G20G30
  23684992.520    23684993.400    23684992.720   124465698.1770   96986383.5170
  92945565.4930
  21605620.060    21605619.040    21605622.660   113538813.4080   88471774.0670
  84785452.3920
  20312958.200    20312958.720    20312959.340   106745334.1660   83178195.7420
  79712458.2370
  22502371.660    22502370.060                   118250854.4510   92143573.9930

  20247414.100    20247413.420    20247413.940   106401083.5060   82910114.0550
  79455631.8130
  22615722.160    22615720.720    22615724.280   118846419.1580   92607593.7010
  88748963.4010
  24091935.400    24091934.340                   126603996.1960   98652460.8740

  22858948.100    22858945.620                   120124584.4480   93603555.4330

  24309082.580    24309081.000                   127745094.7480   99541625.3260

  24900426.860    24900430.400    24900430.360   130852796.9680  101963314.0520
  97714869.8010
 23  3  1  1 39 30.0000000  0 10G03G04G06G07G09G11G17G19G20G30
  23700228.940    23700229.780    23700229.200   124545766.0570   97048774.0530
  93005356.4070
  21619130.160    21619129.260    21619132.800   113609809.7750   88527095.9120
  84838469.1500
  20309980.800    20309981.240    20309982.100   106729687.7020   83166003.6950
  79700774.1890
  22487839.640    22487838.100                   118174488.2680   92084067.9130

  20249531.100    20249530.480    20249530.860   106412208.4450   82918782.8430
  79463939.4010
  22599275.420    22599273.940    22599277.480   118759990.8140   92540246.9680
  88684422.7770
  24109809.520    24109808.380                   126697924.5100   98725651.5830

  22875720.500    22875717.980                   120212723.6740   93672235.3260

  24292108.800    24292107.160                   127655897.1760   99472120.7720

  24880372.100    24880375.520    24880375.380   130747410.3900  101881194.9760
  97636172.4200
 23  3  1  1 40  0.0000000  0 10G03G04G06G07G09G11G17G19G20G30
  23715487.180    23715488.080    23715487.720   124625949.2140   97111254.4080
  93065233.4110
  21632691.940    21632691.100    21632694.540   113681077.5360   88582629.2240
  84891688.5890
  20307107.660    20307108.040    20307109.160   106714589.2970   83154238.7060
  79689499.4080
  22473362.860    22473361.400                   118098412.6850   92024788.2670

  20251732.460    20251731.860    20251732.160   106423776.6380   82927797.0260
  79472577.9950
  22582883.040    22582881.580    22582885.020   118673848.3230   92473122.9800
  88620095.6190
  24127687.220    24127685.940                   126791871.4650   98798856.7810

  22892547.860    22892545.220                   120301151.8850   93741140.4030

  24275134.020    24275132.260                   127566694.8490   99402612.5320

  24860311.460    24860314.760    24860314.460   130641991.9400  101799051.0650
  97557451.2690
 23  3  1  1 40 30.0000000  0 10G03G04G06G07G09G11G17G19G20G30
  23730766.960    23730767.700    23730767.620   124706244.7030   97173822.3050
  93125194.2850
  21646304.520    21646303.640    21646307.020   113752611.9800   88638370.3530
  84945107.1610
  20304338.540    20304338.900    20304340.120   106700037.4420   83142899.6020
  79678632.7710
  22458941.400    22458939.900                   118022627.2650   91965734.7170

  20254017.420    20254016.860    20254017.160   106435784.2730   82937153.6310
  79481544.7450
  22566545.000    22566543.560    22566546.960   118587991.6220   92406221.6830
  88555981.8840
  24145567.380    24145566.120                   126885831.6880   98872072.3280

  22909429.100    22909426.300                   120389862.9060   93810265.8580

  24258158.100    24258156.260                   127477485.9450   99333099.1420

  24840244.740    24840247.880    24840247.660   130536541.5370  101716882.2020
  97478706.1850
 23  3  1  1 41  0.0000000  0 10G03G04G06G07G09G11G17G19G20G30
  23746068.620    23746069.320    23746069.460   124786655.1620   97236479.7810
  93185241.0300
  21659967.980    21659967.020    21659970.320   113824413.8230   88694319.8390
  84998725.4250
  20301674.200    20301674.500    20301675.740   106686036.1830   83131989.5280
  79668177.2890
  22444576.040    22444574.540                   117947136.9330   91906911.0920

  20256386.300    20256385.780    20256386.140   106448233.0500   82946853.9870
  79490840.9240
  22550262.360    22550260.940    22550264.340   118502426.1340   92339547.3030
  88492085.6020
  24163450.160    24163448.840                   126979805.3800   98945298.3570

  22926364.020    22926361.060                   120478856.1880   93879611.2350

  24241181.560    24241179.600                   127388273.7540   99263583.1940

  24820173.040    24820176.020    24820175.720   130431064.4520  101634692.5580
  97399941.1430
 23  3  1  1 41 30.0000000  0 10G03G04G06G07G09G11G17G19G20G30
  23761391.240    23761392.140    23761392.420   124867176.6730   97299223.7870
  93245370.6920
  21673681.240    21673680.080    21673683.360   113896477.3150   88750473.2070
  85052539.0750
  20299114.120    20299114.380    20299115.560   106672582.9190   83121506.4630
  79658131.0260
  22430266.680    22430265.260                   117871941.1060   91848316.9720

  20258838.220    20258837.720    20258838.080   106461118.0270   82956894.2320
  79500462.8260
  22534034.940    22534033.440    22534037.000   118417150.6890   92273098.9280
  88428405.9240
  24181334.140    24181332.780                   127073785.2390   99018529.1920

  22943351.300    22943348.100                   120568124.3580   93949170.8220

  24224203.800    24224201.800                   127299055.6350   99194062.6310

  24800095.980    24800098.820    24800098.740   130325559.4090  101552481.0990
  97321155.2240
 23  3  1  1 42  0.0000000  0 10G03G04G06G07G09G11G17G19G20G30
  23776735.780    23776736.760    23776737.060   124947812.9350   97362057.2190
  93305586.0520
  21687444.620    21687443.360    21687446.580   113968804.3280   88806831.9290
  85106549.5170
  20296659.320    20296659.560    20296660.620   106659682.7680   83111454.3980
  79648497.8030
  22416014.480    22416013.160                   117797045.7500   91789956.9870

  20261373.660    20261373.200    20261373.540   106474441.9670   82967276.5290
  79510412.5290
  22517864.000    22517862.380    22517866.120   118332171.8160   92206881.6440
  88364947.7020
  24199219.620    24199218.360                   127167773.4610   99091766.5200

  22960391.080    22960387.680                   120657668.2180   94018945.2220

  24207225.780    24207223.800                   127209836.0550   99124540.9360

  24780014.700    24780017.600    24780017.660   130220032.8080  101470252.8200
  97242353.1820
 23  3  1  1 42 30.0000000  0 10G03G04G06G07G09G11G17G19G20G30
  23792101.740    23792102.680    23792102.920   125028561.3320   97424978.0280
  93365885.1610
  21701257.300    21701255.960    21701259.120   114041390.4780   88863392.5670
  85160753.4700
  20294309.540    20294309.780    20294310.660   106647334.5120   83101832.3760
  79639276.6990
  22401819.500    22401818.220                   117722451.0100   91731831.2460

  20263992.020    20263991.540    20263991.900   106488201.3310   82977998.1160
  79520687.3850
  22501749.560    22501747.860    22501751.660   118247489.7440   92140895.6340
  88301711.1090
  24217105.600    24217104.420                   127261763.9220   99165005.5930

  22977482.180    22977478.680                   120747481.9660   94088929.9320

  24190247.200    24190245.200                   127120613.3990   99055016.8700

  24759929.480    24759932.420    24759932.420   130114484.7530  101388007.8060
  97163535.1200
 23  3  1  1 43  0.0000000  0 10G03G04G06G07G09G11G17G19G20G30
  23807488.700    23807489.740    23807489.920   125109420.4100   97487985.0850
  93426266.9090
  21715118.620    21715117.360    21715120.460   114114232.4160   88920152.5210
  85215148.4240
  20292064.740    20292065.000    20292065.660   106635537.9090   83092640.2170
  79630467.5530
  22387682.040    22387680.740                   117648158.2720   91673940.8320

  20266692.780    20266692.260    20266692.680   106502393.5980   82989057.0250
  79531285.5080
  22485691.860    22485690.060    22485694.000   118163105.7640   92075141.9080
  88238697.1290
  24234991.100    24234990.220                   127355752.9480   99238243.5180

  22994623.700    22994620.180                   120837560.8570   94159121.2420

  24173268.120    24173265.840                   127031387.1160   98985489.9270

  24739840.280    24739843.360    24739843.320   130008916.4300  101305747.0120
  97084701.9540
 23  3  1  1 43 30.0000000  0 10G03G04G06G07G09G11G17G19G20G30
  23822897.040    23822898.280    23822898.420   125190391.5490   97551079.4530
  93486732.3390
  21729028.560    21729027.360    21729030.480   114187329.7520   88977111.4840
  85269734.0970
  20289925.420    20289925.760    20289926.260   106624295.7330   83083880.0820
  79622072.4190
  22373602.840    22373601.440                   117574171.5950   91616288.9370

  20269476.000    20269475.440    20269475.880   106517019.2280   83000453.6230
  79542207.2490
  22469691.680    22469689.800    22469693.900   118079024.1160   92009623.7560
  88175908.9140
  24252876.380    24252875.380                   127449739.8300   99311479.7690

  23011815.320    23011811.740                   120927903.0670   94229517.7580

  24156288.560    24156286.260                   126942159.2310   98915961.7700

  24719748.060    24719751.220    24719751.160   129903153.0901  101223247.7131
  97005856.7380
 23  3  1  1 44  0.0000000  0 10G03G04G06G07G09G11G17G19G20G30
  23838326.640    23838328.080    23838328.140   125271474.5000   97614260.9420
  93547281.2640
  21742986.680    21742985.560    21742988.840   114260680.3410   89034267.7900
  85324508.8950
  20287891.780    20287892.180    20287892.580   106613608.9560   83075552.7200
  79614092.0400
  22359582.200    22359580.760                   117500492.9790   91558877.0530

  20272341.400    20272340.840    20272341.260   106532076.9150   83012186.8930
  79553451.6390
  22453749.440    22453747.520    22453751.820   117995247.3050   91944343.1400
  88113348.3340
  24270760.680    24270759.680                   127543721.1370   99384711.6550

  23029056.320    23029052.700                   121018505.3550   94300116.9220

  24139309.100    24139306.660                   126852931.2120   98846433.4910

  24699653.420    24699656.460    24699656.300   129797555.0540  101140963.7280
  96927001.2700
 23  3  1  1 44 30.0000000  0 10G03G04G06G07G09G11G17G19G20G30
  23853777.800    23853779.200    23853778.920   125352670.2790   97677530.3580
  93607914.4560
  21756992.840    21756991.820    21756995.300   114334283.4160   89091620.8330
  85379472.2250
  20285964.280    20285964.720    20285965.080   106603479.8960   83067659.9480
  79606528.1300
  22345620.880    22345619.340                   117427126.0280   91501708.0310

  20275288.960    20275288.480    20275288.860   106547566.6940   83024256.8570
  79565018.6900
  22437865.880    22437864.000    22437868.400   117911779.1890   91879303.0760
  88051018.2700
  24288643.640    24288642.620                   127637695.5490   99457938.1750

  23046346.260    23046342.880                   121109365.2830   94370916.8360

  24122329.840    24122327.220                   126763704.7080   98776906.3900

  24679556.800    24679559.740    24679559.640   129691947.1080  101058672.0120
  96848138.3850
 23  3  1  1 45  0.0000000  0 10G03G04G06G07G09G11G17G19G20G30
  23869249.980    23869251.080    23869250.600   125433976.4530   97740885.8000
  93668630.0940
  21771046.340    21771045.280    21771049.020   114408134.7730   89149167.3470
  85434620.9650
  20284142.680    20284143.180    20284143.540   106593907.3970   83060200.8580
  79599379.8370
  22331718.940    22331717.380                   117354071.2050   91444782.2280

  20278318.120    20278317.700    20278318.000   106563485.1770   83036660.8780
  79576905.8740
  22422041.280    22422039.300    22422043.700   117828620.1700   91814503.8620
  87988919.0290
  24306524.380    24306523.300                   127731658.3130   99531155.5960

  23063684.320    23063681.000                   121200477.5220   94441913.3650

  24105350.500    24105347.860                   126674478.2320   98707379.2740

  24659458.260    24659461.180    24659461.140   129586329.4610  100976372.7110
  96769268.2920
 23  3  1  1 45 30.0000000  0 10G03G04G06G07G09G11G17G19G20G30
  23884743.200    23884744.280    23884743.860   125515393.8660   97804327.9190
  93729428.7680
  21785146.920    21785145.780    21785149.600   114482233.3980   89206906.5340
  85489954.3600
  20282427.400    20282427.920    20282428.340   106584893.4950   83053177.0380
  79592648.6760
  22317877.100    22317875.500                   117281332.0000   91388102.3590

  20281428.800    20281428.360    20281428.660   106579832.0890   83049398.7360
  79589112.9920
  22406276.120    22406274.120    22406278.460   117745773.8720   91749948.3240
  87927053.3060
  24324402.540    24324401.700                   127825607.3120   99604362.2950

  23081069.940    23081066.680                   121291839.7660   94513104.7110

  24088371.480    24088369.060                   126585253.6860   98637853.7500

  24639358.620    24639361.440    24639361.500   129480705.7780  100894068.7250
  96690393.6490
 23  3  1  1 46  0.0000000  0 10G03G04G06G07G09G11G17G19G20G30
  23900257.220    23900258.480    23900258.300   125596921.0880   97867855.5840
  93790309.4290
  21799293.920    21799292.660    21799296.660   114556576.1170   89264835.9290
  85545470.0230
  20280818.360    20280818.900    20280819.420   106576438.0040   83046588.3430
  79586334.5110
  22304095.540    22304093.960                   117208909.4400   91331669.2300

  20284620.580    20284620.120    20284620.380   106596605.0330   83062468.5720
  79601638.2500
  22390570.740    22390568.740    22390573.020   117663241.7080   91685637.5620
  87865422.1760
  24342277.360    24342276.480                   127919538.6350   99677555.1730

  23098502.260    23098499.000                   121383447.3960   94584487.2750

  24071392.880    24071390.920                   126496030.8850   98568329.5450

  24619257.940    24619260.800    24619260.960   129375077.2970  100811760.9790
  96611515.4460
 23  3  1  1 46 30.0000000  0 10G03G04G06G07G09G11G17G19G20G30
  23915792.200    23915793.660    23915793.680   125678558.5420   97931469.1450
  93851272.4300
  21813487.080    21813485.780    21813489.800   114631161.5160   89322954.4300
  85601166.9190
  20279315.880    20279316.400    20279317.080   106568542.5020   83040436.0060
  79580438.5250
  22290374.800    22290373.280                   117136806.4700   91275485.1320

  20287893.320    20287892.880    20287893.100   106613803.3870   83075869.8910
  79614481.1770
  22374925.740    22374923.680    22374927.980   117581026.9120   91621574.1030
  87804028.0320
  24360148.480    24360147.740                   128013450.4940   99750732.8760

  23115980.740    23115977.440                   121475297.4630   94656058.7430

  24054414.880    24054413.220                   126406811.1340   98498807.6900

  24599157.000    24599159.900    24599160.080   129269447.2460  100729451.9960
  96532636.0420
 23  3  1  1 47  0.0000000  0 10G03G04G06G07G09G11G17G19G20G30
  23931348.200    23931349.580    23931349.860   125760305.9970   97995168.4430
  93912317.5880
  21827726.060    21827724.680    21827728.740   114705987.5850   89381260.4600
  85657043.5310
  20277920.160    20277920.680    20277921.420   106561207.9490   83034720.7720
  79574961.4300
  22276715.380    22276713.860                   117065025.4340   91219551.8900

  20291246.760    20291246.320    20291246.560   106631425.8360   83089601.6730
  79627640.8070
  22359341.600    22359339.660    22359343.920   117499132.0450   91557759.9420
  87742872.7990
  24378015.280    24378014.720                   128107339.6820   99823892.9140

  23133504.780    23133501.420                   121567386.5130   94727816.4150

  24037437.740    24037435.780                   126317595.4120   98429289.0000

  24579056.320    24579059.260    24579059.320   129163818.0930  100647143.7260
  96453757.3120
 23  3  1  1 47 30.0000000  0 10G03G04G06G07G09G11G17G19G20G30
  23946925.400    23946926.520    23946927.100   125842164.4340   98058954.2330
  93973445.6210
  21842010.660    21842009.260    21842013.220   114781053.4910   89439753.3780
  85713099.2410
  20276631.600    20276632.120    20276632.760   106554436.4680   83029444.2960
  79569904.8060
  22263117.920    22263116.380                   116993570.0210   91163872.3570

  20294680.900    20294680.400    20294680.740   106649472.3420   83103663.8940
  79641117.1010
  22343819.120    22343817.260    22343821.420   117417560.8860   91494198.0180
  87681959.2950
  24395877.680    24395877.480                   128201205.1750   99897034.4520

  23151073.820    23151070.600                   121659712.4380   94799758.6580

  24020461.640    24020459.580                   126228385.7380   98359775.0010

  24558956.460    24558959.540    24558959.360   129058193.6320  100564839.1020
  96374882.0620
 23  3  1  1 48  0.0000000  0 10G03G04G06G07G09G11G17G19G20G30
  23962523.320    23962524.260    23962525.080   125924132.0170   98122825.0650
  94034655.1680
  21856340.200    21856338.860    21856342.680   114856355.6590   89498430.3890
  85769331.3770
  20275450.020    20275450.560    20275451.060   106548227.3550   83024606.0260
  79565268.1350
  22249582.600    22249580.900                   116922440.8510   91108447.0790

  20298195.200    20298194.640    20298195.060   106667939.9870   83118054.2770
  79654907.8840
  22328358.480    22328356.640    22328360.640   117336314.4670   91430889.1360
  87621288.2830
  24413734.520    24413734.420                   128295041.8870   99970153.5560

  23168687.060    23168683.980                   121752270.3140   94871881.6610

  24003486.460    24003484.420                   126139180.7460   98290264.6590

  24538857.840    24538860.800    24538860.380   128952574.6290  100482538.6980
  96296010.8930
 23  3  1  1 48 30.0000000  0 10G03G04G06G07G09G11G17G19G20G30
  23978141.920    23978142.840    23978143.760   126006208.4590   98186780.7180
  94095945.9860
  21870714.280    21870713.040    21870716.740   114931891.9590   89557289.8420
  85825738.3620
  20274375.620    20274376.200    20274376.580   106542581.4240   83020206.5970
  79561052.0170
  22236109.720    22236107.800                   116851640.0780   91053277.6750

  20301789.360    20301788.760    20301789.200   106686827.3890   83132771.7410
  79669012.1210
  22312960.100    22312958.300    22312962.080   117255395.2580   91367835.2190
  87560861.6210
  24431585.480    24431585.500                   128388847.9120  100043248.7180

  23186343.800    23186340.820                   121845056.6880   94944182.7060

  23986512.400    23986510.200                   126049981.7350   98220758.9730

  24518760.660    24518763.680    24518763.000   128846963.6090  100400244.5260
  96217145.6560
 23  3  1  1 49  0.0000000  0 10G03G04G06G07G09G11G17G19G20G30
  23993781.400    23993782.520    23993783.480   126088394.8090   98250822.0030
  94157318.8910
  21885132.820    21885131.680    21885135.380   115007661.7270   89616331.2120
  85882319.6730
  20273408.800    20273409.460    20273409.720   106537500.8240   83016247.6900
  79557258.0670
  22222700.020    22222697.880                   116781171.4820   90998367.1110

  20305463.400    20305462.720    20305463.160   106706134.5550   83147816.2960
  79683429.8170
  22297624.720    22297622.960    22297626.560   117174807.1760   91305039.3300
  87500682.2390
  24449430.460    24449430.700                   128482621.3290  100116318.4690

  23204043.540    23204040.520                   121938069.2950   95016660.0250

  23969539.880    23969537.700                   125960790.7080   98151259.5000

  24498665.780    24498668.740    24498668.000   128741364.4620  100317959.6030
  96138289.2960
 23  3  1  1 49 30.0000000  0 10G03G04G06G07G09G11G17G19G20G30
  24009441.640    24009442.740    24009443.760   126170689.0540   98314947.3660
  94218772.3650
  21899595.080    21899593.900    21899597.680   115083661.2140   89675551.5910
  85939072.5320
  20272549.380    20272550.080    20272550.300   106532984.6570   83012728.5990
  79553885.6020
  22209353.600    22209351.300                   116711035.6110   90943715.8120

  20309216.700    20309215.980    20309216.420   106725858.4290   83163185.5590
  79698158.6900
  22282352.460    22282350.720    22282354.280   117094551.0550   91242502.1150
  87440750.7280
  24467268.180    24467268.580                   128576357.5330  100189359.1770

  23221785.400    23221782.240                   122031303.0250   95089309.6680

  23952568.820    23952566.460                   125871606.9160   98081765.6810

  24478573.200    24478576.180    24478575.460   128635777.9320  100235684.5080
  96059442.3280
 23  3  1  1 50  0.0000000  0 10G03G04G06G07G09G11G17G19G20G30
  24025122.520    24025123.660    24025124.760   126253092.5240   98379157.8500
  94280307.4080
  21914100.920    21914099.740    21914103.480   115159889.9260   89734950.5850
  85995996.5700
  20271797.820    20271798.520    20271798.780   106529035.2320   83009651.1250
  79550936.3590
  22196071.240    22196068.800                   116641236.3620   90889326.8150

  20313049.320    20313048.600    20313049.020   106745999.1980   83178879.6720
  79713198.8770
  22267144.180    22267142.440    22267146.040   117014630.9700   91180226.7370
  87381070.1630
  24485098.780    24485099.220                   128670055.6880  100262370.2270

  23239568.920    23239565.600                   122124756.1370   95162130.2470

  23935599.460    23935597.040                   125782432.3640   98012279.0480

  24458483.800    24458486.660    24458486.200   128530208.0060  100153422.3300
  95980607.7760
 23  3  1  1 50 30.0000000  0 10G03G04G06G07G09G11G17G19G20G30
  24040824.000    24040825.220    24040826.180   126335604.8390   98443453.1480
  94341923.7160
  21928649.980    21928648.720    21928652.340   115236345.6920   89794526.5060
  86053090.1580
  20271154.240    20271154.940    20271155.340   106525653.2120   83007015.7870
  79548410.8240
  22182853.260    22182850.780                   116571775.6920   90835201.6480

  20316960.980    20316960.340    20316960.620   106766555.3710   83194897.4800
  79728549.2790
  22252000.220    22251998.580    22252002.240   116935049.3490   91118215.1060
  87321642.3500
  24502921.420    24502921.980                   128763712.3700  100335348.9620

  23257393.580    23257390.120                   122218425.0660   95235119.0000

  23918631.860    23918629.540                   125693267.8380   97942800.2240

  24438398.000    24438400.780    24438400.540   128424657.0950  100071174.9700
  95901787.4220
 23  3  1  1 51  0.0000000  0 10G03G04G06G07G09G11G17G19G20G30
  24056545.900    24056547.080    24056547.740   126418223.3850   98507831.2250
  94403619.3700
  21943241.380    21943240.100    21943243.620   115313024.1890   89854275.9850
  86110350.0770
  20270618.320    20270619.000    20270619.560   106522837.0120   83004821.3410
  79546307.8240
  22169699.760    22169697.320                   116502653.8640   90781340.5060

  20320951.000    20320950.480    20320950.560   106787523.2460   83211236.0890
  79744207.1160
  22236920.800    22236919.140    22236922.900   116855806.4330   91056467.3940
  87262467.4630
  24520735.460    24520735.900                   128857322.9360  100408291.7030

  23275258.140    23275254.700                   122312303.9130   95308271.3190

  23901666.200    23901663.760                   125604112.1310   97873328.2680

  24418315.800    24418318.500    24418318.460   128319125.3860   99988942.5700
  95822981.3990
 23  3  1  1 51 30.0000000  0 10G03G04G06G07G09G11G17G19G20G30
  24072288.540    24072289.740    24072290.120   126500950.8280   98572294.1450
  94465396.3470
  21957875.340    21957874.040    21957877.460   115389926.3790   89914199.7690
  86167777.0360
  20270190.780    20270191.380    20270192.040   106520590.2690   83003070.6320
  79544630.0630
  22156611.660    22156609.300                   116433875.6810   90727747.1460

  20325019.680    20325019.300    20325019.180   106808904.4110   83227896.7390
  79760173.5790
  22221906.820    22221905.180    22221909.100   116776907.7040   90994987.8850
  87203549.6000
  24538540.720    24538541.200                   128950887.7440  100481198.7550

  23293162.500    23293159.200                   122406392.2090   95381586.8540

  23884703.000    23884700.620                   125514969.1040   97803866.2100

  24398238.300    24398240.940    24398241.100   128213618.3650   99906729.4050
  95744193.8180
 23  3  1  1 52  0.0000000  0 10G03G04G06G07G09G11G17G19G20G30
  24088051.760    24088052.920    24088053.260   126583786.5350   98636841.4290
  94527254.1640
  21972551.420    21972550.160    21972553.560   115467050.0250   89974296.1110
  86225369.3600
  20269871.680    20269872.200    20269872.960   106518913.4690   83001764.0330
  79543377.9030
  22143589.300    22143587.100                   116365443.0220   90674423.0210

  20329166.720    20329166.380    20329166.200   106830697.2120   83244878.1480
  79776447.4290
  22206958.840    22206957.100    22206961.180   116698355.4910   90933778.3830
  87144890.4940
  24556336.520    24556336.980                   129044403.2840  100554067.4210

  23311106.100    23311102.700                   122500686.2930   95455062.7290

  23867742.020    23867739.740                   125425838.9210   97734414.1440

  24378165.980    24378168.580    24378168.900   128108138.3110   99824537.2570
  95665426.3550
 23  3  1  1 52 30.0000000  0 10G03G04G06G07G09G11G17G19G20G30
  24103835.400    24103836.400    24103836.960   126666729.9160   98701472.6250
  94589192.3800
  21987269.140    21987267.960    21987271.240   115544392.4080   90034562.9000
  86283125.0350
  20269661.060    20269661.480    20269662.340   106517806.6430   83000901.5670
  79542551.3690
  22130633.020    22130631.000                   116297357.8080   90621369.6350

  20333391.720    20333391.340    20333391.200   106852899.6260   83262178.7370
  79793027.1560
  22192077.080    22192075.400    22192079.480   116620151.6750   90872840.3650
  87086491.5580
  24574122.660    24574123.120                   129137866.9990  100626895.6750

  23329088.020    23329084.700                   122595182.2070   95528695.8780

  23850783.480    23850781.380                   125336722.0270   97664972.4370

  24358099.160    24358101.660    24358102.280   128002687.0620   99742367.5420
  95586680.3920
 23  3  1  1 53  0.0000000  0 10G03G04G06G07G09G11G17G19G20G30
  24119639.360    24119640.140    24119641.020   126749780.9560   98766187.7090
  94651210.9940
  22002028.220    22002027.120    22002030.360   115621952.0440   90094998.9720
  86341042.9410
  20269559.160    20269559.440    20269560.340   106517270.9130   83000484.1090
  79542151.3110
  22117743.320    22117741.400                   116229622.4400   90568588.8600

  20337694.500    20337694.060    20337693.980   106875510.7330   83279797.7870
  79809912.0850
  22177262.180    22177260.580    22177264.620   116542299.2360   90812176.1430
  87028355.0260
  24591898.140    24591898.900                   129231276.0970  100699681.3570

  23347107.760    23347104.420                   122689876.6820   95602483.7560

  23833827.700    23833825.580                   125247619.8660   97595542.2250

  24338038.360    24338040.920    24338041.640   127897267.5870   99660222.5890
  95507958.1730
 23  3  1  1 53 30.0000000  0 10G03G04G06G07G09G11G17G19G20G30
  24135463.000    24135463.580    24135464.600   126832934.8820   98830982.9740
  94713306.4390
  22016827.440    22016826.360    22016829.600   115699722.4200   90155599.2590
  86399118.2180
  20269565.220    20269565.400    20269566.300   106517302.3850   83000508.6280
  79542174.8110
  22104919.840    22104917.940                   116162235.0070   90516079.2030

  20342073.940    20342073.440    20342073.380   106898524.5900   83297730.6710
  79827097.7680
  22162513.860    22162512.160    22162516.220   116464796.2020   90751784.1890
  86970479.4000
  24609661.920    24609662.780                   129324622.8610  100772418.4280

  23365163.860    23365160.480                   122784761.8890   95676420.2540

  23816874.140    23816871.860                   125158528.7740   97526120.6320

  24317983.300    24317985.760    24317986.760   127791877.9690   99578100.9090
  95429258.2550
 23  3  1  1 54  0.0000000  0 10G03G04G06G07G09G11G17G19G20G30
  24151307.340    24151307.940    24151308.900   126916197.3850   98895862.8360
  94775482.9480
  22031667.520    22031666.400    22031669.740   115777707.4430   90216366.8060
  86457353.7840
  20269680.400    20269680.640    20269681.500   106517907.5680   83000980.1980
  79542626.7340
  22092164.000    22092162.080                   116095202.8920   90463846.4080

  20346530.820    20346530.360    20346530.280   106921945.7420   83315980.9280
  79844587.5950
  22147833.600    22147831.820    22147835.860   116387651.0410   90691671.0930
  86912871.0160
  24627414.700    24627415.640                   129417911.6170  100845110.2540

  23383256.620    23383253.340                   122879840.4570   95750507.4360

  23799923.840    23799921.840                   125069455.4790   97456712.9080

  24297935.620    24297937.920    24297939.080   127686526.5680   99496008.9910
  95350586.8530
 23  3  1  1 54 30.0000000  0 10G03G04G06G07G09G11G17G19G20G30
  24167171.580    24167172.380    24167173.200   126999564.5710   98960824.2410
  94837737.6570
  22046547.460    22046546.320    22046549.720   115855901.6320   90277297.3410
  86515745.5410
  20269904.220    20269904.520    20269905.300   106519083.5640   83001896.5560
  79543504.9080
  22079475.720    22079473.760                   116028525.5380   90411890.0530

  20351064.200    20351063.820    20351063.740   106945769.1540   83334544.6310
  79862377.8170
  22133221.240    22133219.380    22133223.420   116310862.7970   90631836.1140
  86855529.1650
  24645155.260    24645156.160                   129511135.7020  100917751.6960

  23401385.080    23401381.800                   122975105.4060   95824739.8370

  23782976.500    23782974.620                   124980397.2080   97387316.9120

  24277894.960    24277897.040    24277898.440   127581212.4100   99413946.0860
  95271943.2520
 23  3  1  1 55  0.0000000  0 10G03G04G06G07G09G11G17G19G20G30
  24183056.280    24183057.200    24183058.020   127083039.2350   99025869.3990
  94900072.5840
  22061467.380    22061466.180    22061469.560   115934305.9550   90338391.6180
  86574294.2250
  20270237.320    20270237.620    20270238.360   106520833.8950   83003260.4520
  79544811.9780
  22066855.820    22066853.900                   115962207.6810   90360213.8260

  20355674.440    20355674.120    20355674.040   106969996.4330   83353423.0350
  79880469.6180
  22118677.900    22118676.000    22118679.960   116234436.9270   90572283.5030
  86798457.9200
  24662883.600    24662884.520                   129604295.1920  100990342.7590

  23419548.900    23419545.660                   123070556.4730   95899117.2790

  23766032.720    23766030.960                   124891357.8760   97317935.6540

  24257862.500    24257864.420    24257865.920   127475941.0300   99331916.5170
  95193331.6110
 23  3  1  1 55 30.0000000  0 10G03G04G06G07G09G11G17G19G20G30
  24198961.120    24198961.880    24198962.680   127166618.8800   99090996.3640
  94962485.9430
  22076426.460    22076425.280    22076428.640   116012916.3040   90399646.4290
  86632996.7480
  20270679.400    20270679.700    20270680.360   106523156.9390   83005070.6140
  79546546.7180
  22054304.360    22054302.460                   115896249.4560   90308817.8260

  20360360.860    20360360.580    20360360.580   106994623.9550   83372613.3170
  79898860.3080
  22104203.560    22104201.660    22104205.620   116158373.7990   90513013.5470
  86741657.5500
  24680598.520    24680599.620                   129697419.2581  101062927.7271

  23437746.920    23437743.760                   123166187.5660   95973634.9840

  23749092.440    23749090.780                   124802336.3320   97248568.2660

  24237838.180    24237840.000    24237841.480   127370712.7810   99249920.5360
  95114752.1350
 23  3  1  1 56  0.0000000  0 10G03G04G06G07G09G11G17G19G20G30
  24214886.060    24214886.780    24214887.400   127250305.0280   99156206.3450
  95024978.8130
  22091424.700    22091423.500    22091426.860   116091732.4870   90461061.6370
  86691852.9890
  20271230.900    20271231.140    20271231.840   106526054.9890   83007328.8350
  79548710.8360
  22041822.060    22041820.180                   115830654.8080   90257705.1400

  20365123.540    20365123.240    20365123.380   107019652.0730   83392115.7510
  79917550.1260
  22089799.120    22089797.140    22089801.160   116082677.7460   90454029.6280
  86685131.2880
  24698300.280    24698301.360                   129790438.9080  101135409.7960

  23455978.880    23455975.800                   123261997.2070   96048291.8240

  23732156.220    23732154.420                   124713335.2940   97179216.8320

  24217822.960    24217824.620    24217826.040   127265531.9450   99167961.5190
  95036208.0910
 23  3  1  1 56 30.0000000  0 10G03G04G06G07G09G11G17G19G20G30
  24230830.820    24230831.400    24230831.840   127334094.6480   99221496.9440
  95087548.9970
  22106461.240    22106460.040    22106463.540   116170749.7780   90522633.5460
  86750859.4080
  20271891.360    20271891.520    20271892.380   106529525.8130   83010033.3710
  79551302.6920
  22029408.780    22029406.920                   115765422.8200   90206875.0450

  20369961.660    20369961.320    20369961.600   107045076.5960   83411927.0720
  79936535.9870
  22075464.440    22075462.420    22075466.500   116007348.5390   90395331.5570
  86628878.9780
  24715987.400    24715988.580                   129883383.0230  101207832.9930

  23474243.660    23474240.560                   123357979.4500   96123083.1620

  23715223.560    23715221.460                   124624352.8770   97109879.9310

  24197816.660    24197818.240    24197819.580   127160398.3760   99086039.3350
  94957699.3430
 23  3  1  1 57  0.0000000  0 10G03G04G06G07G09G11G17G19G20G30
  24246795.700    24246796.320    24246796.780   127417990.5270   99286870.3260
  95150198.4800
  22121536.240    22121535.000    22121538.640   116249969.2850   90584363.0320
  86810016.8180
  20272661.480    20272661.680    20272662.580   106533572.9340   83013186.9700
  79554324.8890
  22017065.580    22017063.680                   115700558.9820   90156331.8120

  20374875.520    20374875.160    20374875.500   107070899.1440   83432048.5440
  79955819.0630
  22061200.540    22061198.600    22061202.700   115932391.7220   90336923.6620
  86572904.7530
  24733660.220    24733661.660                   129976252.1150  101280197.7330

  23492541.240    23492538.140                   123454133.7400   96198008.5680

  23698295.160    23698293.180                   124535393.3740   97040560.8770

  24177820.420    24177821.860    24177823.240   127055317.6020   99004158.2760
  94879230.0320
 23  3  1  1 57 30.0000000  0 10G03G04G06G07G09G11G17G19G20G30
  24262780.280    24262781.080    24262781.580   127501990.1860   99352324.5740
  95212925.4650
  22136648.920    22136647.640    22136651.480   116329386.8840   90646246.8690
  86869322.1640
  20273540.940    20273541.180    20273542.040   106538194.6460   83016788.3040
  79557776.1690
  22004792.480    22004790.460                   115636063.2330   90106075.4090

  20379864.440    20379864.060    20379864.380   107097116.0620   83452477.3150
  79975396.6390
  22047007.620    22047005.740    22047009.900   115857807.6470   90278806.2170
  86517208.8740
  24751317.840    24751319.560                   130069040.9410  101352499.9110

  23510870.500    23510867.380                   123550454.5380   96273063.6930

  23681370.760    23681368.740                   124446454.9600   96971258.2610

  24157834.220    24157835.660    24157836.980   126950290.0850   98922318.7200
  94800800.4550
 23  3  1  1 58  0.0000000  0 10G03G04G06G07G09G11G17G19G20G30
  24278784.420    24278785.400    24278785.800   127586092.4270   99417858.7780
  95275729.0630
  22151798.720    22151797.380    22151801.240   116408999.7280   90708282.8550
  86928773.3140
  20274529.640    20274529.920    20274530.660   106543390.4280   83020836.9650
  79561656.1340
  21992589.520    21992587.460                   115571936.1930   90056106.3110

  20384927.980    20384927.600    20384927.840   107123724.9780   83473211.5440
  79995266.9380
  22032885.880    22032884.180    22032888.340   115783597.9250   90220980.4820
  86461792.5410
  24768959.660    24768961.600                   130161746.2590  101424736.9840

  23529230.640    23529227.600                   123646937.5730   96348245.2520

  23664450.500    23664448.460                   124357538.0250   96901972.3770

  24137858.560    24137859.880    24137861.120   126845317.3620   98840521.8540
  94722411.8100
 23  3  1  1 58 30.0000000  0 10G03G04G06G07G09G11G17G19G20G30
  24294808.460    24294809.600    24294809.780   127670299.2440   99483474.4510
  95338610.7160
  22166985.720    22166984.300    22166988.240   116488808.0860   90770471.1860
  86988370.4620
  20275628.140    20275628.480    20275628.960   106549162.9590   83025335.0410
  79565966.7900
  21980457.680    21980455.640                   115508182.9850   90006428.5120

  20390066.260    20390065.880    20390066.040   107150726.6830   83494251.8440
  80015430.5580
  22018836.340    22018834.720    22018838.900   115709767.3230   90163450.1550
  86406659.3270
  24786585.560    24786587.540                   130254367.3810  101496908.4600

  23547621.280    23547618.380                   123743581.5400   96423552.2000

  23647534.840    23647532.820                   124268645.5430   96832705.5420

  24117894.120    24117895.440    24117896.520   126740404.2570   98758771.4380
  94644067.6810
 23  3  1  1 59  0.0000000  0 10G03G04G06G07G09G11G17G19G20G30
  24310852.540    24310853.880    24310853.520   127754611.3650   99549172.1830
  95401571.0560
  22182209.740    22182208.300    22182212.200   116568811.1340   90832811.2260
  87048112.9960
  20276836.640    20276837.080    20276837.320   106555513.6870   83030283.6570
  79570709.2230
  21968397.520    21968395.500                   115444806.3900   89957044.1810

  20395279.200    20395278.780    20395278.880   107178120.7470   83515597.8740
  80035887.1740
  22004859.640    22004858.040    22004862.220   115636319.3580   90106217.9930
  86351811.8560
  24804195.160    24804197.520                   130346903.2980  101569013.5160

  23566042.100    23566039.280                   123840384.0830   96498982.7330

  23630624.360    23630622.140                   124179779.8790   96763459.6040

  24097941.720    24097943.020    24097943.860   126635554.3990   98677070.3120
  94565770.7720
 23  3  1  1 59 30.0000000  0 10G03G04G06G07G09G11G17G19G20G30
  24326915.940    24326917.380    24326916.440   127839024.9040   99614948.9280
  95464607.1150
  22197469.780    22197468.400    22197472.120   116649003.3010   90895298.6230
  87107996.7570
  20278154.580    20278155.020    20278155.160   106562439.3670   83035680.2840
  79575880.9910
  21956408.720    21956406.760                   115381804.8950   89907952.1290

  20400565.800    20400565.360    20400565.380   107205902.0670   83537245.6560
  80056632.9570
  21990955.580    21990953.940    21990958.020   115563252.9720   90049283.1590
  86297249.3060
  24821787.300    24821790.020                   130439347.0790  101641046.7680

  23584492.060    23584489.240                   123937338.4080   96574531.5040

  23613718.340    23613716.080                   124090938.1500   96694232.3110

  24078001.280    24078002.440    24078003.040   126530766.7190   98595417.6400
  94487520.2990
 23  3  1  2  0  0.0000000  0 10G03G04G06G07G09G11G17G19G20G30
  24342999.280    24343001.000    24342999.440   127923543.8340   99680807.7870
  95527721.8910
  22212766.260    22212764.880    22212768.480   116729386.8960   90957935.1840
  87168023.4680
  20279582.780    20279583.240    20279583.300   106569944.5400   83041528.4690
  79581485.5040
  21944492.460    21944490.540                   115319184.6070   89859157.1220

  20405926.600    20405926.180    20405926.140   107234073.3930   83559197.3420
  80077669.9880
  21977125.440    21977123.760    21977127.700   115490574.8480   89992650.8700
  86242976.7020
  24839362.240    24839365.280                   130531700.6560  101713009.7390

  23602970.920    23602967.980                   124034445.2650   96650199.1650

  23596817.820    23596815.560                   124002125.6720   96625027.8160

  24058073.960    24058074.960    24058075.360   126426047.9750   98513818.6770
  94409321.3170
 23  3  1  2  0 30.0000000  0 10G03G04G06G07G09G11G17G19G20G30
  24359101.460    24359103.140    24359101.500   128008160.7460   99746743.0190
  95590909.8170
  22228097.420    22228096.040    22228099.500   116809952.9070   91020713.8850
  87228186.4000
  20281119.960    20281120.400    20281120.600   106578022.4630   83047822.9500
  79587517.7130
  21932647.760    21932645.880                   115256940.5140   89810655.2570

  20411360.000    20411359.520    20411359.560   107262626.1730   83581446.2620
  80098991.8680
  21963368.300    21963366.640    21963370.380   115418280.4010   89936317.5420
  86188990.6020
  24856918.260    24856921.620                   130623954.3230  101784894.8510

  23621476.880    23621473.760                   124131694.3470   96725977.6390

  23579921.880    23579919.520                   123913336.2780   96555841.2810

  24038159.040    24038159.780    24038160.120   126321393.7020   98432269.9420
  94331170.4530
 23  3  1  2  1  0.0000000  0 10G03G04G06G07G09G11G17G19G20G30
  24375223.820    24375225.500    24375224.140   128092884.1880   99812761.2590
  95654177.2950
  22243464.640    22243463.220    22243466.800   116890708.3240   91083640.1830
  87288490.7680
  20282767.840    20282768.280    20282768.700   106586682.2960   83054570.8700
  79593984.4710
  21920876.800    21920874.900                   115195083.6920   89762455.1640

  20416867.400    20416866.860    20416867.040   107291567.7560   83603998.1460
  80120604.0920
  21949686.360    21949684.700    21949688.260   115346380.9950   89880292.0390
  86135299.5030
  24874456.380    24874460.200                   130716114.7410  101856707.3020

  23640010.800    23640007.660                   124229090.8380   96801870.9840

  23563032.100    23563029.640                   123824579.8350   96486680.4400

  24018258.500    24018259.060    24018259.380   126216815.2880   98350780.3100
  94253076.2380
 23  3  1  2  1 30.0000000  0 10G03G04G06G07G09G11G17G19G20G30
  24391365.340    24391367.000    24391365.960   128177708.8000   99878858.3430
  95717520.3080
  22258866.500    22258865.140    22258868.840   116971646.0990   91146708.5730
  87348931.3140
  20284525.560    20284525.960    20284526.500   106595919.1640   83061768.4250
  79600882.1300
  21909178.940    21909176.960                   115133610.9330   89714554.3350

  20422447.560    20422446.940    20422447.220   107320891.5260   83626847.8440
  80142501.7250
  21936079.080    21936077.440    21936080.820   115274873.9900   89824572.3120
  86081901.4290
  24891975.260    24891979.440                   130808173.6660  101928440.6720

  23658571.240    23658567.980                   124326626.0330   96877872.4250

  23546147.740    23546145.240                   123735852.1820   96417542.0590

  23998371.880    23998372.400    23998372.720   126112310.1840   98269347.8130
  94175036.7810
 23  3  1  2  2  0.0000000  0 10G03G04G06G07G09G11G17G19G20G30
  24407526.440    24407527.940    24407527.260   128262635.9300   99945035.3380
  95780939.8830
  22274303.080    22274301.840    22274305.680   117052766.0190   91209918.8920
  87409507.8660
  20286393.460    20286393.760    20286394.440   106605735.0310   83069417.1490
  79608212.1550
  21897554.820    21897552.740                   115072525.6730   89666955.4580

  20428100.460    20428099.820    20428100.080   107350597.6500   83649995.4790
  80164684.8740
  21922547.240    21922545.560    21922548.820   115203763.5520   89769161.5990
  86028799.4900
  24909474.560    24909479.060                   130900130.3650  102000094.3830

  23677157.760    23677154.520                   124424298.4320   96953980.7630

  23529269.260    23529266.800                   123647155.9720   96348428.1350

  23978500.100    23978500.480    23978500.800   126007882.6530   98187975.7640
  94097055.2240
 23  3  1  2  2 30.0000000  0 10G03G04G06G07G09G11G17G19G20G30
  24423706.560    24423708.220    24423707.660   128347663.5630  100011290.6300
  95844434.5090
  22289773.740    22289772.380    22289776.400   117134064.4630   91273268.3290
  87470217.7390
  20288371.300    20288371.520    20288372.280   106616128.3590   83077515.8420
  79615973.4030
  21886004.540    21886002.420                   115011828.8680   89619659.2750

  20433825.520    20433824.900    20433825.040   107380682.8840   83673438.5240
  80187151.1350
  21909090.980    21909089.240    21909092.540   115133050.4020   89714060.4530
  85975994.2310
  24926953.680    24926958.320                   130991980.5110  102071665.0730

  23695769.480    23695766.040                   124522102.9740   97030192.0700

  23512396.760    23512394.180                   123558490.6250   96279338.2830

  23958643.140    23958643.560    23958643.800   125903533.4760   98106664.7690
  94019132.2030
 23  3  1  2  3  0.0000000  0 10G03G04G06G07G09G11G17G19G20G30
  24439906.380    24439908.220    24439907.660   128432794.6570  100077626.5410
  95908006.4160
  22305278.580    22305277.220    22305281.400   117215542.8160   91336757.9500
  87531061.9540
  20290459.620    20290459.840    20290460.640   106627102.6260   83086067.2140
  79624168.4680
  21874529.100    21874526.940                   114951525.3650   89572669.5590

  20439623.040    20439622.480    20439622.480   107411149.0090   83697178.3690
  80209901.8210
  21895711.380    21895709.680    21895713.080   115062740.2950   89659273.3710
  85923489.9310
  24944412.600    24944417.560                   131083724.7800  102143153.2580

  23714406.100    23714402.860                   124620039.4200   97106506.1470

  23495531.000    23495528.480                   123469860.4140   96210275.7930

  23938802.140    23938802.560    23938802.780   125799268.4940   98025419.3890
  93941272.0630
 23  3  1  2  3 30.0000000  0 10G03G04G06G07G09G11G17G19G20G30
  24456124.900    24456127.000    24456126.400   128518024.5220  100144039.3940
  95971652.0700
  22320816.480    22320814.980    22320819.320   117297194.8560   91400382.9120
  87592035.8700
  20292657.700    20292657.960    20292658.820   106638653.6590   83095068.0170
  79632794.2350
  21863128.000    21863125.820                   114891612.5640   89525984.2700

  20445491.900    20445491.380    20445491.380   107441990.1290   83721210.4190
  80232932.5320
  21882408.000    21882406.400    21882409.920   114992831.2890   89604798.8360
  85871285.1730
  24961850.320    24961855.320                   131175356.3470  102214553.6480

  23733066.460    23733063.440                   124718100.2450   97182917.1480

  23478671.260    23478668.760                   123381262.0320   96141238.1250

  23918976.860    23918977.260    23918977.480   125695085.9810   97944238.2590
  93863473.4790
 23  3  1  2  4  0.0000000  0 10G03G04G06G07G09G11G17G19G20G30
  24472362.740    24472365.040    24472364.580   128603355.9690  100210531.4060
  96035373.5800
  22336387.640    22336386.200    22336390.400   117379021.7800   91464144.1480
  87653140.3810
  20294966.140    20294966.460    20294967.440   106650784.6900   83104520.7670
  79641853.1240
  21851802.280    21851800.060                   114832095.5900   89479607.4320

  20451432.400    20451431.900    20451431.960   107473207.7860   83745535.8710
  80256244.4260
  21869182.060    21869180.500    21869184.140   114923328.9550   89550641.1910
  85819384.1010
  24979266.620    24979271.940                   131266875.7300  102285866.6360

  23751750.500    23751747.620                   124816285.3540   97259424.9910

  23461818.320    23461815.940                   123292699.4130   96072228.3380

  23899168.340    23899168.680    23899168.940   125590991.5350   97863125.7550
  93785740.6820
 23  3  1  2  4 30.0000000  0 10G03G04G06G07G09G11G17G19G20G30
  24488619.640    24488621.780    24488621.620   128688786.1420  100277100.3540
  96099168.8080
  22351991.240    22351989.840    22351993.860   117461019.1570   91528038.2140
  87714372.1950
  20297384.480    20297384.860    20297385.860   106663493.2760   83114423.5510
  79651343.2980
  21840551.720    21840549.500                   114772973.6460   89433538.4080

  20457443.720    20457443.360    20457443.420   107504797.9060   83770151.5490
  80279834.4560
  21856033.520    21856032.080    21856035.720   114854233.1730   89496800.3370
  85767786.6170
  24996660.620    24996666.040                   131358334.9851  102357164.3581

  23770456.940    23770454.200                   124914588.3380   97336024.6740

  23444971.980    23444969.580                   123204171.3850   96003245.4860

  23879376.560    23879376.880    23879377.280   125486985.1680   97782081.8820
  93708073.6620
 23  3  1  2  5  0.0000000  0 10G03G04G06G07G09G11G17G19G20G30
  24504895.940    24504897.900    24504898.020   128774318.1870  100343748.6800
  96163040.1050
  22367627.560    22367626.140    22367630.020   117543188.5810   91592066.3360
  87775732.4750
  20299913.400    20299913.860    20299914.760   106676782.9950   83124779.1720
  79661267.4320
  21829377.480    21829375.300                   114714252.8100   89387781.9580

  20463526.300    20463526.000    20463526.080   107536762.4210   83795058.9660
  80303704.0560
  21842963.560    21842962.120    21842965.660   114785549.8760   89443280.9060
  85716497.1510
  25014032.260    25014037.740                   131449620.2800  102428294.9770

  23789185.880    23789183.300                   125013009.3880   97412716.3680

  23428132.960    23428130.600                   123115682.0820   95934292.8040

  23859602.640    23859603.020    23859603.480   125383072.9300   97701111.3620
  93630476.9180
 23  3  1  2  5 30.0000000  0 10G03G04G06G07G09G11G17G19G20G30
  24521191.340    24521193.100    24521193.360   128859950.2570  100410474.9520
  96226986.0940
  22383296.000    22383294.700    22383298.400   117625526.7000   91656225.9030
  87837218.7300
  20302552.660    20302553.120    20302553.940   106690652.4160   83135586.5070
  79671624.4610
  21818279.520    21818277.400                   114655932.8810   89342337.8800

  20469679.600    20469679.260    20469679.340   107569098.2570   83820255.7210
  80327850.9470
  21829972.240    21829970.680    21829974.260   114717279.9130   89390083.5470
  85665516.3510
  25031381.000    25031386.560                   131540785.3240  102499331.9200

  23807936.420    23807933.840                   125111543.6390   97489496.2550

  23411301.280    23411298.820                   123027231.0990   95865369.9850

  23839846.800    23839847.300    23839847.820   125279255.8780   97620215.0160
  93552951.2660
 23  3  1  2  6  0.0000000  0 10G03G04G06G07G09G11G17G19G20G30
  24537505.420    24537507.000    24537507.260   128945680.5560  100477277.7720
  96291005.4570
  22398995.840    22398994.660    22398998.360   117708030.1650   91720514.3180
  87898828.4590
  20305301.980    20305302.400    20305303.180   106705100.0960   83146844.4310
  79682413.3020
  21807258.020    21807255.880                   114598014.5230   89297206.7190

  20475903.000    20475902.560    20475902.700   107601802.4210   83845739.4900
  80352272.8850
  21817059.800    21817058.000    21817061.780   114649424.3010   89337209.0530
  85614844.9580
  25048706.080    25048711.760                   131631826.6850  102570272.4990

  23826707.540    23826705.080                   125210186.1850   97566360.5280

  23394476.900    23394474.380                   122938818.1830   95796476.8320

  23820109.380    23820109.940    23820110.420   125175535.0750   97539393.6640
  93475497.4770
 23  3  1  2  6 30.0000000  0 10G03G04G06G07G09G11G17G19G20G30
  24553838.300    24553839.820    24553839.920   129031509.9050  100544157.7650
  96355098.7920
  22414726.980    22414725.980    22414729.640   117790698.2900   91784931.0340
  87960561.1460
  20308161.540    20308161.940    20308162.660   106720127.2400   83158553.8880
  79693634.8670
  21796313.560    21796311.300                   114540500.7740   89252390.8350

  20482196.440    20482195.860    20482196.140   107634874.4750   83871509.9250
  80376969.5530
  21804226.840    21804224.920    21804228.900   114581986.5490   89284660.1630
  85564485.6220
  25066007.160    25066013.140                   131722741.8280  102641114.7570

  23845498.880    23845496.240                   125308935.0360   97643307.6270

  23377660.100    23377657.700                   122850445.5890   95727615.1180

  23800390.980    23800391.600    23800392.040   125071914.2580   97458650.2170
  93398118.3480
 23  3  1  2  7  0.0000000  0 10G03G04G06G07G09G11G17G19G20G30
  24570190.200    24570191.660    24570191.660   129117439.3380  100611115.7470
  96419266.8370
  22430489.420    22430488.440    22430492.180   117873530.5680   91849475.6560
  88022416.4070
  20311131.640    20311132.020    20311132.660   106735735.1420   83170715.8850
  79705290.1170
  21785446.640    21785444.320                   114483394.4880   89207892.4550

  20488559.800    20488559.160    20488559.520   107668314.1860   83897566.8490
  80401940.7710
  21791474.160    21791472.140    21791476.240   114514970.4300   89232439.8210
  85514441.1370
  25083284.100    25083290.260                   131813530.4770  102711858.5160

  23864310.000    23864307.320                   125407787.9810   97720335.8280

  23360851.460    23360849.100                   122762115.8280   95658786.7530

  23780692.220    23780692.960    23780693.380   124968397.2690   97377987.6730
  93320816.7650
 23  3  1  2  7 30.0000000  0 10G03G04G06G07G09G11G17G19G20G30
  24586560.720    24586562.000    24586561.980   129203465.9320  100678149.4300
  96483507.4370
  22446282.180    22446281.200    22446284.980   117956522.5370   91914144.7210
  88084390.9310
  20314211.740    20314212.180    20314212.760   106751921.2110   83183328.4040
  79717377.1160
  21774657.140    21774654.800                   114426694.9880   89163711.0570

  20494992.340    20494991.660    20494992.040   107702117.4460   83923907.0520
  80427183.4720
  21778801.580    21778799.580    21778803.740   114448375.7200   89180547.8490
  85464711.3400
  25100535.980    25100542.420                   131904187.2960  102782499.5480

  23883139.780    23883137.040                   125506739.2480   97797440.6600

  23344050.680    23344048.300                   122673826.9450   95589990.2630

  23761013.340    23761014.120    23761014.580   124864984.1590   97297406.0740
  93243592.7540
 23  3  1  2  8  0.0000000  0 10G03G04G06G07G09G11G17G19G20G30
  24602950.020    24602951.220    24602951.360   129289592.0880  100745260.7100
  96547822.4180
  22462105.560    22462104.600    22462108.340   118039675.1750   91978938.9890
  88146485.4280
  20317402.420    20317402.880    20317403.480   106768688.1920   83196393.5790
  79729897.9100
  21763946.040    21763943.680                   114370407.3290   89119850.5760

  20501494.300    20501493.600    20501493.960   107736285.4610   83950531.4890
  80452698.5470
  21766210.180    21766208.180    21766212.460   114382207.6370   89128988.3160
  85415300.1190
  25117762.740    25117769.580                   131994712.5020  102853038.0580

  23901988.160    23901985.260                   125605788.0850   97874621.5110

  23327258.440    23327256.020                   122585583.1960   95521228.9260

  23741355.220    23741356.040    23741356.540   124761680.2490   97216909.5620
  93166450.2650
 23  3  1  2  8 30.0000000  0 10G03G04G06G07G09G11G17G19G20G30
  24619357.680    24619358.860    24619359.160   129375815.0440  100812447.4090
  96612209.6510
  22477958.680    22477957.640    22477961.240   118122984.2090   92043855.1150
  88208696.7130
  20320703.140    20320703.600    20320704.300   106786033.5750   83209909.4510
  79742850.6230
  21753313.020    21753310.700                   114314530.2050   89076309.9870

  20508064.920    20508064.220    20508064.480   107770814.1500   83977436.9670
  80478482.9660
  21753699.940    21753697.900    21753702.420   114316466.0340   89077761.1020
  85366207.3740
  25134963.440    25134970.580                   132085100.5360  102923469.7110

  23920854.000    23920850.880                   125704928.8380   97951873.9940

  23310474.560    23310471.960                   122497383.0560   95452501.5690

  23721717.900    23721718.760    23721719.420   124658485.5830   97136498.1890
  93089389.3800
 23  3  1  2  9  0.0000000  0 10G03G04G06G07G09G11G17G19G20G30
  24635784.000    24635785.140    24635785.620   129462135.6730  100879710.2120
  96676669.8240
  22493841.520    22493840.300    22493843.820   118206448.9650   92108892.5890
  88271024.3060
  20324114.140    20324114.580    20324115.360   106803958.3690   83223876.8170
  79756236.0240
  21742758.780    21742756.460                   114259067.1110   89033092.0200

  20514704.080    20514703.440    20514703.520   107805703.1790   84004623.2270
  80504536.4650
  21741271.600    21741269.540    21741274.140   114251154.5170   89026869.0200
  85317435.8080
  25152137.940    25152145.080                   132175350.5970  102993793.9580

  23939736.960    23939733.700                   125804159.3000   98029196.3730

  23293699.280    23293696.800                   122409228.9090   95383810.0600

  23702102.140    23702103.040    23702103.820   124555404.0390   97056174.9510
  93012412.9590
 23  3  1  2  9 30.0000000  0 10G03G04G06G07G09G11G17G19G20G30
  24652229.260    24652230.480    24652231.000   129548556.1470  100947050.8120
  96741204.5660
  22509754.160    22509752.760    22509756.240   118290070.2320   92174052.0240
  88333468.7650
  20327635.880    20327636.280    20327637.140   106822465.0910   83238297.6310
  79770055.9700
  21732284.140    21732281.820                   114204022.5110   88990200.1550

  20521412.000    20521411.440    20521411.440   107840953.5360   84032091.0450
  80530859.7980
  21728926.020    21728924.020    21728928.440   114186278.0040   88976315.9050
  85268989.0830
  25169286.160    25169293.640                   132265463.3880  103064011.2590

  23958636.780    23958633.460                   125903478.8240   98106588.1620

  23276933.540    23276931.040                   122321124.4430   95315157.2600

  23682508.840    23682509.800    23682510.600   124452440.7130   96975943.8410
  92935524.8100
 23  3  1  2 10  0.0000000  0 10G03G04G06G07G09G11G17G19G20G30
  24668692.380    24668693.600    24668694.200   129635070.5900  101014464.6350
  96805809.4820
  22525695.160    22525693.660    22525697.040   118373840.6500   92239327.6700
  88396024.5910
  20331267.240    20331267.620    20331268.600   106841548.0220   83253167.4450
  79784306.2130
  21721888.280    21721885.980                   114149392.2080   88947631.1160

  20528187.320    20528186.820    20528186.900   107876558.0910   84059834.8560
  80557447.6130
  21716662.600    21716660.640    21716664.860   114121833.3330   88926099.2870
  85220864.8240
  25186406.860    25186414.260                   132355430.8360  103134115.4030

  23977551.880    23977548.540                   126002878.2400   98184042.1790

  23260176.360    23260173.900                   122233065.2380   95246539.7200

  23662937.440    23662938.420    23662939.260   124349592.5720   96895802.4740
  92858722.6880
 23  3  1  2 10 30.0000000  0 10G03G04G06G07G09G11G17G19G20G30
  24685173.960    24685175.200    24685175.880   129721682.1770  101081954.1400
  96870486.9180
  22541664.900    22541663.420    22541666.780   118457761.9480   92304720.8870
  88458693.0820
  20335008.880    20335009.280    20335010.280   106861210.5430   83268488.8860
  79798989.2570
  21711572.280    21711569.880                   114095181.4990   88905389.0340

  20535030.400    20535029.900    20535030.160   107912518.7530   84087856.1550
  80584301.3560
  21704482.500    21704480.560    21704484.620   114057826.3390   88876223.7180
  85173067.4050
  25203499.660    25203507.300                   132445253.4490  103204106.6920

  23996482.160    23996478.820                   126102357.7700   98261558.6420

  23243428.680    23243426.120                   122145055.8770   95177961.0180

  23643389.060    23643390.180    23643390.880   124246865.7120   96815755.6130
  92782011.1150
 23  3  1  2 11  0.0000000  0 10G03G04G06G07G09G11G17G19G20G30
  24701674.040    24701675.100    24701675.840   129808390.5480  101149519.0810
  96935236.6430
  22557663.020    22557661.460    22557664.880   118541832.2840   92370230.2320
  88521472.8870
  20338860.760    20338861.220    20338862.140   106881452.4150   83284261.7670
  79814104.9300
  21701336.500    21701333.980                   114041392.4740   88863475.5290

  20541940.960    20541940.400    20541940.840   107948833.9150   84116153.6860
  80611419.8270
  21692386.120    21692384.180    21692388.100   113994259.3550   88826691.0110
  85125598.5580
  25220564.800    25220572.440                   132534929.2520  103273983.6670

  24015427.220    24015423.820                   126201914.2880   98339135.0500

  23226690.700    23226688.080                   122057097.3090   95109421.9090

  23623864.240    23623865.440    23623865.980   124144262.7130   96735805.2630
  92705392.0340
 23  3  1  2 11 30.0000000  0 10G03G04G06G07G09G11G17G19G20G30
  24718192.560    24718193.520    24718194.380   129895195.8180  101217159.5200
  97000058.7580
  22573689.260    22573687.600    22573691.200   118626050.4150   92435854.7440
  88584363.0380
  20342822.980    20342823.440    20342824.240   106902273.9290   83300486.3180
  79829653.4600
  21691181.300    21691178.720                   113988027.1010   88821892.1450

  20548918.740    20548918.120    20548918.680   107985502.5360   84144726.6430
  80638802.2410
  21680373.960    21680372.120    21680375.800   113931135.2060   88777503.3770
  85078460.4100
  25237601.420    25237609.020                   132624455.9650  103343744.5620

  24034386.320    24034382.820                   126301544.8470   98416769.2050

  23209962.740    23209960.120                   121969191.4430   95040923.8540

  23604363.640    23604364.880    23604365.280   124041786.6210   96655953.8010
  92628867.7360
 23  3  1  2 12  0.0000000  0 10G03G04G06G07G09G11G17G19G20G30
  24734728.860    24734729.780    24734730.720   129982095.0230  101284873.1490
  97064950.9570
  22589742.720    22589741.000    22589744.740   118710411.7930   92501590.8840
  88647360.1690
  20346894.920    20346895.400    20346896.080   106923672.1000   83317160.2090
  79845632.6070
  21681106.600    21681104.040                   113935084.6890   88780638.3440

  20555962.940    20555962.260    20555962.900   108022520.2120   84173571.5870
  80666445.3180
  21668446.020    21668444.240    21668447.740   113868453.5030   88728660.5040
  85031652.6500
  25254608.900    25254616.580                   132713828.9630  103413385.7420

  24053358.400    24053354.920                   126401243.4850   98494456.3750

  23193244.480    23193241.840                   121881336.7930   94972465.7120

  23584887.120    23584888.460    23584888.660   123939437.3090   96576201.1330
  92552438.0960
 23  3  1  2 12 30.0000000  0 10G03G04G06G07G09G11G17G19G20G30
  24751283.820    24751284.620    24751285.540   130069091.5470  101352662.6010
  97129915.8870
  22605823.840    22605822.220    22605825.920   118794918.5470   92567440.3030
  88710465.8560
  20351077.300    20351077.780    20351078.460   106945650.5950   83334286.3040
  79862045.1120
  21671113.380    21671110.900                   113882570.3490   88739718.1020

  20563074.000    20563073.320    20563074.000   108059889.3180   84202690.3790
  80694350.8140
  21656603.440    21656601.620    21656605.200   113806220.4200   88680167.2040
  84985179.8990
  25271586.980    25271594.920                   132803049.6150  103482908.2850

  24072343.560    24072340.240                   126501010.6880   98572196.9890

  23176536.920    23176534.280                   121793538.1670   94904051.2190

  23565435.920    23565437.300    23565437.600   123837221.1720   96496552.2370
  92476107.9110
 23  3  1  2 13  0.0000000  0 10G03G04G06G07G09G11G17G19G20G30
  24767856.260    24767856.880    24767858.080   130156180.1890  101420523.8480
  97194949.5700
  22621931.380    22621929.820    22621933.440   118879564.0040   92633397.7920
  88773675.1120
  20355369.100    20355369.580    20355370.340   106968204.1460   83351860.4940
  79878887.0450
  21661201.000    21661198.600                   113830480.8270   88699128.8910

  20570250.680    20570250.060    20570250.660   108097603.2680   84232077.8770
  80722513.8340
  21644845.720    21644843.880    21644847.540   113744433.3520   88632021.4480
  84939040.2160
  25288534.640    25288542.680                   132892110.6660  103552306.5080

  24091340.140    24091337.040                   126600838.1790   98649984.5690

  23159839.380    23159836.680                   121705791.9550   94835677.5720

  23546009.560    23546011.040    23546011.460   123735135.8630   96417005.2940
  92399875.4420
 23  3  1  2 13 30.0000000  0 10G03G04G06G07G09G11G17G19G20G30
  24784447.120    24784447.660    24784449.160   130243366.1640  101488460.9350
  97260055.9350
  22638066.040    22638064.620    22638067.980   118964351.9810   92699466.3430
  88836990.8030
  20359771.300    20359771.820    20359772.620   106991338.0520   83369886.9080
  79896162.3630
  21651370.940    21651368.600                   113778823.8550   88658876.7270

  20577493.800    20577493.240    20577493.640   108135666.0860   84261737.2200
  80750937.3730
  21633174.360    21633172.580    21633176.220   113683100.1680   88584229.3640
  84893239.4740
  25305452.440    25305460.600                   132981050.4991  103621630.1491

  24110348.660    24110345.660                   126700728.4160   98727821.0190

  23143153.040    23143150.380                   121618104.7180   94767349.8850

  23526609.700    23526611.220    23526611.900   123633189.6380   96337566.7260
  92323746.8140
 23  3  1  2 14  0.0000000  0 10G03G04G06G07G09G11G17G19G20G30
  24801055.940    24801056.320    24801058.100   130330645.5160  101556470.7870
  97325232.0550
  22654226.800    22654225.440    22654228.600   119049277.1530   92765641.8020
  88900408.9590
  20364283.220    20364283.760    20364284.560   107015048.4570   83388362.5380
  79913868.1750
  21641622.820    21641620.520                   113727597.3620   88618960.0020

  20584802.340    20584801.860    20584802.060   108174072.6310   84291664.4020
  80779617.5910
  21621589.160    21621587.420    21621590.940   113622219.6380   88536790.0030
  84847776.7510
  25322339.320    25322347.820                   133069792.9320  103690780.2580

  24129367.800    24129365.060                   126800674.6240   98805701.0950

  23126477.500    23126474.840                   121530474.3630   94699066.5220

  23507236.200    23507237.680    23507238.520   123531381.3790   96258235.6620
  92247721.2310
 23  3  1  2 14 30.0000000  0 10G03G04G06G07G09G11G17G19G20G30
  24817682.780    24817683.200    24817685.120   130418020.8020  101624555.4170
  97390479.8080
  22670413.900    22670412.580    22670415.560   119134340.7250   92831925.1010
  88963930.4480
  20368905.340    20368905.880    20368906.600   107039337.8610   83407289.3400
  79932006.3590
  21631957.520    21631955.200                   113676805.6520   88579382.0710

  20592176.560    20592176.060    20592176.200   108212824.1820   84321860.4220
  80808555.4420
  21610091.020    21610089.300    21610092.800   113561796.9120   88489707.3650
  84802655.8900
  25339195.480    25339204.140                   133158373.8350  103759804.6640

  24148397.400    24148394.820                   126900676.2590   98883624.3550

  23109813.480    23109810.880                   121442904.4680   94630830.2670

  23487890.040    23487891.500    23487892.460   123429716.6140   96179016.4000
  92171802.7830
 23  3  1  2 15  0.0000000  0 10G03G04G06G07G09G11G17G19G20G30
  24834326.940    24834327.460    24834329.440   130505486.7580  101692710.6700
  97455795.2790
  22686625.960    22686624.740    22686627.680   119219536.0830   92898311.0940
  89027550.3520
  20373636.660    20373637.120    20373637.840   107064201.0340   83426663.2310
  79950573.0060
  21622374.380    21622372.040                   113626445.7140   88540140.5870

  20599615.200    20599614.640    20599614.760   108251914.2650   84352320.2310
  80837746.0920
  21598679.520    21598677.780    21598681.380   113501829.3740   88442979.4220
  84757874.9490
  25356019.560    25356028.080                   133246785.9530  103828697.4980

  24167436.220    24167433.720                   127000725.2140   98961584.4890

  23093160.320    23093157.900                   121355391.9340   94562638.7130

  23468570.740    23468572.220    23468573.140   123328193.0230   96099907.1450
  92095989.7530
 23  3  1  2 15 30.0000000  0 10G03G04G06G07G09G11G17G19G20G30
  24850988.120    24850988.400    24850990.720   130593041.0170  101760934.7560
  97521176.7020
  22702862.440    22702861.280    22702864.160   119304859.4770   92964796.8450
  89091265.8750
  20378476.700    20378477.100    20378477.820   107089635.5790   83446482.3490
  79969566.3290
  21612873.300    21612870.940                   113576517.0420   88501235.1510

  20607117.580    20607116.960    20607117.080   108291339.2830   84383041.0270
  80867186.8600
  21587354.720    21587353.040    21587356.620   113442317.2930   88396606.3840
  84713434.1360
  25372811.000    25372819.340                   133335025.7440  103897456.2110

  24186483.100    24186480.580                   127100824.2781   99039592.4411

  23076517.940    23076515.580                   121267935.9180   94494491.1960

  23449278.500    23449279.900    23449280.760   123226811.2080   96020908.3710
  92020282.5990
 23  3  1  2 16  0.0000000  0  9G03G04G06G07G09G11G19G20G30
  24867669.320    24867669.380    24867671.880   130680700.8150  101829241.0780
  97586636.9430
  22719126.280    22719125.200    22719128.220   119390326.8010   93031394.7600
  89155088.8630
  20383428.760    20383429.000    20383429.820   107115658.6510   83466760.0620
  79988999.1310
  21603457.920    21603455.540                   113527038.8360   88462680.7310

  20614686.700    20614686.020    20614686.260   108331115.1910   84414035.2480
  80896889.6540
  21576120.400    21576118.740    21576122.200   113383280.5200   88350603.7130
  84669348.2380
  24205540.580    24205538.280                   127200971.6270   99117629.2220

  23059889.900    23059887.560                   121180555.0230   94426402.2200

  23430017.020    23430018.380    23430019.120   123125591.3030   95942035.7590
  91944696.3410
 23  3  1  2 16 30.0000000  0  9G03G04G06G07G09G11G19G20G30
  24884366.360    24884366.020    24884369.000   130768443.8400  101897612.2620
  97652159.2950
  22735412.940    22735412.020    22735415.100   119475914.3730   93098086.3600
  89219001.6610
  20388488.500    20388488.680    20388489.520   107142247.8250   83487478.8900
  80008854.6770
  21594124.380    21594121.900                   113477990.5390   88424461.3040

  20622318.140    20622317.460    20622317.800   108371218.4580   84445284.5580
  80926836.9110
  21564972.780    21564971.080    21564974.480   113324699.3050   88304956.0260
  84625602.5330
  24224603.900    24224601.720                   127301149.9820   99195690.1690

  23043272.320    23043270.020                   121093228.7770   94358355.8090

  23410782.680    23410783.920    23410784.520   123024513.9200   95863274.2060
  91869216.5300
 23  3  1  2 17  0.0000000  0  9G03G04G06G07G09G11G19G20G30
  24901080.800    24901079.860    24901083.320   130856278.4000  101966054.7910
  97717750.0360
  22751723.860    22751723.000    22751726.200   119561629.2510   93164877.1560
  89283009.5110
  20393657.540    20393657.780    20393658.540   107169411.4080   83508645.3100
  80029139.1570
  21584874.620    21584872.100                   113429382.6670   88386585.0650

  20630013.180    20630012.560    20630012.960   108411656.2290   84476794.5110
  80957033.9500
  21553914.000    21553912.180    21553915.640   113266584.6740   88259671.9040
  84582205.2460
  24243674.280    24243672.060                   127401367.2421   99273781.8681

  23026667.000    23026664.580                   121005966.9740   94290359.6170

  23391577.620    23391578.720    23391579.220   122923590.4120   95784632.5550
  91793851.6120
 23  3  1  2 17 30.0000000  0  9G03G04G06G07G09G11G19G20G30
  24917812.500    24917811.480    24917814.820   130944204.3160  102034568.4810
  97783408.9670
  22768058.780    22768057.920    22768061.160   119647469.8460   93231765.9350
  89347111.2380
  20398935.800    20398936.140    20398936.880   107197148.9730   83530258.9860
  80049852.2650
  21575708.980    21575706.500                   113381216.9510   88349053.3640

  20637771.580    20637770.980    20637771.380   108452426.9750   84508563.9260
  80987479.6370
  21542944.440    21542942.500    21542946.100   113208938.8900   88214753.1150
  84539158.0790
  24262750.960    24262748.940                   127501616.0590   99351897.7040

  23010074.180    23010071.680                   120918770.9640   94222414.6870

  23372402.280    23372403.220    23372403.660   122822823.3780   95706112.8170
  91718603.5450
 23  3  1  2 18  0.0000000  0  9G03G04G06G07G09G11G19G20G30
  24934562.460    24934561.420    24934564.560   131032225.6030  102103156.5120
  97849139.1470
  22784418.140    22784417.440    22784420.500   119733438.9440   93298754.8250
  89411308.9310
  20404324.060    20404324.460    20404325.260   107225464.5010   83552323.0250
  80070996.9730
  21566628.660    21566626.240                   113333499.3660   88311870.8570

  20645593.900    20645593.300    20645593.720   108493533.5760   84540595.0450
  81018176.1280
  21532065.340    21532063.380    21532067.020   113151768.6920   88170204.9190
  84496466.0640
  24281834.220    24281832.380                   127601899.3980   99430040.4480

  22993494.940    22993492.500                   120831646.5460   94154525.5600

  23353258.040    23353258.880    23353259.320   122722219.8990   95627720.5320
  91643477.6180
 23  3  1  2 18 30.0000000  0  9G03G04G06G07G09G11G19G20G30
  24951329.280    24951328.500    24951331.100   131120335.1990  102171813.3120
  97914935.2600
  22800800.400    22800799.780    22800802.720   119819528.1830   93365837.3390
  89475596.3360
  20409820.940    20409821.420    20409822.240   107254350.7400   83574831.7720
  80092567.8520
  21557632.600    21557630.220                   113286224.7280   88275033.5000

  20653478.500    20653477.940    20653478.360   108534967.6990   84572881.3770
  81049117.1960
  21521275.880    21521273.880    21521277.480   113095069.5470   88126023.7760
  84454125.7950
  24300922.300    24300920.340                   127702207.6460   99508202.5960

  22976928.340    22976925.760                   120744588.2570   94086687.9450

  23334144.140    23334144.940    23334145.360   122621775.8550   95549452.4870
  91568470.7590
 23  3  1  2 19  0.0000000  0  9G03G04G06G07G09G11G19G20G30
  24968113.240    24968112.700    24968114.880   131208535.2300  102240540.5940
  97980798.9140
  22817205.680    22817205.120    22817207.980   119905738.3670   93433014.0950
  89539974.0710
  20415426.800    20415427.380    20415428.140   107283809.6180   83597786.7330
  80114566.3620
  21548721.500    21548719.140                   113239396.8000   88238544.2250

  20661425.600    20661425.040    20661425.440   108576730.2910   84605423.6560
  81080303.5450
  21510576.960    21510574.860    21510578.460   113038846.1410   88082213.3310
  84412140.7940
  24320015.040    24320013.060                   127802539.9600   99586383.4830

  22960375.000    22960372.280                   120657599.9840   94018904.8850

  23315061.560    23315062.340    23315062.740   122521496.3150   95471312.6270
  91493586.7460
 23  3  1  2 19 30.0000000  0  9G03G04G06G07G09G11G19G20G30
  24984914.480    24984914.020    24984915.900   131296825.6860  102309338.3510
  98046730.0790
  22833633.740    22833633.140    22833636.000   119992068.2160   93500284.0990
  89604441.1520
  20421141.600    20421142.220    20421142.960   107313840.9130   83621187.7350
  80136992.3180
  21539895.760    21539893.440                   113193017.6490   88202404.6510

  20669435.000    20669434.440    20669434.780   108618820.0350   84638220.8600
  81111734.1940
  21499969.000    21499966.860    21499970.540   112983100.9820   88038775.5490
  84370512.9200
  24339111.960    24339109.920                   127902893.7860   99664581.1340

  22943835.240    22943832.500                   120570683.0510   93951177.4370

  23296010.860    23296011.620    23296011.940   122421384.1840   95393303.2220
  91418827.7360
 23  3  1  2 20  0.0000000  0  9G03G04G06G07G09G11G19G20G30
  25001732.480    25001732.280    25001733.760   131385204.6540  102378205.0610
  98112727.3330
  22850084.040    22850083.280    22850086.160   120078514.5660   93567644.8930
  89668995.2530
  20426964.920    20426965.560    20426966.240   107344442.5270   83645033.1400
  80159844.1640
  21531155.440    21531153.200                   113147087.3300   88166614.8170

  20677506.080    20677505.520    20677505.780   108661233.8940   84671270.6220
  81143406.8870
  21489452.140    21489450.100    21489453.740   112927834.7860   87995710.9850
  84329242.7160
  24358211.980    24358209.740                   128003264.3010   99742791.7980

  22927309.140    22927306.300                   120483837.6540   93883505.7140

  23276992.260    23276993.020    23276993.100   122321440.5460   95315425.1010
  91344194.5570
 23  3  1  2 20 30.0000000  0  9G03G04G06G07G09G11G19G20G30
  25018567.480    25018567.560    25018568.860   131473673.9040  102447142.1230
  98178792.0010
  22866556.600    22866555.640    22866558.520   120165077.9360   93635096.8610
  89733636.7180
  20432897.040    20432897.720    20432898.360   107375615.9490   83669324.1100
  80183123.0110
  21522501.180    21522499.020                   113101609.1860   88131177.3270

  20685638.940    20685638.300    20685638.580   108703972.3570   84704573.3220
  81175321.9710
  21479027.200    21479025.340    21479028.880   112873051.8260   87953022.9790
  84288333.3690
  24377314.920    24377312.460                   128103650.2130   99821014.4110

  22910797.180    22910794.260                   120397066.8260   93815892.1050

  23258006.620    23258007.400    23258007.220   122221670.1110   95237681.9390
  91269690.6900
 23  3  1  2 21  0.0000000  0  9G03G04G06G07G09G11G19G20G30
  25035419.580    25035419.780    25035420.900   131562232.4320  102516148.7370
  98244923.3160
  22883050.920    22883049.880    22883052.660   120251756.1120   93702638.2990
  89798363.9240
  20438937.700    20438938.440    20438939.040   107407359.9370   83694059.6750
  80206827.9250
  21513933.120    21513931.000                   113056584.2840   88096093.0150

  20693833.160    20693832.420    20693832.740   108747033.2340   84738127.2520
  81207477.8210
  21468694.560    21468692.760    21468696.360   112818753.6650   87910712.7230
  84247786.0490
  24396420.020    24396417.560                   128204048.0340   99899246.3390

  22894299.500    22894296.720                   120310371.3870   93748337.2460

  23239054.300    23239055.100    23239054.580   122122074.8160   95160075.2570
  91195317.6210
 23  3  1  2 21 30.0000000  0  9G03G04G06G07G09G11G19G20G30
  25052288.660    25052289.040    25052289.800   131650880.3870  102585225.0390
  98311121.4470
  22899566.920    22899565.760    22899568.580   120338547.9730   93770268.3110
  89863176.0280
  20445086.900    20445087.640    20445088.260   107439674.3460   83719239.7230
  80230958.8090
  21505451.700    21505449.520                   113012014.4940   88061363.3330

  20702088.540    20702087.740    20702088.100   108790415.4540   84771931.5800
  81239873.6380
  21458454.700    21458452.980    21458456.700   112764942.9590   87868782.3150
  84207602.7430
  24415526.840    24415524.480                   128304454.8300   99977485.2350

  22877816.620    22877813.900                   120223753.3840   93680842.7220

  23220135.900    23220136.760    23220136.060   122022657.8400   95082607.5200
  91121077.6990
 23  3  1  2 22  0.0000000  0  9G03G04G06G07G09G11G19G20G30
  25069174.340    25069175.000    25069175.540   131739615.9200  102654369.5730
  98377384.9570
  22916103.900    22916102.720    22916105.740   120425450.4840   93837984.5530
  89928070.7640
  20451344.260    20451344.940    20451345.660   107472557.0440   83744862.5930
  80255514.0490
  21497056.960    21497054.680                   112967899.9140   88026988.3540

  20710404.480    20710403.720    20710404.120   108834115.9580   84805983.9230
  81272507.1260
  21448307.760    21448306.060    21448309.880   112711620.3790   87827232.2610
  84167783.9410
  24434634.620    24434632.220                   128404865.9930  100055727.5420

  22861348.420    22861345.780                   120137212.6820   93613408.4300

  23201251.580    23201252.500    23201251.700   121923420.2470   95005279.5670
  91046971.7400
 23  3  1  2 22 30.0000000  0  9G03G04G06G07G09G11G19G20G30
  25086076.640    25086077.300    25086077.820   131828437.8570  102723581.4470
  98443712.9720
  22932661.420    22932660.240    22932663.460   120512461.2170   93905785.1220
  89993046.2960
  20457709.460    20457710.080    20457710.900   107506006.5060   83770927.1010
  80280492.5360
  21488748.960    21488746.640                   112924241.0770   87992968.5070

  20718780.560    20718779.840    20718780.260   108878132.3900   84840282.4430
  81305376.5440
  21438253.980    21438252.260    21438256.080   112658787.2640   87786063.6060
  84128330.6470
  24453742.520    24453740.120                   128505277.8710  100133970.4110

  22844895.040    22844892.540                   120050749.8470   93546034.8260

  23182401.640    23182402.680    23182401.920   121824363.8250   94928092.7890
  90973001.0760
 23  3  1  2 23  0.0000000  0  9G03G04G06G07G09G11G19G20G30
  25102996.200    25102996.780    25102997.360   131917350.2480  102792863.8040
  98510108.5790
  22949240.080    22949238.900    22949242.380   120599583.0730   93973672.2810
  90058104.8250
  20464183.260    20464183.780    20464184.720   107540026.4970   83797436.1740
  80305897.0640
  21480528.780    21480526.440                   112881043.5290   87959308.1050

  20727217.280    20727216.620    20727217.060   108922467.6060   84874829.3710
  81338484.0140
  21428294.560    21428292.860    21428296.640   112606450.1960   87745281.4770
  84089247.7770
  24472850.780    24472848.360                   128605691.6380  100212214.7120

  22828457.580    22828455.280                   119964370.6450   93478726.3820

  23163587.580    23163588.580    23163587.900   121725495.6140   94851052.6570
  90899170.9610
 23  3  1  2 23 30.0000000  0  9G03G04G06G07G09G11G19G20G30
  25119932.280    25119933.020    25119933.700   132006350.6160  102862214.7160
  98576569.8650
  22965839.200    22965837.980    22965841.640   120686812.3080   94041643.1170
  90123243.5330
  20470765.060    20470765.520    20470766.480   107574614.0630   83824387.5160
  80331725.4360
  21472396.280    21472393.920                   112838306.6330   87926006.6500

  20735713.960    20735713.400    20735713.800   108967117.8270   84909621.7570
  81371826.7170
  21418429.520    21418427.760    21418431.600   112554609.0950   87704885.8220
  84050535.2720
  24491958.440    24491955.880                   128706102.1440  100290456.5250

  22812035.920    22812033.680                   119878074.2790   93411482.4890

  23144809.380    23144810.320    23144809.820   121626816.0660   94774159.5340
  90825481.7220
 23  3  1  2 24  0.0000000  0  9G03G04G06G07G09G11G19G20G30
  25136884.360    25136885.040    25136885.940   132095433.9700  102931630.2990
  98643093.1350
  22982457.660    22982456.460    22982459.920   120774142.8630   94109692.8980
  90188457.9070
  20477453.840    20477454.340    20477455.180   107609763.9450   83851777.0240
  80357973.7120
  21464350.980    21464348.520                   112796027.8180   87893062.1370

  20744269.400    20744268.920    20744269.240   109012076.9830   84944654.8640
  81405400.1150
  21408658.460    21408656.540    21408660.420   112503261.5100   87664874.7190
  84012191.2990
  24511063.940    24511061.400                   128806501.4720  100368689.5700

  22795629.580    22795627.280                   119791857.7150   93344300.7780

  23126066.740    23126067.620    23126067.280   121528323.1880   94697411.8680
  90751931.8950
 23  3  1  2 24 30.0000000  0 10G03G04G05G06G07G09G11G19G20G30
  25153852.900    25153853.620    25153854.620   132184604.2940  103001113.6540
  98709681.3410
  22999095.940    22999094.740    22999098.120   120861577.5380   94177823.8080
  90253750.0280
  25419835.660    25419834.100                   133582138.1821  104089969.7251

  20484250.320    20484250.900    20484251.580   107645479.6830   83879607.4590
  80384644.5480
  21456393.720    21456391.200                   112754212.0550   87860478.4460

  20752884.140    20752883.680    20752883.940   109057347.8310   84979930.8510
  81439206.2680
  21398982.480    21398980.520    21398984.380   112452413.8920   87625253.2070
  83974220.6830
  24530167.640    24530165.020                   128906891.0900  100446915.0450

  22779239.400    22779237.100                   119705726.5330   93277185.6020

  23107360.820    23107361.820    23107361.580   121430023.9240   94620815.0730
  90678526.6490
 23  3  1  2 25  0.0000000  0 10G03G04G05G06G07G09G11G19G20G30
  25170837.780    25170838.660    25170839.620   132273860.6090  103070664.0050
  98776333.7990
  23015753.540    23015752.320    23015755.860   120949114.1830   94246034.1740
  90319118.2940
  25401635.960    25401634.760                   133486501.8390  104015447.9200

  20491154.220    20491154.880    20491155.420   107681759.8700   83907877.7240
  80411736.8850
  21448524.720    21448522.160                   112712860.2500   87828256.2850

  20761557.760    20761557.320    20761557.560   109102928.2010   85015448.0270
  81473243.5670
  21389401.960    21389399.960    21389403.820   112402067.7350   87586022.4400
  83936624.5410
  24549268.660    24549266.080                   129007267.1830  100525129.9920

  22762865.560    22762863.260                   119619681.5340   93210137.5710

  23088692.200    23088693.340    23088693.220   121331920.2890   94544370.7110
  90605267.4730
 23  3  1  2 25 30.0000000  0 10G03G04G05G06G07G09G11G19G20G30
  25187838.800    25187839.780    25187840.640   132363201.3510  103140280.1450
  98843049.2280
  23032430.120    23032428.760    23032432.500   121036749.9470   94314321.7910
  90384560.5910
  25383428.980    25383427.580                   133390821.9760  103940892.2110

  20498165.120    20498165.800    20498166.320   107718602.3720   83936586.1590
  80439249.1330
  21440744.000    21440741.500                   112671972.7080   87796395.8830

  20770289.720    20770289.320    20770289.600   109148815.2210   85051204.1520
  81507509.8520
  21379917.000    21379914.980    21379918.800   112352223.7770   87547182.9950
  83899403.4050
  24568366.480    24568363.520                   129107625.5250  100603331.0930

  22746508.240    22746505.800                   119533723.0610   93143156.9590

  23070061.160    23070062.320    23070062.240   121234013.5420   94468079.7800
  90532155.3470
 23  3  1  2 26  0.0000000  0 10G03G04G05G06G07G09G11G19G20G30
  25204856.580    25204857.680    25204858.520   132452630.2500  103209964.9770
  98909830.4730
  23049125.980    23049124.700    23049128.480   121124487.5520   94382688.7510
  90450078.9240
  25365214.300    25365212.760                   133295103.3740  103866306.3260

  20505283.680    20505284.280    20505284.920   107756010.5620   83965735.3880
  80467183.8030
  21433052.700    21433050.220                   112631554.8400   87764901.4610

  20779080.560    20779080.180    20779080.420   109195011.5230   85087201.2690
  81542007.0880
  21370528.740    21370526.720    21370530.520   112302888.2690   87508739.7490
  83862561.9680
  24587461.080    24587458.060                   129207967.1640  100681519.1640

  22730168.360    22730165.820                   119447856.3440   93076247.8470

  23051468.900    23051470.060    23051470.060   121136310.5120   94391947.5800
  90459195.3330
 23  3  1  2 26 30.0000000  0 10G03G04G05G06G07G09G11G19G20G30
  25221889.700    25221890.980    25221891.800   132542140.4270  103279713.1550
  98976672.5170
  23065839.760    23065838.540    23065842.240   121212319.1340   94451128.9420
  90515667.4420
  25346991.260    25346989.520                   133199340.4500  103791685.9230

  20512508.520    20512509.000    20512509.820   107793977.1980   83995319.7710
  80495535.5080
  21425449.760    21425447.300                   112591601.4460   87733768.9490

  20787928.720    20787928.380    20787928.620   109241509.1730   85123433.2030
  81576729.3570
  21361236.460    21361234.500    21361238.180   112254056.8890   87470689.3270
  83826096.9820
  24606550.720    24606547.660                   129308282.7120  100759686.8960

  22713845.040    22713842.420                   119362076.8340   93009406.6830

  23032914.660    23032915.780    23032915.720   121038807.3960   94315971.1550
  90386384.5960
 23  3  1  2 27  0.0000000  0 10G03G04G05G06G07G09G11G19G20G30
  25238939.280    25238940.600    25238941.420   132631736.2810  103349528.0910
  99043578.5230
  23082571.980    23082570.820    23082574.440   121300247.7750   94519644.7550
  90581328.4340
  25328760.740    25328759.080                   133103538.4420  103717035.0340

  20519840.340    20519840.720    20519841.720   107832506.0090   84025342.2090
  80524307.0050
  21417936.340    21417933.900                   112552118.2840   87703002.8660

  20796834.840    20796834.440    20796834.800   109288311.2250   85159902.3350
  81611678.9460
  21352041.340    21352039.440    21352043.100   112205736.2580   87433036.8990
  83790013.4040
  24625635.520    24625632.680                   129408573.3870  100837835.2390

  22697539.360    22697536.720                   119276390.4820   92942638.1220

  23014399.860    23014400.880    23014400.780   120941511.3630   94240156.0900
  90313728.5080
 23  3  1  2 27 30.0000000  0 10G03G04G05G06G07G09G11G19G20G30
  25256004.880    25256006.420    25256007.160   132721200.8871  103419122.0721
  99110547.8030
  23099322.340    23099321.260    23099324.800   121388271.5110   94588234.6790
  90647060.4410
  25310522.660    25310520.800                   133007697.1200  103642353.5240

  20527278.880    20527279.200    20527280.340   107871595.5980   84055801.6170
  80553497.2730
  21410512.560    21410510.200                   112513106.2830   87672603.9270

  20805798.560    20805798.040    20805798.460   109335415.6660   85196607.0960
  81646854.3440
  21342943.640    21342941.780    21342945.540   112157927.9370   87395783.6680
  83754312.3940
  24644715.040    24644712.220                   129508836.1060  100915961.7930

  22681251.700    22681249.040                   119190798.4590   92875943.0630

  22995924.820    22995925.860    22995925.640   120844424.5720   94164504.0760
  90241228.6610
 23  3  1  2 28  0.0000000  0 10G03G04G05G06G07G09G11G19G20G30
  25273086.160    25273087.820    25273088.600   132810964.0660  103489067.3820
  99177578.7470
  23116090.220    23116089.280    23116092.720   121476387.1210   94656896.1870
  90712861.0610
  25292277.020    25292275.180                   132911816.2810  103567641.2250

  20534823.540    20534823.900    20534825.080   107911243.2120   84086695.8490
  80583104.2450
  21403178.320    21403176.000                   112474564.8230   87642571.6700

  20814819.200    20814818.600    20814819.080   109382819.1070   85233544.8490
  81682253.0210
  21333943.520    21333941.660    21333945.440   112110632.1100   87358929.7820
  83718994.0880
  24663788.400    24663785.700                   129609066.0780  100994062.8020

  22664981.940    22664979.220                   119105300.3400   92809321.1630

  22977489.700    22977490.780    22977490.540   120747547.7830   94089015.7000
  90168885.6400
 23  3  1  2 28 30.0000000  0 10G03G04G05G06G07G09G11G19G20G30
  25290183.340    25290185.220    25290185.740
  99244671.7730
  23132875.400    23132874.580    23132877.920   121564594.0450   94725628.8720
  90778729.8690
  25274024.240    25274022.360                   132815897.4770  103492899.3410

  20542474.420    20542474.820    20542475.980   107951448.8760   84118024.9260
  80613127.9380
  21395934.140    21395931.800                   112436496.5100   87612908.0660

  20823896.620    20823895.940    20823896.420   109430520.9400   85270715.1150
  81717874.5160
  21325041.460    21325039.620    21325043.400   112063851.7140   87322477.5350
  83684060.6690
  24682854.980    24682852.500                   129709260.9440  101072136.5130

  22648730.460    22648727.720                   119019898.3490   92742774.1710

  22959095.240    22959096.360    22959096.240   120650884.5090   94013693.6970
  90096702.0550
 23  3  1  2 29  0.0000000  0 10G03G04G05G06G07G09G11G19G20G30
  25307296.060    25307297.740    25307298.240   132990737.1081  103629152.0271
  99311825.5320
  23149677.500    23149676.760    23149680.020   121652889.3920   94794430.4370
  90844664.7050
  25255764.020    25255762.260                   132719939.6020  103418127.0260

  20550231.040    20550231.480    20550232.600   107992210.1550   84149786.9470
  80643566.5490
  21388779.880    21388777.460                   112398900.7860   87583612.7190

  20833030.260    20833029.520    20833029.920   109478518.1980   85308115.5840
  81753716.6300
  21316237.620    21316235.680    21316239.600   112017587.2800   87286427.3310
  83649512.5630
  24701914.060    24701911.760                   129809416.5340  101150179.5280

  22632497.300    22632494.640                   118934592.6310   92676302.2030

  22940741.660    22940742.680    22940742.800   120554435.9160   93938538.9730
  90024678.7910
 23  3  1  2 29 30.0000000  0 10G03G04G05G06G07G09G11G19G20G30
  25324424.800    25324426.280    25324426.640   133080748.4480  103699290.7360
  99379041.7930
  23166496.680    23166495.940    23166499.220   121741274.4960   94863301.9360
  90910666.5640
  25237497.160    25237495.320                   132623946.4320  103343327.1940

  20558093.780    20558094.240    20558095.320   108033528.8570   84181983.3320
  80674421.4140
  21381716.340    21381713.880                   112361781.6590   87554688.7440

  20842220.280    20842219.600    20842219.800   109526812.1160   85345747.2120
  81789780.2740
  21307532.900    21307530.860    21307534.840   111971843.5470   87250782.8610
  83615353.2820
  24720965.780    24720963.180                   129909532.3640  101228191.5790

  22616283.320    22616280.740                   118849387.5540   92609908.6560

  22922430.000    22922430.880    22922431.260   120458207.3590   93863555.7070
  89952819.8490
 23  3  1  2 30  0.0000000  0 10G03G04G05G06G07G09G11G19G20G30
  25341568.760    25341570.100    25341570.420   133170840.2560  103769492.1200
  99446318.1150
  23183332.080    23183331.400    23183334.660   121829744.9910   94932239.9850
  90976732.2150
  25219223.200    25219221.420                   132527916.2970  103268498.5400

  20566061.860    20566062.340    20566063.380   108075401.0500   84214611.0070
  80705689.6050
  21374743.100    21374740.640                   112325137.1220   87526134.5840

  20851465.920    20851465.300    20851465.340   109575398.2480   85383606.5400
  81826062.1380
  21298927.060    21298925.020    21298928.940   111926619.5680   87215543.4100
  83581582.1390
  24740008.680    24740006.240                   130009602.5480  101306168.0860

  22600088.180    22600085.780                   118764281.9450   92543592.6210

  22904160.100    22904160.920    22904161.340   120362198.5180   93788743.6500
  89881124.9760
 23  3  1  2 30 30.0000000  0 10G03G04G05G06G07G09G11G19G20G30
  25358728.340    25358729.620    25358729.900   133261014.3790  103839757.6720
  99513655.9480
  23200183.920    23200183.200    23200186.640   121918301.8900   95001245.3560
  91042862.3510
  25200942.760    25200940.740                   132431851.8390  103193643.1450

  20574135.480    20574136.000    20574137.080   108117828.0810   84247671.0230
  80737372.1120
  21367860.900    21367858.460                   112288971.0430   87497953.2440

  20860767.280    20860766.740    20860766.720   109624277.3960   85421694.1850
  81862562.7900
  21290421.000    21290418.900    21290422.880   111881919.6420   87180712.2950
  83548202.3220
  24759042.940    24759040.460                   130109626.7730  101384108.7370

  22583912.640    22583910.300                   118679279.2550   92477356.7750

  22885933.060    22885933.760    22885934.140   120266414.3740   93714106.6810
  89809597.8730
 23  3  1  2 31  0.0000000  0 10G03G04G05G06G07G09G11G19G20G30
  25375903.140    25375904.440    25375904.780   133351269.1110  103910086.0160
  99581053.9190
  23217051.660    23217050.880    23217054.520   122006942.3100   95070315.8150
  91109054.8760
  25182655.600    25182653.820                   132335752.2830  103118760.3780

  20582314.200    20582314.780    20582315.800   108160807.4500   84281161.4280
  80769467.0840
  21361069.740    21361067.280                   112253283.2900   87470144.6220

  20870123.800    20870123.300    20870123.260   109673446.6370   85460007.8860
  81899280.0860
  21282014.700    21282012.580    21282016.620   111837744.2800   87146289.9380
  83515214.2370
  24778067.480    24778064.940                   130209600.5250  101462010.0260

  22567756.740    22567754.460                   118594379.8060   92411201.3830

  22867748.920    22867749.640    22867749.880   120170856.0290   93639645.6620
  89738239.3940
 23  3  1  2 31 30.0000000  0 10G03G04G05G06G07G09G11G19G20G30
  25393093.000    25393094.280    25393094.800   133441602.6950  103980475.8140
  99648510.7970
  23233934.820    23233934.020    23233937.720   122095663.5150   95139449.2260
  91175307.7280
  25164361.620    25164360.180                   132239617.5050  103043850.2470

  20590597.560    20590598.140    20590599.060   108204336.7720   84315080.3680
  80801972.7320
  21354369.500    21354367.000                   112218073.2180   87442708.2230

  20879534.960    20879534.500    20879534.440   109722903.0710   85498545.3670
  81936211.8410
  21273708.300    21273706.240    21273710.100   111794094.0190   87112276.7540
  83482618.2680
  24797081.820    24797079.560                   130309519.5780  101539868.7170

  22551620.600    22551618.280                   118509583.8180   92345126.6030

  22849608.060    22849608.660    22849608.860   120075524.7480   93565361.5800
  89667050.4830
 23  3  1  2 32  0.0000000  0 10G03G04G05G06G07G09G11G19G20G30
  25410298.380    25410299.620    25410300.180   133532017.2750  104050928.7210
  99716028.1820
  23250833.520    23250832.780    23250836.460   122184466.7170   95208646.5240
  91241621.8100
  25146061.700    25146060.180                   132143451.1710  102968915.4510

  20598985.860    20598986.420    20598987.220   108248417.5330   84349428.9970
  80834890.1680
  21347760.900    21347758.440                   112183344.7300   87415647.0820

  20889000.960    20889000.520    20889000.480   109772647.7700   85537307.4700
  81973358.8550
  21265502.700    21265500.640    21265504.460   111750973.3520   87078676.2410
  83450417.7730
  24816085.620    24816083.160                   130409383.5360  101617684.4160

  22535504.940    22535502.600                   118424895.4740   92279135.7080

  22831511.360    22831511.800    22831512.140   119980425.6980   93491258.4520
  89596034.9880
 23  3  1  2 32 30.0000000  0 10G03G04G05G06G07G09G11G19G20G30
  25427518.760    25427520.080    25427520.640   133622510.9860  104121443.2940
  99783604.6380
  23267747.120    23267746.560    23267750.200   122273349.0050   95277905.4370
  91307994.9310
  25127755.420    25127753.900                   132047251.4590  102893954.6740

  20607478.580    20607479.120    20607479.820   108293047.1020   84384205.2670
  80868217.4180
  21341243.880    21341241.480                   112149097.6800   87388961.0890

  20898521.320    20898520.880    20898520.960   109822677.6840   85576291.8180
  82010718.8530
  21257397.940    21257395.880    21257399.840   111708382.6560   87045488.6890
  83418613.0420
  24835077.960    24835075.620                   130509187.4750  101695453.3690

  22519409.780    22519407.380                   118340314.8030   92213228.7170

  22813458.960    22813459.300    22813459.760   119885559.9090   93417337.0810
  89525193.6710
 23  3  1  2 33  0.0000000  0 10G03G04G05G06G07G09G11G19G20G30
  25444754.280    25444755.640    25444756.160   133713084.0810  104192019.7220
  99851240.3910
  23284675.740    23284675.060    23284678.780   122362309.6400   95347225.4010
  91374426.5800
  25109443.440    25109441.700                   131951020.9730  102818969.8780

  20616075.660    20616076.140    20616076.860   108338224.9910   84419408.8010
  80901954.1460
  21334818.740    21334816.280                   112115333.3070   87362651.2050

  20908095.820    20908095.340    20908095.580   109872991.9630   85615497.7520
  82048291.2140
  21249394.580    21249392.560    21249396.420   111666324.4340   87012716.0550
  83387205.9380
  24854058.640    24854056.100                   130608929.6950  101773174.1890

  22503335.560    22503332.980                   118255844.0730   92147407.3770

  22795451.620    22795451.780    22795452.460   119790930.6380   93343600.0090
  89454528.9870
 23  3  1  2 33 30.0000000  0 10G03G04G05G06G07G09G11G19G20G30
  25462004.660    25462005.900    25462006.500   133803734.9410  104262656.7410
  99918934.2010
  23301618.740    23301617.840    23301621.560   122451346.0870   95416604.4520
  91440914.8160
  25091125.480    25091123.400                   131854759.2830  102743960.8160

  20624776.640    20624777.040    20624777.820   108383948.8340   84455037.7630
  80936098.5640
  21328485.520    21328482.920                   112082051.9950   87336717.7290

  20917723.900    20917723.400    20917723.700   109923587.8650   85654923.1340
  82086073.8700
  21241492.620    21241490.660    21241494.340   111624799.3120   86980358.8230
  83356196.9160
  24873026.740    24873024.220                   130708605.8760  101850843.5770

  22487282.300    22487279.500                   118171483.4650   92081671.8500

  22777489.560    22777489.600    22777490.400   119696539.2440   93270048.2940
  89384041.9310
 23  3  1  2 34  0.0000000  0 10G03G04G05G06G07G09G11G19G20G30
  25479269.920    25479271.120    25479271.740   133894464.3290  104333354.9620
  99986686.6450
  23318576.200    23318574.980    23318578.740   122540458.1040   95486042.3870
  91507459.4980
  25072801.840    25072799.920                   131758467.8500  102668928.5300

  20633581.520    20633581.880    20633582.660   108430218.6280   84491092.1380
  80970650.6650
  21322244.580    21322241.900                   112049255.6690   87311162.1700

  20927405.540    20927404.960    20927405.400   109974465.0240   85694567.6760
  82124066.5560
  21233692.620    21233690.660    21233694.440   111583810.2400   86948419.2990
  83325588.2080
  24891981.860    24891979.440                   130808214.2900  101928460.0870

  22471250.520    22471247.500                   118087235.7190   92016024.2700

  22759573.400    22759573.440    22759574.380   119602389.4320   93196684.8290
  89313735.2830
 23  3  1  2 34 30.0000000  0 10G03G04G05G06G07G09G11G19G20G30
  25496550.040    25496551.260    25496551.940   133985272.4220  104404114.5040
 100054497.8560
  23335547.840    23335546.560    23335550.420   122629644.9180   95555538.6000
  91574060.0360
  25054472.760    25054470.920                   131662147.9500  102593874.0730

  20642490.120    20642490.540    20642491.300   108477033.7260   84527571.4230
  81005609.9760
  21316096.220    21316093.500                   112016945.8340   87285985.6930

  20937140.540    20937139.900    20937140.380   110025622.4710   85734430.6280
  82162268.5540
  21225995.140    21225993.140    21225997.020   111543359.6710   86916899.3640
  83295381.6130
  24910923.600    24910921.380                   130907752.7710  102006022.1490

  22455240.680    22455237.520                   118003103.2160   91950466.4920

  22741703.780    22741703.800    22741705.000   119508484.3180   93123512.0350
  89243611.3690
