     2.11           OBSERVATION DATA    M (MIXED)           RINEX VERSION / TYPE
Mdb2Rinex 4.97.35L  Unknown             20230402 185105 UTC PGM / RUN BY / DATE
gfzrnx-1.15-8044    HEADER EDIT         20220618 023513 UTC COMMENT
SNR is mapped to RINEX snr flag value [1-9]                 COMMENT
LX:     < 12dBHz -> 1; 12-17dBHz -> 2; 18-23dBHz -> 3       COMMENT
       24-29dBHz -> 4; 30-35dBHz -> 5; 36-41dBHz -> 6       COMMENT
       42-47dBHz -> 7; 48-53dBHz -> 8; >= 54dBHz -> 9       COMMENT
Map of observations from RINEX 3 to RINEX 2.11              COMMENT
 G: C1C->C1 C2W->P2 C5Q->C5 L1C->L1 L2W->L2 L5Q->L5         COMMENT
PENI                                                        MARKER NAME
IGN-E               Unknown                                 OBSERVER / AGENCY
1830119             LEICA GR25          3.11/6.713          REC # / TYPE / VERS
725137              LEIAR25.R4      LEIT                    ANT # / TYPE
  4864338.0680    30472.4770  4111614.2080                  APPROX POSITION XYZ
        0.0776        0.0000        0.0000                  ANTENNA: DELTA H/E/N
     6    C1    P2    C5    L1    L2    L5                  # / TYPES OF OBSERV
    30.000                                                  INTERVAL
  2022    06    17    00    00   00.0000000     GPS         TIME OF FIRST OBS
  2022    06    17    23    59   30.0000000     GPS         TIME OF LAST OBS
    31                                                      # OF SATELLITES
   G01   864   863   864   863   863   864                  PRN / # OF OBS
   G02  1118  1117        1117  1116                        PRN / # OF OBS
   G03   868   868   868   868   868   868                  PRN / # OF OBS
   G04   863   858   860   861   857   860                  PRN / # OF OBS
   G05  1026  1026        1024  1024                        PRN / # OF OBS
   G06  1026  1023  1025  1023  1023  1025                  PRN / # OF OBS
   G07  1022  1021        1019  1019                        PRN / # OF OBS
   G08   802   802   802   801   801   802                  PRN / # OF OBS
   G09   827   827   827   827   827   827                  PRN / # OF OBS
   G10  1080  1080  1077  1080  1080  1077                  PRN / # OF OBS
   G11  1077  1076  1077  1076  1076  1077                  PRN / # OF OBS
   G12   851   850         850   850                        PRN / # OF OBS
   G13   875   873         874   873                        PRN / # OF OBS
   G14  1083  1081  1081  1081  1081  1081                  PRN / # OF OBS
   G15   874   872         871   870                        PRN / # OF OBS
   G16   938   930         935   930                        PRN / # OF OBS
   G17  1099  1098        1098  1098                        PRN / # OF OBS
   G18  1015  1011  1015  1012  1010  1015                  PRN / # OF OBS
   G19  1096  1096        1096  1096                        PRN / # OF OBS
   G20   989   984         989   984                        PRN / # OF OBS
   G21   928   927         926   925                        PRN / # OF OBS
   G22  1129  1127        1128  1126                        PRN / # OF OBS
   G23  1128  1126  1128  1128  1126  1128                  PRN / # OF OBS
   G24   877   877   877   877   877   877                  PRN / # OF OBS
   G25   889   889   889   888   888   889                  PRN / # OF OBS
   G26   795   794   795   793   793   795                  PRN / # OF OBS
   G27   860   859   859   859   858   859                  PRN / # OF OBS
   G29   807   807         807   807                        PRN / # OF OBS
   G30   786   785   786   784   784   786                  PRN / # OF OBS
   G31  1028  1028        1026  1026                        PRN / # OF OBS
   G32  1106  1105  1105  1105  1105  1105                  PRN / # OF OBS
                                                            END OF HEADER
 22  6 17  0  0  0.0000000  0  9G05G07G13G14G15G18G20G24G30
  20949060.820    20949056.240                   110088125.8530   85782971.4480

  25082137.040    25082133.460                   131807770.1150  102707459.2060

  20244363.360    20244358.060                   106384961.8610   82897433.6560

  21312989.640    21312985.720    21312989.920   112000667.7760   87273309.6320
  83636954.2360
  21598177.720    21598173.800                   113499275.0090   88441015.3250

  24417069.800    24417067.740    24417073.260   128312571.4950   99983806.2750
  95817854.4050
  22344684.180    22344680.360                   117422160.7340   91497816.4780

  23748209.220    23748210.820    23748211.820   124797695.7130   97244953.3270
  93193108.6780
  22774464.140    22774462.280    22774463.300   119680843.1050   93257909.4430
  89372184.5410
 22  6 17  0  0 30.0000000  0  9G05G07G13G14G15G18G20G24G30
  20959060.300    20959055.600                   110140672.9050   85823917.1880

  25098410.840    25098407.240                   131893291.0930  102774098.9170

  20241632.140    20241626.980                   106370609.6150   82886250.1070

  21315029.280    21315025.300    21315029.520   112011386.0040   87281661.5100
  83644958.1290
  21583860.420    21583856.520                   113424037.2500   88382388.5430

  24421764.100    24421762.400    24421768.000   128337241.5060  100003029.6560
  95836276.8000
  22363909.340    22363905.520                   117523189.3190   91576539.9630

  23730257.580    23730259.020    23730260.260   124703360.6060   97171445.6360
  93122663.8390
  22789457.340    22789455.440    22789456.680   119759632.8870   93319304.0640
  89431021.0510
 22  6 17  0  1  0.0000000  0 10G05G07G13G14G15G18G20G23G24G30
  20969161.540    20969156.920                   110193755.0450   85865279.8870

  25114681.860    25114678.540                   131978795.5940  102840725.7060

  20238960.060    20238955.080                   106356568.5650   82875309.0510

  21317181.560    21317177.600    21317181.940   112022696.9090   87290475.2240
  83653404.6010
  21569589.480    21569585.580                   113349042.7890   88323951.3550

  24426552.000    24426550.500    24426556.120   128362402.7870  100022635.7710
  95855065.9820
  22383183.460    22383179.960                   117624475.5350   91655464.1910

  25346772.320    25346770.820    25346775.360   133198184.9911  103790791.5151
  99466187.7731
  23712337.880    23712339.100    23712340.420   124609191.9680   97098067.6540
  93052343.3110
  22804474.920    22804472.940    22804474.180   119838550.7420   93380798.4940
  89489953.2040
 22  6 17  0  1 30.0000000  0 11G05G07G13G14G15G17G18G20G23G24G30
  20979362.600    20979358.140                   110247362.6340   85907052.0240

  25130948.320    25130945.020                   132064275.6640  102907333.4920

  20236346.040    20236340.960                   106342831.4900   82864604.8570

  21319445.240    21319441.240    21319445.600   112034592.2990   87299744.3800
  83662287.5600
  21555363.700    21555359.740                   113274285.6920   88265699.1170

  25250329.200    25250327.920                   132691379.8111  103395878.7671

  24431431.700    24431430.640    24431435.580   128388045.8330  100042617.3330
  95874215.0060
  22402504.700    22402501.340                   117726008.6610   91734580.8240

  25326912.740    25326910.200    25326915.220   133093819.0720  103709467.5090
  99388252.3450
  23694448.620    23694449.660    23694450.900   124515183.0090   97024814.0900
  92982142.0200
  22819515.220    22819513.260    22819514.440   119917587.7340   93442385.7570
  89548974.3320
 22  6 17  0  2  0.0000000  0 10G05G07G13G14G15G18G20G23G24G30
  20989664.180    20989659.920                   110301498.9400   85949236.1380

  25147210.820    25147207.320                   132149735.0660  102973925.2170

  20233790.900    20233785.700                   106329403.8730   82854141.8000

  21321820.940    21321816.800    21321821.140   112047076.0870   87309472.0220
  83671609.8830
  21541184.080    21541180.260                   113199772.3220   88207636.8000

  24436403.960    24436402.380    24436407.400   128414173.4890  100062976.5120
  95893725.8660
  22421873.280    22421869.820                   117827790.3400   91813891.1560

  25307084.320    25307081.960    25307086.980   132989620.2140  103628273.6960
  99310441.6050
  23676590.540    23676591.740    23676592.640   124421338.8830   96951688.9870
  92912063.8080
  22834578.640    22834576.940    22834577.800   119996746.9320   93504068.2360
  89608086.7120
 22  6 17  0  2 30.0000000  0 11G05G07G13G14G15G17G18G20G23G24G30
  21000066.600    21000062.220                   110356163.3980   85991831.8160

  25163469.620    25163466.020                   132235174.5280  103040501.3580

  20231294.980    20231289.700                   106316287.5750   82843921.3280

  21324308.800    21324304.400    21324308.840   112060149.2340   87319658.9060
  83681372.3060
  21527051.560    21527047.740                   113125506.2080   88149767.1380

  25222273.040    25222270.340                   132543933.9401  103280993.4131

  24441467.800    24441466.620    24441471.520   128440785.4400  100083713.0840
  95913598.3780
  22441288.900    22441285.200                   117929819.1260   91893394.0550

  25287288.020    25287286.180    25287291.240   132885592.5300  103547213.2590
  99232758.6770
  23658764.040    23658765.300    23658766.200   124327661.8350   96878694.0370
  92842110.3570
  22849665.540    22849663.700    22849664.560   120076028.5090   93565846.0860
  89667290.4760
 22  6 17  0  3  0.0000000  0 11G05G07G13G14G15G17G18G20G23G24G30
  21010568.460    21010563.940                   110411350.2170   86034834.5200

  25179723.960    25179720.140                   132320589.6350  103107058.5210

  20228857.780    20228852.580                   106303480.3160   82833941.6540

  21326907.760    21326903.440    21326907.940   112073807.4890   87330301.7140
  83691571.6720
  21512965.540    21512961.840                   113051484.5720   88092087.9800

  25208245.520    25208244.220                   132470223.0760  103223556.6690

  24446622.380    24446622.100    24446626.620   128467876.3280  100104822.7880
  95933828.5040
  22460750.060    22460746.360                   118032088.4440   91973084.3710

  25267524.320    25267522.700    25267528.040   132781734.9810  103466285.3580
  99155202.8110
  23640968.840    23640970.180    23640970.960   124234148.9650   96805827.0150
  92772279.5020
  22864774.700    22864772.800    22864773.700   120155427.5440   93627715.4520
  89726581.9530
 22  6 17  0  3 30.0000000  0 11G05G07G13G14G15G17G18G20G23G24G30
  21021169.820    21021165.100                   110467060.0120   86078244.7480

  25195973.780    25195969.880                   132405982.4010  103173598.4240

  20226479.840    20226474.760                   106290984.6400   82824204.7820

  21329618.280    21329614.220    21329618.620   112088052.3950   87341401.6720
  83702209.1310
  21498927.020    21498923.400                   112977711.7540   88034602.7160

  25194219.600    25194219.500                   132396520.7540  103166126.4660

  24451869.160    24451868.680    24451873.360   128495446.4880  100126305.9930
  95954416.5720
  22480256.720    22480253.300                   118134597.7530   92052961.6910

  25247794.040    25247792.540    25247797.640   132678052.3560  103385493.8110
  99077777.5590
  23623205.500    23623206.960    23623207.980   124140803.2710   96733090.2510
  92702573.4660
  22879906.340    22879904.480    22879905.260   120234944.8510   93689676.9880
  89785961.7550
 22  6 17  0  4  0.0000000  0 11G05G07G13G14G15G17G18G20G23G24G30
  21031870.140    21031865.440                   110523290.5290   86122060.7200

  25212218.740    25212214.860                   132491350.6650  103240119.1070

  20224161.280    20224156.260                   106278800.5090   82814710.6680

  21332440.260    21332436.400    21332440.540   112102882.5460   87352957.6480
  83713283.6200
  21484936.140    21484932.540                   112904188.7440   87977312.0960

  25180196.820    25180195.860                   132322830.3820  103108705.7110

  24457206.420    24457205.500    24457210.520   128523493.2820  100148160.6130
  95975360.5810
  22499808.480    22499805.300                   118237343.3450   92133023.1300

  25228097.300    25228095.260    25228100.740   132574546.3870  103304839.8640
  99000484.2090
  23605474.200    23605475.320    23605476.900   124047624.7310   96660483.7730
  92632992.3050
  22895060.020    22895058.240    22895059.120   120314578.3080   93751729.0140
  89845428.2900
 22  6 17  0  4 30.0000000  0 11G05G07G13G14G15G17G18G20G23G24G30
  21042669.840    21042665.280                   110580043.7030   86166283.9520

  25228459.420    25228455.580                   132576698.1560  103306623.6370

  20221903.040    20221897.900                   106266932.7290   82805463.0640

  21335374.420    21335370.580    21335374.560   112118301.2930   87364972.2660
  83724797.6250
  21470993.820    21470990.240                   112830921.4610   87920220.7550

  25166177.160    25166177.020                   132249158.4770  103051299.2620

  24462634.660    24462633.660    24462638.560   128552018.9410  100170388.3630
  95996662.1720
  22519405.620    22519402.340                   118340326.2910   92213269.5500

  25208435.300    25208433.940    25208438.780   132471223.7870  103224328.8150
  98923327.8220
  23587775.600    23587776.500    23587778.300   123954618.0130   96588011.1470
  92563539.3820
  22910236.400    22910234.500    22910235.400   120394330.6950   93813873.7140
  89904983.6120
 22  6 17  0  5  0.0000000  0 11G05G07G13G14G15G17G18G20G23G24G30
  21053567.000    21053562.540                   110637309.4010   86210906.5660

  25244694.500    25244691.200                   132662016.0080  103373105.0390

  20219703.520    20219698.320                   106255374.1500   82796456.3990

  21338419.020    21338414.960    21338419.160   112134300.2300   87377438.9810
  83736744.8950
  21457099.000    21457095.340                   112757903.6970   87863323.8480

  25152160.300    25152158.400                   132175499.5060  102993902.8810

  24468152.560    24468151.380    24468156.460   128581013.8650  100192981.7730
  96018314.1690
  22539045.820    22539042.280                   118443535.7470   92293692.4710

  25188807.680    25188805.740    25188810.880   132368079.5400  103143956.7360
  98846304.5520
  23570108.660    23570109.300    23570110.820   123861776.2350   96515667.0640
  92494209.6650
  22925433.740    22925431.660    22925432.720   120474192.9110   93876104.0130
  89964620.9790
 22  6 17  0  5 30.0000000  0 11G05G07G13G14G15G17G18G20G23G24G30
  21064562.580    21064558.300                   110695092.2600   86255932.1540

  25260925.340    25260922.600                   132747310.3180  103439568.1560

  20217564.140    20217558.940                   106244131.8660   82787696.1820

  21341574.960    21341570.780    21341575.220   112150884.8380   87390362.0640
  83749129.5230
  21443253.360    21443249.400                   112685143.4930   87806627.6170

  25138147.380    25138146.880                   132101862.9430  102936523.7980

  24473760.780    24473759.080    24473764.200   128610482.4330  100215944.2260
  96040319.8290
  22558729.780    22558726.300                   118546975.3340   92374294.6990

  25169215.700    25169213.500    25169218.640   132265122.3680  103063730.4500
  98769421.0420
  23552473.940    23552474.440    23552476.060   123769106.2270   96443456.8120
  92425008.2090
  22940652.680    22940650.800    22940651.940   120554169.9290   93938423.7450
  90024344.0470
 22  6 17  0  6  0.0000000  0 11G05G07G13G14G15G17G18G20G23G24G30
  21075655.840    21075651.540                   110753387.2860   86301356.8250

  25277151.300    25277148.220                   132832577.1600  103506009.8570

  20215484.500    20215479.280                   106233203.4600   82779180.5450

  21344841.460    21344837.340    21344841.920   112168051.2050   87403738.4710
  83761948.5890
  21429456.200    21429452.240                   112612639.2980   87750130.8830

  25124139.360    25124138.180                   132028248.4100  102879161.9880

  24479457.160    24479456.040    24479461.300   128640419.5130  100239271.7660
  96062675.3760
  22578456.340    22578452.980                   118650638.8100   92455071.3680

  25149658.760    25149656.920    25149661.740   132162351.7180  102983649.4500
  98692676.7800
  23534871.120    23534872.200    23534873.680   123676605.5060   96371378.4550
  92355933.1580
  22955892.740    22955891.020    22955892.000   120634257.2110   94000829.4070
  90084149.4750
 22  6 17  0  6 30.0000000  0 11G05G07G13G14G15G17G18G20G23G24G30
  21086846.220    21086841.840                   110812192.8070   86347179.2920

  25293372.100    25293368.580                   132917816.1660  103572429.8560

  20213464.840    20213459.560                   106222590.0410   82770910.3670

  21348218.700    21348214.580    21348219.180   112185799.0210   87417567.9410
  83775201.8390
  21415708.220    21415704.260                   112540393.5040   87693835.5020

  25110135.380    25110134.360                   131954659.5570  102821820.1700

  24485242.740    24485242.000    24485247.260   128670823.6380  100262963.2490
  96085379.7240
  22598225.040    22598221.640                   118754523.8320   92536020.7060

  25130137.780    25130136.680    25130141.060   132059770.5640  102903716.1900
  98616074.0880
  23517301.220    23517302.400    23517303.780   123584275.3820   96299433.0390
  92286985.4770
  22971153.620    22971151.780    22971153.040   120714453.9450   94063320.3520
  90144036.6310
 22  6 17  0  7  0.0000000  0 11G05G07G13G14G15G17G18G20G23G24G30
  21098134.040    21098129.480                   110871509.7210   86393400.2620

  25309587.400    25309583.620                   133003029.3350  103638829.7020

  20211505.740    20211500.440                   106212294.9870   82762888.2620

  21351707.060    21351703.020    21351707.420   112204130.1950   87431852.0000
  83788890.7190
  21402010.300    21402006.320                   112468410.6010   87637744.9710

  25096137.940    25096137.080                   131881101.4440  102764502.3670

  24491117.920    24491117.120    24491122.000   128701695.6860  100287019.3510
  96108433.4520
  22618035.720    22618032.380                   118858630.0240   92617142.3680

  25110654.380    25110653.220    25110657.520   131957384.3640  102823934.7770
  98539616.9410
  23499764.480    23499765.640    23499767.040   123492119.1960   96227623.1710
  92218167.7170
  22986435.780    22986433.820    22986435.120   120794761.5990   94125897.7360
  90204006.6170
 22  6 17  0  7 30.0000000  0 11G05G07G13G14G15G17G18G20G23G24G30
  21109518.280    21109513.700                   110931334.2380   86440016.7500

  25325797.620    25325793.940                   133088214.5220  103705207.7510

  20209607.100    20209601.800                   106202317.4700   82755113.5810

  21355305.840    21355301.900    21355306.080   112223042.0800   87446588.5290
  83803013.2260
  21388362.340    21388358.360                   112396690.2710   87581859.0310

  25082146.080    25082145.100                   131807574.6460  102707208.9260

  24497080.980    24497080.220    24497085.120   128733031.6970  100311436.9730
  96131833.6880
  22637887.680    22637884.340                   118962952.7200   92698432.7210

  25091208.180    25091207.140    25091211.360   131855193.8380  102744305.8530
  98463305.8930
  23482260.680    23482261.360    23482263.040   123400135.7860   96155947.9030
  92149478.9630
  23001738.380    23001736.400    23001737.700   120875176.9820   94188559.0570
  90264057.0410
 22  6 17  0  8  0.0000000  0 11G05G07G13G14G15G17G18G20G23G24G30
  21120998.240    21120993.860                   110991662.3180   86487025.6340

  25342002.140    25341998.400                   133173369.2390  103771562.1350

  20207768.640    20207763.360                   106192656.1290   82747585.2760

  21359014.700    21359010.680    21359014.840   112242531.9840   87461775.4920
  83817567.3970
  21374764.400    21374760.300                   112325232.4930   87526177.6900

  25068160.400    25068158.840                   131734081.4770  102649941.7940

  24503131.420    24503130.520    24503135.920   128764828.0030  100336213.2540
  96155577.6040
  22657780.060    22657776.580                   119067487.0940   92779888.0310

  25071799.100    25071798.800    25071802.720   131753199.8640  102664830.0530
  98387141.6400
  23464789.420    23464789.900    23464791.560   123308324.0340   96084406.4010
  92080918.3790
  23017060.920    23017058.860    23017060.160   120955697.0340   94251301.9530
  90324185.6340
 22  6 17  0  8 30.0000000  0 11G05G07G13G14G15G17G18G20G23G24G30
  21132574.160    21132569.840                   111052494.5430   86534427.3490

  25358201.180    25358197.380                   133258495.0970  103837894.0500

  20205990.840    20205985.580                   106183313.7720   82740305.5270

  21362833.760    21362829.760    21362833.940   112262601.3540   87477413.9560
  83832554.2720
  21361217.080    21361212.980                   112254041.2790   87470704.0500

  25054182.360    25054181.740                   131660626.0740  102592704.0220

  24509269.800    24509268.680    24509274.420   128797084.7850  100361348.3660
  96179665.4280
  22677712.540    22677709.000                   119172232.4130   92861507.7050

  25052428.540    25052428.520    25052432.100   131651407.2390  102585511.1860
  98311127.7100
  23447351.300    23447351.740    23447353.380   123216687.1400   96013001.2320
  92012488.4820
  23032403.520    23032401.680    23032402.660   121036322.7730   94314127.1820
  90384393.1470
 22  6 17  0  9  0.0000000  0 11G05G07G13G14G15G17G18G20G23G24G30
  21144246.400    21144242.080                   111113832.2790   86582222.9710

  25374395.240    25374391.560                   133343595.0100  103904205.6890

  20204274.680    20204269.400                   106174295.3320   82733278.1790

  21366763.620    21366759.620    21366763.840   112283253.0970   87493506.2410
  83847976.0420
  21347721.460    21347717.560                   112183122.1740   87415442.4450

  25040212.260    25040211.720                   131587215.3850  102535501.1260

  24515496.320    24515495.000    24515500.500   128829803.9210  100386843.7630
  96204098.4970
  22697685.320    22697681.860                   119277189.6550   92943292.5030

  25033097.800    25033097.300    25033101.280   131549822.4630  102506354.2590
  98235268.9730
  23429947.160    23429947.700    23429949.100   123125229.2600   95941735.4930
  91944192.1740
  23047766.820    23047765.080    23047765.660   121117056.7080   94377036.7390
  90444681.4830
 22  6 17  0  9 30.0000000  0 11G05G07G13G14G15G17G18G20G23G24G30
  21156012.820    21156008.360                   111175664.6370   86630404.0150

  25390582.080    25390578.980                   133428659.4720  103970489.7490

  20202618.540    20202613.280                   106165592.3860   82726496.6730

  21370802.360    21370798.320    21370802.620   112304477.1020   87510044.4360
  83863825.1490
  21334276.360    21334272.500                   112112468.1990   87360387.4380

  25026250.280    25026249.060                   131513842.7620  102478327.8760

  24521808.280    24521807.200    24521812.560   128862974.0990  100412690.6140
  96228868.3850
  22717696.080    22717692.800                   119382346.8770   93025233.1200

  25013805.420    25013804.800    25013808.840   131448438.9950  102427354.1950
  98159560.6060
  23412575.560    23412576.300    23412577.420   123033942.0500   95870602.7270
  91876023.2910
  23063148.660    23063146.980    23063147.440   121197888.4600   94440022.4940
  90505042.8250
 22  6 17  0 10  0.0000000  0 11G05G07G13G14G15G17G18G20G23G24G30
  21167874.400    21167870.060                   111237998.4460   86678975.7880

  25406763.660    25406761.020                   133513696.8690  104036752.6100

  20201024.180    20201018.920                   106157214.0630   82719968.1200

  21374951.520    21374947.540    21374951.820   112326281.3850   87527034.7900
  83880107.5660
  21320883.740    21320879.900                   112042089.7760   87305547.1330

  25012296.880    25012296.560                   131440520.2480  102421193.6560

  24528207.540    24528206.460    24528211.780   128896602.2370  100438894.2750
  96253980.2180
  22737745.960    22737742.840                   119487709.8780   93107334.0670

  24994553.460    24994552.060    24994556.660   131347268.3270  102348519.9570
  98084011.1510
  23395238.200    23395239.300    23395240.100   122942835.0080   95799610.3740
  91807988.9820
  23078550.680    23078548.800    23078549.360   121278825.5810   94503090.3620
  90565482.8610
 22  6 17  0 10 30.0000000  0 11G05G07G13G14G15G17G18G20G23G24G30
  21179830.360    21179825.860                   111300826.8770   86727932.9950

  25422939.320    25422937.180                   133598702.3960  104102990.6510

  20199490.980    20199485.740                   106149157.2890   82713690.1170

  21379210.180    21379206.240    21379210.440   112348660.9050   87544473.3850
  83896819.5580
  21307543.220    21307539.320                   111971984.6360   87250919.7860

  24998353.060    24998352.100                   131367246.8180  102364097.6430

  24534692.860    24534691.860    24534696.880   128930682.2200  100465450.0660
  96279429.5140
  22757833.640    22757830.580                   119593271.6670   93189589.9290

  24975341.440    24975339.820    24975344.540   131246309.1870  102269850.5680
  98008619.6800
  23377934.860    23377935.780    23377936.580   122851904.9670   95728755.9480
  91740086.8500
  23093971.760    23093969.660    23093970.320   121359862.8730   94566236.2940
  90625997.7180
 22  6 17  0 11  0.0000000  0 11G05G07G13G14G15G17G18G20G23G24G30
  21191879.680    21191875.180                   111364146.5020   86777272.9460

  25439108.980    25439106.360                   133683673.4290  104169201.9260

  20198018.760    20198013.520                   106141420.5400   82707661.4890

  21383577.760    21383573.840    21383578.040   112371612.6240   87562357.8400
  83913958.8330
  21294254.640    21294250.600                   111902152.2460   87196504.9700

  24984419.060    24984417.720                   131294023.0700  102307040.3940

  24541263.300    24541261.960    24541267.060   128965209.9050  100492354.7010
  96305213.0970
  22777958.360    22777954.940                   119699027.2430   93271996.8000

  24956169.960    24956168.180    24956172.760   131145562.1150  102191346.3840
  97933386.5140
  23360665.100    23360665.660    23360666.620   122761150.3810   95658038.2180
  91672315.7350
  23109410.860    23109408.980    23109409.840   121440997.0160   94629457.6890
  90686584.8890
 22  6 17  0 11 30.0000000  0 11G05G07G13G14G15G17G18G20G23G24G30
  21204022.580    21204018.120                   111427957.3920   86826995.6920

  25455272.480    25455269.480                   133768612.1330  104235387.9800

  20196608.120    20196602.860                   106134007.3840   82701885.0120

  21388054.380    21388050.560    21388054.780   112395138.0730   87580689.3700
  83931526.5540
  21281018.840    21281014.580                   111832596.9410   87142306.0570

  24970495.560    24970494.940                   131220853.8720  102250025.5840

  24547918.640    24547917.580    24547922.960   129000185.6530  100519608.4710
  96331331.2970
  22798119.920    22798116.380                   119804976.0130   93354554.1920

  24937039.540    24937038.060    24937042.160   131045032.1960  102113011.4600
  97858315.5410
  23343429.100    23343429.560    23343430.440   122670574.4720   95587459.7120
  91604678.0310
  23124868.600    23124866.800    23124867.940   121522229.3230   94692755.5780
  90747245.3640
 22  6 17  0 12  0.0000000  0 11G05G07G13G14G15G17G18G20G23G24G30
  21216258.800    21216254.180                   111492258.3840   86877100.3370

  25471429.920    25471426.520                   133853518.5110  104301548.8100

  20195259.320    20195253.980                   106126919.1350   82696361.7070

  21392640.180    21392636.360    21392640.600   112419237.1710   87599467.8930
  83949522.6320
  21267836.260    21267831.920                   111763321.5270   87088325.2500

  24956582.440    24956581.020                   131147743.0020  102193056.2340

  24554659.440    24554658.560    24554663.580   129035608.3280  100547210.4860
  96357783.2160
  22818317.960    22818314.200                   119911116.1840   93437260.7330

  24917951.280    24917949.980    24917953.480   130944723.0430  102034848.5040
  97783409.4150
  23326227.060    23326227.680    23326228.480   122580178.8620   95517021.7260
  91537174.9520
  23140344.880    23140343.240    23140344.500   121603559.4860   94756129.7110
  90807978.8850
 22  6 17  0 12 30.0000000  0 11G05G07G13G14G15G17G18G20G23G24G30
  21228587.580    21228582.980                   111557046.5940   86927584.6340

  25487581.060    25487576.920                   133938391.6140  104367683.7900

  20193972.240    20193966.920                   106120156.0200   82691091.7560

  21397334.980    21397331.180    21397335.340   112443908.0730   87618691.9780
  83967945.7140
  21254707.200    21254702.640                   111694327.1340   87034563.4070

  24942681.760    24942679.760                   131074693.7180  102136134.8410

  24561485.100    24561483.780    24561488.900   129071474.9040  100575158.4280
  96384566.6650
  22838551.600    22838547.820                   120017444.0360   93520113.4840

  24898905.420    24898904.260    24898907.440   130844636.5210  101956859.1150
  97708669.5630
  23309059.640    23309060.040    23309061.000   122489963.3120   95446723.9830
  91469806.3470
  23155839.640    23155838.120    23155839.300   121684985.4780   94819578.5340
  90868784.0060
 22  6 17  0 13  0.0000000  0 11G05G07G13G14G15G17G18G20G23G24G30
  21241008.000    21241003.520                   111622316.9600   86978444.6410

  25503724.740    25503720.900                   134023227.7190  104433789.8440

  20192746.620    20192741.280                   106113715.5720   82686073.2310

  21402137.920    21402134.060    21402138.080   112469146.7840   87638358.5140
  83986792.8130
  21241631.060    21241626.720                   111625612.4900   86981019.5660

  24928792.460    24928791.040                   131001705.4240  102079260.9530

  24568393.900    24568392.520    24568398.020   129107780.4440  100603448.4020
  96411677.8980
  22858819.800    22858816.220                   120123953.9120   93603108.0620

  24879902.100    24879900.760    24879903.900   130744772.3940  101879042.9770
  97634095.7950
  23291926.040    23291926.320    23291927.420   122399925.8170   95376564.9940
  91402570.6560
  23171351.920    23171350.460    23171351.440   121766503.1930   94883098.8230
  90929657.6190
 22  6 17  0 13 30.0000000  0 11G05G07G13G14G15G17G18G20G23G24G30
  21253521.160    21253516.680                   111688073.9490   87029683.8390

  25519862.800    25519859.160                   134108033.2610  104499872.1350

  20191583.820    20191578.480                   106107604.9980   82681311.7490

  21407049.800    21407045.900    21407049.880   112494958.7960   87658471.7810
  84006068.0210
  21228609.820    21228605.660                   111557186.3970   86927700.5570

  24914916.700    24914914.800                   130928787.3430  102022441.8350

  24575387.000    24575385.720    24575391.260   129144529.2830  100632083.8460
  96439120.1650
  22879123.400    22879119.980                   120230649.5430   93686247.4120

  24860942.680    24860940.780    24860944.260   130645139.8720  101801407.3490
  97559694.9990
  23274827.700    23274827.660    23274828.860   122310073.4160   95306550.2510
  91335473.2130
  23186882.760    23186881.500    23186882.120   121848118.0410   94946694.7790
  90990603.7380
 22  6 17  0 14  0.0000000  0 11G05G07G13G14G15G17G18G20G23G24G30
  21266125.560    21266121.240                   111754310.7570   87081296.9200

  25535993.940    25535990.500                   134192803.3050  104565926.8440

  20190483.180    20190477.900                   106101820.9780   82676804.7260

  21412069.760    21412065.740    21412069.880   112521338.7110   87679027.5610
  84025767.3160
  21215642.880    21215638.880                   111489045.6870   86874603.9280

  24901053.660    24901051.720                   130855938.1000  101965676.3320

  24582463.440    24582461.820    24582467.020   129181714.9230  100661059.6330
  96466888.6410
  22899460.820    22899457.440                   120337523.0440   93769525.3360

  24842026.700    24842024.560    24842028.400   130545737.3130  101723950.9160
  97485465.9100
  23257764.040    23257763.740    23257765.140   122220402.5620   95236676.9510
  91268511.3320
  23202431.160    23202429.700    23202430.280   121929824.5220   95010362.1470
  91051618.2990
 22  6 17  0 14 30.0000000  0 11G05G07G13G14G15G17G18G20G23G24G30
  21278820.480    21278816.340                   111821023.8370   87133281.1170

  25552117.740    25552114.260                   134277535.5700  104631951.9880

  20189444.460    20189439.180                   106096362.7250   82672551.5440

  21417197.320    21417193.240    21417197.440   112548284.0870   87700023.9530
  84045888.8650
  21202730.500    21202726.500                   111421190.9870   86821730.1630

  24887204.580    24887202.420                   130783159.5920  101908965.9990

  24589621.840    24589620.460    24589625.600   129219333.8270  100690373.0200
  96494980.6290
  22919831.240    22919828.000                   120444570.3790   93852938.7100

  24823154.860    24823152.820    24823156.920   130446566.0600  101646674.6780
  97411409.5840
  23240734.460    23240734.440    23240735.660   122130912.5220   95166944.5720
  91201684.4710
  23217996.300    23217994.920    23217995.560   122011620.1160   95074098.9470
  91112699.3830
 22  6 17  0 15  0.0000000  0 11G05G07G13G14G15G17G18G20G23G24G30
  21291606.580    21291602.580                   111888215.8080   87185638.4790

  25568235.340    25568232.100                   134362235.0420  104697951.4450

  20188468.880    20188463.580                   106091236.1440   82668556.8060

  21422433.220    21422429.140    21422433.300   112575798.6560   87721463.8880
  84066435.4730
  21189873.860    21189869.840                   111353629.0900   86769084.5580

  24873369.980    24873368.100                   130710459.4080  101852316.6870

  24596863.340    24596862.140    24596867.360   129257388.7420  100720026.1680
  96523398.1990
  22940235.200    22940231.920                   120551793.7810   93936489.2820

  24804328.580    24804326.780    24804330.700   130347633.6670  101569584.6220
  97337531.5960
  23223740.320    23223740.440    23223741.820   122041608.9190   95097357.4540
  91134996.8620
  23233579.420    23233577.820    23233578.400   122093508.5120   95137908.0780
  91173849.8060
 22  6 17  0 15 30.0000000  0 11G05G07G13G14G15G17G18G20G23G24G30
  21304483.220    21304479.100                   111955882.5010   87238365.7430

  25584346.160    25584342.580                   134446898.4580  104763922.7600

  20187556.100    20187550.800                   106086439.3390   82664819.0300

  21427776.700    21427772.700    21427776.900   112603878.9750   87743344.6520
  84087404.5320
  21177072.920    21177068.900                   111286359.5780   86716666.7730

  24859550.320    24859548.340                   130637837.8740  101795728.6690

  24604187.160    24604186.020    24604191.020   129295875.0790  100750015.4500
  96552137.9220
  22960671.640    22960668.560                   120659188.1400   94020173.0350

  24785547.980    24785546.300    24785550.420   130248940.5380  101492680.9690
  97263832.3050
  23206781.400    23206781.560    23206783.060   121952490.0600   95027914.2860
  91068447.1760
  23249179.400    23249177.480    23249178.500   122175486.2900   95201786.8400
  91235066.9490
 22  6 17  0 16  0.0000000  0 11G05G07G13G14G15G17G18G20G23G24G30
  21317449.400    21317445.060                   112024019.0680   87291459.1580

  25600449.880    25600446.260                   134531523.4550  104829864.3140

  20186705.700    20186700.440                   106081970.3130   82661336.6740

  21433227.220    21433223.140    21433227.340   112632521.2730   87765663.3380
  84108793.2760
  21164327.560    21164323.480                   111219381.7650   86664476.3000

  24845745.860    24845743.760                   130565295.5460  101739202.4130

  24611592.100    24611591.060    24611596.200   129334788.0970  100780337.2340
  96581196.2800
  22981139.620    22981136.500                   120766747.7090   94103985.5410

  24766812.960    24766810.960    24766815.480   130150486.7860  101415963.8670
  97190311.7600
  23189857.200    23189857.620    23189859.140   121863554.0900   94958613.6280
  91002034.0730
  23264795.600    23264793.660    23264794.640   122257549.7410   95265732.3820
  91296348.0770
 22  6 17  0 16 30.0000000  0 11G05G07G13G14G15G17G18G20G23G24G30
  21330504.160    21330499.720                   112092621.1590   87344915.3060

  25616547.140    25616549.880

  20185917.660    20185912.280                   106077828.4620   82658109.2550

  21438783.980    21438779.980    21438784.160   112661722.6740   87788417.6830
  84130599.5180
  21151637.500    21151633.360                   111152695.3600   86612512.8960

  24831956.620    24831955.160                   130492833.3870  101682738.5570

  24619077.440    24619076.280    24619081.700   129374123.7580  100810988.3730
  96610570.2890
  23001638.220    23001635.140                   120874467.5340   94187922.9000

  24748123.360    24748121.220    24748125.920   130052273.3580  101339434.0100
  97116970.6780
  23172967.700    23172968.160    23172969.540   121774799.9040   94889454.6240
  90935756.6930
  23280427.500    23280425.740    23280426.600   122339695.9850   95329742.4300
  91357691.0240
 22  6 17  0 17  0.0000000  0 11G05G07G13G14G15G17G18G20G23G24G30
  21343648.240    21343643.680                   112161693.3880   87398737.7990

  25632637.040    25632629.860

  20185193.160    20185187.700                   106074020.9050   82655142.3280

  21444448.240    21444444.120    21444448.500   112691488.6060   87811611.9170
  84152827.3300
  21139004.580    21139000.420                   111086309.2750   86560783.5070

  24818184.480    24818182.620                   130420461.1770  101626344.8730

  24626643.960    24626642.860    24626648.400   129413886.5460  100841972.3000
  96640263.2060
  23022168.060    23022164.880                   120982351.8540   94271988.4240

  24729481.120    24729479.260    24729483.880   129954309.5720  101263098.7100
  97043816.0070
  23156114.240    23156114.540    23156116.060   121686234.8890   94820443.0330
  90869620.6450
  23296075.940    23296074.580    23296075.360   122421930.6030   95393821.3060
  91419099.9550
 22  6 17  0 17 30.0000000  0 11G05G07G13G14G15G17G18G20G23G24G30
  21356882.780    21356878.260                   112231241.8400   87452931.3760

  25648719.500    25648715.920                   134784942.8091  105027203.7191

  20184533.920    20184528.500                   106070556.8620   82652443.0650

  21450221.140    21450217.020    21450221.580   112721826.1550   87835251.5700
  84175481.9990
  21126430.740    21126426.560                   111020233.3570   86509295.8000

  24804431.340    24804429.760                   130348190.0010  101570029.7730

  24634292.700    24634292.000    24634297.720   129454082.4600  100873293.7460
  96670279.5870
  23042730.160    23042727.160                   121090405.8250   94356186.1390

  24710888.680    24710886.580    24710891.800   129856606.4970  101186966.5300
  96970856.0190
  23139298.640    23139298.800    23139300.040   121597867.9810   94751585.8220
  90803632.4990
  23311742.860    23311741.560    23311742.380   122504260.7680   95457974.6570
  91480580.2560
 22  6 17  0 18  0.0000000  0 10G05G13G14G15G17G18G20G23G24G30
  21370200.660    21370196.120                   112301227.6350   87507465.7380

  20183933.220    20183927.840                   106067400.2590   82649983.3790

  21456095.560    21456091.580    21456096.180   112752697.3810   87859307.0620
  84198535.1810
  21113909.300    21113905.060                   110954433.0140   86458022.8360

  24790691.440    24790690.980                   130275986.2950  101513767.2100

  24642016.660    24642015.780    24642021.480   129494672.4770  100904922.2800
  96700590.2560
  23063317.160    23063314.060                   121198589.8920   94440485.2530

  24692339.540    24692337.540    24692342.580   129759130.1270  101111010.9980
  96898065.3090
  23122514.020    23122513.740    23122514.780   121509663.0770   94682854.8170
  90737765.3230
  23327420.800    23327419.420    23327420.440   122586648.6650   95522173.0020
  91542103.6460
 22  6 17  0 18 30.0000000  0 10G05G13G14G15G17G18G20G23G24G30
  21383609.480    21383604.940                   112371691.2970   87562372.4600

  20183399.340    20183394.020                   106064594.6770   82647797.2030

  21462079.720    21462075.780    21462080.360   112784143.9570   87883810.8940
  84222018.0220
  21101448.820    21101444.600                   110888952.9520   86406999.4420

  24776973.140    24776970.700                   130203895.9610  101457592.9890

  24649823.560    24649822.620    24649828.120   129535697.2590  100936889.5850
  96731225.5820
  23083936.740    23083933.600                   121306944.2770   94524917.0550

  24673842.200    24673840.240    24673844.940   129661926.0750  101035267.6650
  96825477.9870
  23105768.360    23105768.160    23105768.940   121421663.9090   94614284.1550
  90672051.7990
  23343117.740    23343116.460    23343117.160   122669136.1740   95586448.9440
  91603701.4390
 22  6 17  0 19  0.0000000  0 10G05G13G14G15G17G18G20G23G24G30
  21397105.100    21397100.580                   112442611.3770   87617634.8540

  20182928.780    20182923.600                   106062122.3560   82645870.7250

  21468169.560    21468165.740    21468170.120   112816146.1250   87908747.6500
  84245915.7390
  21089046.080    21089041.920                   110823776.6180   86356212.7180

  24763273.260    24763270.540                   130131903.4380  101401495.0160

  24657709.120    24657708.240    24657713.700   129577136.1070  100969179.5490
  96762170.0980
  23104584.460    23104581.440                   121415447.6220   94609464.9400

  24655393.780    24655391.760    24655396.340   129564978.6400  100959724.2850
  96753082.2520
  23089058.140    23089058.160    23089058.840   121333852.6020   94545859.8830
  90606478.5660
  23358829.980    23358828.460    23358829.260   122751703.7090   95650787.2640
  91665358.9890
 22  6 17  0 19 30.0000000  0 10G05G13G14G15G17G18G20G23G24G30
  21410687.220    21410682.900                   112513986.9080   87673252.1310

  20182521.880    20182516.700                   106059984.4080   82644204.7880

  21474364.960    21474361.080    21474365.420   112848702.9900   87934116.6380
  84270227.6970
  21076701.540    21076697.440                   110758905.9670   86305664.1860

  24749592.660    24749590.880                   130060011.7280  101345475.5120

  24665673.200    24665672.320    24665677.180   129618986.9810  101001790.5930
  96793422.3360
  23125259.960    23125256.840                   121524097.1280   94694126.6920

  24636994.620    24636992.460    24636997.280   129468290.7880  100884383.1920
  96680880.4100
  23072384.060    23072384.260    23072384.700   121246230.1490   94477582.7570
  90541046.3340
  23374557.080    23374555.380    23374556.520   122834350.5790   95715187.3940
  91727075.7760
 22  6 17  0 20  0.0000000  0 10G05G13G14G15G17G18G20G23G24G30
  21424355.620    21424351.540                   112585815.3000   87729222.2780

  20182178.940    20182173.640                   106058182.0470   82642800.3480

  21480665.740    21480661.740    21480666.140   112881813.6860   87959917.1770
  84294953.2000
  21064415.720    21064411.600                   110694343.3440   86255355.6750

  24735932.240    24735929.900                   129988224.2080  101289537.2680

  24673715.500    24673714.700    24673719.000   129661248.0630  101034721.2570
  96824980.8700
  23145962.880    23145959.780                   121632890.4830   94778900.5380

  24618645.540    24618643.380    24618648.540   129371865.8740  100809246.9590
  96608874.8400
  23055746.060    23055746.140    23055746.760   121158797.6990   94409453.6580
  90475755.9640
  23390299.420    23390297.360    23390298.780   122917076.2330   95779648.9180
  91788851.3700
 22  6 17  0 20 30.0000000  0 10G05G13G14G15G17G18G20G23G24G30
  21438109.980    21438106.080                   112658095.2760   87785544.3060

  20181900.260    20181894.840                   106056717.0370   82641658.7930

  21487071.900    21487067.780    21487072.060   112915477.7510   87986148.9250
  84320091.9750
  21052189.120    21052184.960                   110630091.8830   86205289.6330

  24722292.180    24722290.060                   129916545.4740  101233683.7960

  24681835.320    24681834.820    24681838.840   129703917.8890  101067970.4420
  96856844.6920
  23166692.700    23166689.660                   121741825.8040   94863784.9930

  24600347.360    24600344.880    24600349.960   129275707.4410  100734318.3730
  96537068.2900
  23039144.400    23039144.700    23039145.380   121071556.8480   94341473.8760
  90410608.6930
  23406056.680    23406054.560    23406055.780   122999880.4340   95844171.6430
  91850685.6600
 22  6 17  0 21  0.0000000  0 10G05G13G14G15G17G18G20G23G24G30
  21451950.040    21451945.980                   112730824.8140   87842216.6590

  20181685.720    20181680.380                   106055589.9610   82640780.5490

  21493582.980    21493578.820    21493583.120   112949693.9120   88012810.8610
  84345642.9910
  21040021.940    21040017.900                   110566153.1000   86155467.2320

  24708673.460    24708670.400                   129844977.8660  101177916.9000

  24690032.520    24690031.780    24690036.460   129746994.1560  101101536.2720
  96889011.9710
  23187448.940    23187446.260                   121850900.4790   94948778.0440

  24582100.400    24582097.660    24582102.360   129179818.2090  100659599.5630
  96465462.7660
  23022579.420    23022579.720    23022580.560   120984508.1970   94273643.8440
  90345604.9190
  23421828.500    23421826.440    23421827.700   123082762.2200   95908754.8080
  91912577.8500
 22  6 17  0 21 30.0000000  0 10G05G13G14G15G17G18G20G23G24G30
  21465874.900    21465870.780                   112804000.1430   87899236.3610

  20181535.400    20181530.200                   106054800.6500   82640165.4990

  21500198.620    21500194.620    21500198.860   112984459.6030   88039901.0040
  84371604.3850
  21027914.400    21027910.320                   110502527.8020   86105889.1010

  24695075.860    24695073.100                   129773523.4800  101122238.1820

  24698306.560    24698305.160    24698310.260   129790473.3660  101135416.1200
  96921480.1330
  23208230.900    23208228.140                   121960110.0960   95033876.2580

  24563904.280    24563901.980    24563906.540   129084199.7600  100585091.7370
  96394059.4880
  23006051.220    23006051.120    23006052.340   120897651.3650   94205963.2470
  90280744.3760
  23437614.760    23437612.560    23437614.080   123165719.3790   95973396.7200
  91974526.3350
 22  6 17  0 22  0.0000000  0 10G05G13G14G15G17G18G20G23G24G30
  21479883.920    21479879.560                   112877616.8990   87956600.0490

  20181449.220    20181444.020                   106054347.7290   82639812.5740

  21506918.260    21506914.420    21506918.500   113019771.7310   88067416.9580
  84397973.8330
  21015866.540    21015862.500                   110439216.0860   86056555.3290

  24681500.100    24681498.140                   129702183.0760  101066648.3580

  24706656.280    24706654.860    24706659.800   129834351.3270  101169606.7110
  96954246.0830
  23229037.720    23229035.100                   122069450.3920   95119076.3080

  24545760.340    24545757.920    24545762.740   128988853.1500  100510795.7090
  96322859.1170
  22989559.100    22989558.880    22989560.320   120810985.2230   94138431.2500
  90216026.2340
  23453414.860    23453412.780    23453414.020   123248749.1680   96038095.2220
  92036529.0540
 22  6 17  0 22 30.0000000  0 10G05G13G14G15G17G18G20G23G24G30
  21493978.020    21493973.620                   112951681.9320   88014313.0360

  20181429.000    20181423.580                   106054240.5280   82639729.0470

  21513743.260    21513739.460    21513743.540   113055637.4450   88095364.2720
  84424756.6720
  21003880.460    21003876.320                   110376228.5580   86007474.1710

  24667947.820    24667946.060                   129630968.5620  101011156.6060

  24715083.120    24715082.220    24715086.640   129878634.2370  101204112.7860
  96987314.4520
  23249870.480    23249867.720                   122178926.5780   95204382.2610

  24527670.620    24527667.840    24527672.900   128893789.6110  100436720.2750
  96251870.1740
  22973104.940    22973104.860    22973106.280   120724518.9640   94071055.0340
  90151457.3740
  23469230.220    23469228.180    23469229.160   123331859.1150   96102856.1930
  92098591.6310
 22  6 17  0 23  0.0000000  0 10G05G13G14G15G17G18G20G23G24G30
  21508154.760    21508150.320                   113026181.1720   88072364.3650

  20181472.580    20181467.080                   106054469.0990   82639907.1560

  21520671.440    21520667.400    21520671.520   113092044.3020   88123733.2470
  84451943.6140
  20991954.340    20991950.060                   110313556.0280   85958638.4640

  24654418.860    24654417.120                   129559871.9960  100955756.8120

  24723584.420    24723583.400    24723588.320   129923308.7390  101238924.0450
  97020675.1770
  23270726.460    23270723.940                   122288525.0090   95289783.4830

  24509632.980    24509630.280    24509635.340   128799000.9180  100362859.0210
  96181086.4620
  22956687.180    22956686.860    22956688.480   120638242.3040   94003826.5190
  90087030.0650
  23485058.540    23485056.680    23485057.320   123415037.2030   96167670.2570
  92160705.1230
 22  6 17  0 23 30.0000000  0 10G05G13G14G15G17G18G20G23G24G30
  21522414.480    21522410.060                   113101116.5610   88130755.5450

  20181580.760    20181575.380                   106055038.0060   82640350.4570

  21527703.080    21527698.800    21527703.000   113128995.0650   88152526.0500
  84479536.7070
  20980089.280    20980084.880                   110251204.4830   85910052.8750

  24640913.240    24640911.460                   129488900.3090  100900454.3930

  24732160.480    24732159.240    24732164.960   129968376.5010  101274041.7110
  97054329.5870
  23291605.840    23291603.480                   122398246.9040   95375280.8730

  24491649.220    24491646.440    24491651.140   128704493.9030  100289217.2300
  96110513.0890
  22940306.420    22940305.880    22940307.320   120552160.0280   93936749.4660
  90022747.8950
  23500900.180    23500898.720    23500899.220   123498286.6160   96232539.8740
  92222871.8340
 22  6 17  0 24  0.0000000  0 10G05G13G14G15G17G18G20G23G24G30
  21536757.120    21536752.700                   113176487.0910   88189485.8020

  20181754.160    20181749.000                   106055949.8520   82641060.9980

  21534838.140    21534833.760    21534838.020   113166489.9350   88181742.8350
  84507536.1350
  20968286.040    20968281.580                   110189177.4730   85861720.1770

  24627432.560    24627430.180                   129418058.1140  100845252.9040

  24740811.240    24740809.340    24740815.500   130013836.8040  101309465.2740
  97088277.1310
  23312508.680    23312506.520                   122508091.6470   95460874.0420

  24473719.260    24473717.200    24473721.260   128610273.0010  100215798.4250
  96040153.4030
  22923962.740    22923962.480    22923963.700   120466274.3690   93869825.6520
  89958612.5760
  23516755.920    23516754.300    23516754.700   123581607.9520   96297465.5740
  92285092.3000
 22  6 17  0 24 30.0000000  0 10G05G13G14G15G17G18G20G23G24G30
  21551182.140    21551177.760                   113252290.9910   88248553.7430

  20181993.100    20181987.980                   106057205.5930   82642039.4950

  21542076.360    21542072.200    21542076.400   113204527.7840   88211382.7180
  84535941.0220
  20956544.800    20956540.380                   110127477.4030   85813642.2310

  24613977.100    24613975.100                   129347349.1400  100790155.1160

  24749536.520    24749534.820    24749540.180   130059687.5510  101345193.0450
  97122516.2660
  23333434.480    23333432.100                   122618056.0750   95546560.4870

  24455844.260    24455842.540    24455846.140   128516341.3130  100142604.9630
  95970009.6820
  22907656.680    22907656.620    22907657.600   120380586.4460   93803055.9150
  89894624.9280
  23532625.120    23532623.560    23532624.020   123665000.6900   96362446.8810
  92347366.0590
 22  6 17  0 25  0.0000000  0 10G05G13G14G15G17G18G20G23G24G30
  21565687.760    21565683.480                   113328518.7360   88307951.9590

  20182296.380    20182291.140                   106058798.8570   82643281.0120

  21549416.300    21549412.260    21549416.440   113243100.0260   88241439.0120
  84564744.9760
  20944864.780    20944860.380                   110066098.8960   85765814.8540

  24600545.800    24600543.480                   129276768.7320  100735157.4740

  24758334.320    24758332.540    24758337.860   130105919.2090  101381217.6810
  97157039.8540
  23354381.040    23354378.460                   122728130.2900   95632332.5040

  24438024.020    24438021.620    24438025.880   128422694.4870  100069633.4470
  95900078.6680
  22891387.140    22891387.280    22891388.180   120295089.8520   93736435.2830
  89830780.1710
  23548506.280    23548504.600    23548505.320   123748456.7570   96427477.5340
  92409687.0990
 22  6 17  0 25 30.0000000  0 10G05G13G14G15G17G18G20G23G24G30
  21580275.200    21580271.060                   113405176.8360   88367685.5130

  20182665.720    20182660.360                   106060739.5670   82644793.2580

  21556859.420    21556855.440    21556859.680   113282214.3030   88271917.6840
  84593953.6980
  20933248.040    20933243.680                   110005052.8800   85718246.5590

  24587141.640    24587138.220                   129206328.8070  100680269.2840

  24767205.500    24767204.120    24767209.680   130152538.4960  101417544.3100
  97191852.8820
  23375349.800    23375347.020                   122838320.6800   95718195.0570

  24420260.360    24420257.400    24420262.460   128329344.4170   99996893.1750
  95830369.2560
  22875156.000    22875155.880    22875156.880   120209794.2360   93669971.2340
  89767085.4710
  23564401.080    23564399.180    23564400.180   123831984.2930   96492563.8920
  92472061.4910
 22  6 17  0 26  0.0000000  0 10G05G13G14G15G17G18G20G23G24G30
  21594943.160    21594939.100                   113482257.9990   88427748.7180

  20183100.240    20183095.000                   106063023.4110   82646572.8910

  21564404.460    21564400.640    21564404.940   113321864.4210   88302813.8820
  84623562.5460
  20921694.040    20921689.780                   109944336.7130   85670935.2980

  24573763.840    24573760.960                   129136027.9620  100625489.4930

  24776149.360    24776147.980    24776153.580   130199538.2150  101454167.4080
  97226949.9960
  23396339.060    23396336.280                   122948619.9170   95804142.3760

  24402552.280    24402549.620    24402554.920   128236289.0690   99924382.5400
  95760879.9450
  22858962.300    22858961.900    22858963.220   120124695.6340   93603660.6920
  89703537.8930
  23580308.540    23580306.060    23580307.600   123915577.5900   96557701.5120
  92534485.0130
 22  6 17  0 26 30.0000000  0 10G05G13G14G15G17G18G20G23G24G30
  21609692.160    21609688.080                   113559763.9260   88488142.9100

  20183601.060    20183595.900                   106065655.4770   82648623.8470

  21572052.100    21572048.180    21572052.540   113362052.8010   88334129.4940
  84653573.3450
  20910204.060    20910199.740                   109883956.2580   85623885.6160

  24560413.720    24560411.240                   129065873.6720  100570823.9040

  24785165.840    24785164.680    24785170.080   130246919.8710  101491088.1510
  97262332.3640
  23417349.220    23417346.720                   123059028.9450   95890175.2660

  24384901.660    24384899.860    24384904.200   128143535.2500   99852106.8940
  95691615.7820
  22842806.900    22842806.500    22842807.880   120039798.6180   93537507.2180
  89640140.8190
  23596228.900    23596226.360    23596227.920   123999239.7720   96622892.7940
  92596959.9790
 22  6 17  0 27  0.0000000  0 10G05G13G14G15G17G18G20G23G24G30
  21624520.840    21624516.640                   113637688.2850   88548863.1650

  20184167.500    20184162.400                   106068632.3860   82650943.5250

  21579801.140    21579797.080    21579801.620   113402774.0050   88365860.3110
  84683982.0450
  20898777.380    20898773.100                   109823909.3060   85577095.8260

  24547091.100    24547088.180                   128995864.4110  100516271.3310

  24794253.740    24794252.940    24794258.060   130294677.0610  101528301.5060
  97297995.1710
  23438378.720    23438376.800                   123169541.3030   95976288.6050

  24367308.300    24367306.500    24367310.520   128051081.7580   99780065.3000
  95622575.9110
  22826689.340    22826688.800    22826690.180   119955100.0110   93471508.3690
  89576891.9380
  23612161.680    23612158.940    23612160.520   124082965.9530   96688133.9600
  92659482.7560
 22  6 17  0 27 30.0000000  0 10G05G13G14G15G17G18G20G23G24G30
  21639428.580    21639424.260                   113716028.0960   88609907.1390

  20184799.620    20184794.460                   106071954.2970   82653532.0350

  21587651.180    21587647.080    21587651.620   113444025.9810   88398004.6980
  84714787.0900
  20887414.560    20887410.300                   109764197.5180   85530567.1890

  24533796.640    24533793.940                   128926002.6920  100461833.6720

  24803412.640    24803411.560    24803416.720   130342806.7900  101565805.1360
  97333936.1580
  23459427.480    23459426.020                   123280153.1860   96062479.4910

  24349772.700    24349769.960    24349774.420   127958930.8200   99708259.4210
  95553761.9710
  22810609.380    22810608.860    22810610.060   119870599.9100   93405664.1970
  89513791.2940
  23628106.260    23628103.540    23628105.000   124166754.7060   96753423.8620
  92722052.2520
 22  6 17  0 28  0.0000000  0 10G05G13G14G15G17G18G20G23G24G30
  21654415.000    21654410.680                   113794782.4520   88671274.1340

  20185497.980    20185492.680                   106075623.8200   82656391.4090

  21595602.040    21595598.160    21595602.560   113485808.9570   88430562.8610
  84745988.6550
  20876116.360    20876111.980                   109704824.4670   85484302.4960

  24520531.480    24520529.080                   128856293.3880  100407514.9120

  24812642.140    24812640.620    24812646.020   130391308.3350  101603598.4720
  97370154.7610
  23480495.340    23480493.660                   123390863.8330   96148747.3730

  24332295.420    24332291.300    24332297.020   127867087.0410   99636692.8730
  95485177.3920
  22794567.600    22794567.320    22794568.480   119786300.8490   93339976.6960
  89450840.7790
  23644062.720    23644060.440    23644061.720   124250607.0160   96818763.2880
  92784669.2070
 22  6 17  0 28 30.0000000  0 10G05G13G14G15G17G18G20G23G24G30
  21669479.520    21669475.180                   113873946.9750   88732960.7440

  20186262.160    20186256.860                   106079639.4940   82659520.5170

  21603653.280    21603649.560    21603654.000   113528119.2000   88463531.8870
  84777583.9800
  20864882.460    20864878.080                   109645789.8560   85438301.5290

  24507295.360    24507293.160                   128786737.3920  100353315.5470

  24821941.500    24821940.220    24821945.500   130440176.9980  101641677.8310
  97406647.4670
  23501581.120    23501579.120                   123501668.4570   96235088.4690

  24314876.720    24314873.240    24314878.480   127775550.9490   99565366.1140
  95416822.6170
  22778563.880    22778563.500    22778564.860   119702201.2240   93274444.5740
  89388039.1850
  23660030.600    23660028.560    23660030.100   124334519.7460   96884149.8060
  92847331.2870
 22  6 17  0 29  0.0000000  0 10G05G13G14G15G17G18G20G23G24G30
  21684622.320    21684617.940                   113953522.4430   88794967.5690

  20187093.040    20187087.800                   106084006.0690   82662923.0510

  21611805.460    21611801.700    21611806.120   113570958.8200   88496913.4030
  84809574.5950
  20853714.000    20853709.760                   109587099.4390   85392568.7730

  24494090.160    24494087.120                   128717341.5740  100299241.0270

  24831310.980    24831310.320    24831315.440   130489414.0270  101680044.2550
  97443415.2660
  23522684.840    23522682.740                   123612567.7670   96321503.3420

  24297517.620    24297515.120    24297519.560   127684329.1300   99494284.2570
  95348702.5200
  22762598.980    22762598.580    22762600.000   119618305.5050   93209071.3380
  89325389.8400
  23676010.460    23676008.800    23676010.260   124418495.8170   96949585.6770
  92910040.6710
 22  6 17  0 29 30.0000000  0 11G05G13G14G15G17G18G19G20G23G24G30
  21699842.140    21699837.800                   114033503.0660   88857290.0950

  20187990.140    20187984.860                   106088720.3870   82666596.5500

  21620057.420    21620053.560    21620057.920   113614322.5920   88530703.3530
  84841956.6310
  20842610.620    20842606.460                   109528751.4840   85347102.8660

  24480914.640    24480911.300                   128648105.1050  100245290.6830

  24840749.660    24840749.400    24840754.260   130539013.3640  101718693.0130
  97480453.6160
  25670537.660    25670534.700                   134899586.3871  105116548.9291

  23543805.100    23543802.880                   123723555.6620   96407987.2330

  24280218.000    24280215.920    24280219.900   127593420.6160   99423446.5550
  95280816.3840
  22746672.380    22746672.120    22746673.300   119534610.6630   93143854.6430
  89262890.5010
  23692001.420    23692000.140    23692001.800   124502530.6440   97015067.3300
  92972793.9220
 22  6 17  0 30  0.0000000  0 11G05G13G14G15G17G18G19G20G23G24G30
  21715138.400    21715134.160                   114113885.6020   88919925.8150

  20188953.600    20188948.120                   106093782.7210   82670541.2370

  21628408.780    21628404.780    21628409.080   113658208.3310   88564900.0350
  84874728.4450
  20831572.760    20831568.540                   109470747.3170   85301904.8420

  24467770.340    24467766.780                   128579030.6280  100191466.5480

  24850256.560    24850255.520    24850261.800   130588971.8620  101757621.6760
  97517760.1730
  25653788.220    25653786.600                   134811566.9700  105047962.0460

  23564941.660    23564939.540                   123834628.4590   96494537.2490

  24262978.660    24262975.880    24262980.620   127502827.6540   99352854.6970
  95213165.8760
  22730784.260    22730783.820    22730784.920   119451116.8300   93078794.5670
  89200541.2770
  23708003.480    23708002.240    23708003.920   124586622.8310   97080593.6880
  93035589.9920
 22  6 17  0 30 30.0000000  0 11G05G13G14G15G17G18G19G20G23G24G30
  21730511.600    21730507.580                   114194673.2430   88982877.1930

  20189984.320    20189978.860                   106099199.2150   82674761.8940

  21636860.140    21636856.100    21636860.200   113702619.9780   88599506.5220
  84907893.0010
  20820601.860    20820597.540                   109413094.7330   85256980.7810

  24454658.100    24454654.660                   128510126.3450  100137774.9830

  24859832.380    24859831.160    24859837.420   130639292.5840  101796832.5730
  97555337.2490
  25637020.120    25637018.960                   134723445.6880  104979295.0960

  23586094.940    23586092.960                   123945788.8310   96581155.5020

  24245800.800    24245797.220    24245802.980   127412558.5420   99282515.1990
  95145757.2270
  22714935.480    22714934.760    22714935.680   119367830.2540   93013895.9730
  89138346.7930
  23724017.680    23724016.340    23724017.800   124670777.0690   97146168.3970
  93098432.4130
 22  6 17  0 31  0.0000000  0 11G05G13G14G15G17G18G19G20G23G24G30
  21745960.040    21745955.920                   114275855.0910   89046135.7410

  20191080.920    20191075.640                   106104962.4590   82679252.7400

  21645409.820    21645405.500    21645409.600   113747547.8200   88634515.2300
  84941443.0100
  20809696.620    20809692.280                   109355787.2940   85212325.6690

  24441577.500    24441574.220                   128441387.3070  100084212.2130

  24869474.920    24869474.360    24869479.360   130689964.9460  101836317.4160
  97593176.9470
  25620231.960    25620229.860                   134635220.0430  104910547.6230

  23607263.060    23607261.120                   124057026.2520   96667833.7930

  24228683.540    24228680.300    24228685.120   127322608.0070   99212423.9310
  95078586.4600
  22699124.560    22699123.780    22699124.880   119284743.5240   92949153.1360
  89076301.6080
  23740042.060    23740040.520    23740041.880   124754984.5080   97211784.5610
  93161314.5510
 22  6 17  0 31 30.0000000  0 11G05G13G14G15G17G18G19G20G23G24G30
  21761485.060    21761480.780                   114357439.1020   89109707.6650

  20192245.660    20192240.540                   106111083.5770   82684022.4470

  21654059.160    21654054.740    21654059.020   113793000.4160   88669932.8330
  84975384.8740
  20798859.260    20798854.940                   109298836.8410   85167948.7230

  24428530.380    24428527.200                   128372826.7960  100030788.5860

  24879186.040    24879185.640    24879189.960   130740996.5400  101876082.2230
  97631284.9010
  25603425.700    25603422.840                   134546902.4380  104841728.9470

  23628447.020    23628445.120                   124168348.1220   96754577.8440

  24211629.660    24211627.380    24211631.100   127232989.0370   99142591.0490
  95011663.2890
  22683353.580    22683352.820    22683354.160   119201867.4820   92884574.4530
  89014413.7230
  23756078.480    23756076.880    23756077.900   124839254.5010   97277449.4640
  93224243.4070
 22  6 17  0 32  0.0000000  0 11G05G13G14G15G17G18G19G20G23G24G30
  21777084.040    21777079.680                   114439411.9800   89173582.6160

  20193476.740    20193471.560                   106117552.6550   82689063.2820

  21662805.860    21662801.580    21662805.820   113838965.5050   88705749.7770
  85009709.4570
  20788088.240    20788084.040                   109242235.5790   85123843.8660

  24415516.260    24415513.580                   128304437.7120   99977498.5580

  24888963.080    24888962.240    24888967.420   130792374.2370  101916116.6830
  97669651.2290
  25586599.940    25586597.800                   134458483.0550  104772830.3460

  23649644.640    23649642.660                   124279740.9510   96841377.1210

  24194637.120    24194635.260    24194639.380   127143693.7980   99073010.4150
  94944981.8560
  22667621.020    22667620.200    22667621.560   119119192.2740   92820152.2700
  88952675.8080
  23772124.480    23772122.760    23772123.700   124923575.6340   97343154.2020
  93287210.4430
 22  6 17  0 32 30.0000000  0 11G05G13G14G15G17G18G19G20G23G24G30
  21792757.320    21792753.080                   114521776.0820   89237762.4110

  20194775.060    20194769.820                   106124375.3430   82694379.6730

  21671650.740    21671646.560    21671650.680   113885446.3120   88741968.6000
  85044419.1610
  20777384.820    20777380.680                   109185989.4230   85080015.7260

  24402536.280    24402533.400                   128236227.3070   99924347.6690

  24898806.340    24898805.260    24898811.160   130844100.3860  101956422.6870
  97708277.8350
  25569756.660    25569754.880                   134369968.9010  104703857.0050

  23670856.020    23670854.240                   124391206.8480   96928233.3200

  24177707.600    24177705.520    24177710.280   127054729.9180   99003688.0150
  94878547.8760
  22651927.560    22651926.680    22651928.180   119036723.4230   92755890.8710
  88891091.9830
  23788180.760    23788178.740    23788179.820   125007952.0490   97408902.0350
  93350218.7640
 22  6 17  0 33  0.0000000  0 11G05G13G14G15G17G18G19G20G23G24G30
  21808504.540    21808500.540                   114604528.8020   89302245.0110

  20196140.700    20196135.500                   106131552.2690   82699972.0850

  21680593.500    21680589.360    21680593.560   113932441.1140   88778587.9320
  85079512.6880
  20766749.460    20766745.300                   109130100.7680   85036466.1530

  24389590.520    24389587.520                   128168198.7550   99871338.5390

  24908715.380    24908714.680    24908720.380   130896172.4070  101996998.2750
  97747162.7340
  25552896.780    25552894.880                   134281365.2900  104634814.2390

  23692080.980    23692078.940                   124502743.3310   97015144.5340

  24160841.880    24160839.020    24160843.940   126966100.1980   98934625.9670
  94812363.4110
  22636273.140    22636272.700    22636274.060   118954461.5340   92691790.7630
  88829662.7150
  23804247.300    23804245.380    23804246.100   125092382.8940   97474692.2610
  93413267.7360
 22  6 17  0 33 30.0000000  0 11G05G13G14G15G17G18G19G20G23G24G30
  21824325.480    21824321.560                   114687668.5470   89367029.1850

  20197574.060    20197568.980                   106139084.8680   82705841.6410

  21689633.940    21689629.840    21689634.080   113979948.8790   88815606.9740
  85114989.2730
  20756182.740    20756178.500                   109074572.2110   84993197.1780

  24376680.320    24376676.940                   128100355.9420   99818474.1180

  24918689.920    24918688.780    24918694.540   130948588.4640  102037841.9360
  97786304.4690
  25536020.440    25536018.680                   134192676.5480  104565705.5920

  23713318.780    23713317.040                   124614348.3480   97102109.1360

  24144040.340    24144037.620    24144041.960   126877808.0450   98865826.9400
  94746431.0750
  22620658.740    22620658.460    22620659.720   118872408.0360   92627853.0260
  88768389.0790
  23820324.340    23820322.560    23820323.160   125176868.0440   97540524.8080
  93476357.2760
 22  6 17  0 34  0.0000000  0 11G05G13G14G15G17G18G19G20G23G24G30
  21840218.980    21840214.900                   114771188.8120   89432109.9010

  20199074.620    20199069.540                   106146970.2430   82711986.0890

  21698770.800    21698766.940    21698771.180   114027964.2400   88853021.5310
  85150844.8860
  20745684.340    20745680.040                   109019402.2000   84950207.5840

  24363805.380    24363802.760                   128032698.1590   99765753.8800

  24928728.600    24928727.520    24928732.860   131001342.2280  102078948.7400
  97825698.5120
  25519127.560    25519125.780                   134103901.9470  104496531.0730

  23734568.660    23734567.000                   124726015.3690   97189122.0160

  24127303.040    24127300.880    24127304.880   126789852.6090   98797290.3060
  94680750.1320
  22605083.800    22605083.460    22605084.500   118790559.9070   92564075.3040
  88707268.7740
  23836410.740    23836409.280    23836409.540   125261403.0620   97606396.1810
  93539484.0200
 22  6 17  0 34 30.0000000  0 11G05G13G14G15G17G18G19G20G23G24G30
  21856184.720    21856180.540                   114855088.5990   89497486.3560

  20200642.860    20200637.720                   106155211.1580   82718407.5890

  21708004.280    21708000.600    21708005.020   114076487.3300   88890831.7350
  85187079.6570
  20735254.920    20735250.540                   108964594.1960   84907500.0720

  24350966.480    24350963.700                   127965230.2410   99713181.6230

  24938831.440    24938830.560    24938835.680   131054433.0840  102120318.2320
  97865344.3000
  25502218.680    25502217.000                   134015045.0410  104427292.2510

  23755830.040    23755828.340                   124837743.7100   97276182.7380

  24110630.500    24110628.680    24110633.260   126702238.4850   98729019.6480
  94615324.0870
  22589548.180    22589547.900    22589549.040   118708919.7120   92500459.6150
  88646303.7550
  23852506.760    23852505.480    23852505.860   125345989.0930   97672307.3270
  93602648.8490
 22  6 17  0 35  0.0000000  0 11G05G13G14G15G17G18G19G20G23G24G30
  21872221.900    21872217.840                   114939364.6930   89563156.0280

  20202278.600    20202273.360                   106163806.7830   82725105.4870

  21717333.900    21717330.300    21717334.720   114125515.1720   88929035.2420
  85223691.3550
  20724894.400    20724890.020                   108910149.0150   84865075.2840

  24338163.660    24338161.280                   127897953.8920   99660758.5850

  24948997.420    24948996.440    24949002.180   131107856.9910  102161947.2080
  97905238.6820
  25485293.900    25485292.420                   133926105.7540  104357988.5870

  23777102.520    23777100.960                   124949529.4290   97363288.1160

  24094023.260    24094021.060    24094026.320   126614967.1730   98661016.0880
  94550154.0240
  22574051.900    22574051.680    22574052.880   118627486.8550   92437005.5100
  88585493.5530
  23868612.060    23868611.000    23868611.620   125430624.0850   97738256.6120
  93665850.2290
 22  6 17  0 35 30.0000000  0 11G05G13G14G15G17G18G19G20G23G24G30
  21888330.360    21888326.320                   115024015.1660   89629117.4230

  20203982.300    20203976.960                   106172759.6400   82732081.7390

  21726759.620    21726755.960    21726760.340   114175047.6830   88967632.0020
  85260679.9190
  20714603.600    20714599.180                   108856070.3850   84822936.1230

  24325399.080    24325396.380                   127830873.7980   99608488.4390

  24959226.480    24959226.260    24959231.980   131161613.0790  102203834.9280
  97945381.0690
  25468355.120    25468353.640                   133837091.1940  104288626.8900

  23798385.740    23798384.160                   125061371.6240   97450437.4790

  24077482.220    24077479.500    24077484.360   126528043.1920   98593283.1690
  94485243.3100
  22558595.700    22558595.180    22558596.640   118546263.7130   92373714.8100
  88524840.0040
  23884727.020    23884725.880    23884726.800   125515309.0550   97804244.8510
  93729088.9210
 22  6 17  0 36  0.0000000  0 11G05G13G14G15G17G18G19G20G23G24G30
  21904510.700    21904506.660                   115109043.1480   89695372.9590

  20205754.940    20205749.540                   106182074.9440   82739340.4220

  21736282.120    21736278.200    21736282.700   114225087.7280   89006624.2510
  85298047.4850
  20704383.600    20704379.220                   108802364.8290   84781087.6690

  24312672.720    24312669.920                   127763997.8830   99556377.4400

  24969519.980    24969519.200    24969525.460   131215703.3850  102245983.1080
  97985773.0120
  25451403.040    25451401.880                   133748009.0070  104219212.9130

  23819679.960    23819678.380                   125173271.6900   97537631.9500

  24061008.740    24061005.940    24061009.900   126441473.8770   98525826.6090
  94420597.4620
  22543180.460    22543179.760    22543181.160   118465255.5990   92310591.6590
  88464346.9850
  23900852.440    23900851.140    23900852.340   125600047.8100   97870274.9810
  93792367.7680
 22  6 17  0 36 30.0000000  0 11G05G13G14G15G17G18G19G20G23G24G30
  21920760.400    21920756.440                   115194435.6960   89761912.5530

  20207594.780    20207589.420                   106191743.5500   82746874.4000

  21745898.740    21745894.920    21745899.280   114275623.5620   89046002.8110
  85335785.2790
  20694233.140    20694228.780                   108749024.4140   84739523.7280

  24299984.480    24299981.620                   127697318.9740   99504419.9470

  24979874.560    24979873.500    24979879.780   131270115.3940  102288381.9200
  98026405.2030
  25434436.280    25434434.200                   133658848.3790  104149736.2530

  23840982.960    23840981.560                   125285217.5190   97624862.0220

  24044601.320    24044598.620    24044602.480   126355252.0740   98458640.8300
  94356211.0840
  22527804.180    22527803.560    22527804.900   118384453.1890   92247628.8010
  88404007.5970
  23916986.180    23916984.500    23916985.920   125684829.6570   97936338.6630
  93855678.7600
 22  6 17  0 37  0.0000000  0 11G05G13G14G15G17G18G19G20G23G24G30
  21937079.760    21937075.820                   115280194.5690   89828737.6250

  20209502.860    20209497.660                   106201770.8960   82754687.9230

  21755610.220    21755606.480    21755610.660   114326657.8550   89085769.7920
  85373895.3090
  20684153.440    20684149.040                   108696055.6720   84698249.4030

  24287334.840    24287331.360                   127630844.6980   99452621.8780

  24990290.440    24990289.300    24990295.880   131324851.0840  102331033.0500
  98067279.1390
  25417456.160    25417455.640                   133569621.0350  104080208.5590

  23862294.760    23862293.780                   125397210.6170   97712128.9130

  24028261.320    24028258.620    24028263.520   126269384.9700   98391731.4310
  94292089.5910
  22512468.120    22512467.600    22512468.560   118303861.6100   92184830.2220
  88343825.6330
  23933128.820    23933127.020    23933128.700   125769658.4290   98002438.9350
  93919024.8300
 22  6 17  0 37 30.0000000  0 11G05G13G14G15G17G18G19G20G23G24G30
  21953468.560    21953464.420                   115366317.3410   89895846.2570

  20211479.240    20211474.280                   106212157.5240   82762781.4050

  21765416.380    21765412.460    21765416.700   114378188.8800   89125923.8440
  85412376.2730
  20674144.840    20674140.380                   108643460.0270   84657265.8040

  24274724.980    24274721.200                   127564578.1470   99400985.7090

  25000767.400    25000766.800    25000772.680   131379907.5920  102373934.0910
  98108392.6550
  25400464.080    25400465.040                   133480328.7020  104010630.4780

  23883615.180    23883614.240                   125509248.3570   97799430.6180

  24011989.440    24011986.680    24011991.920   126183875.3330   98325100.5670
  94228235.0230
  22497172.240    22497171.740    22497172.620   118223481.5020   92122196.4270
  88283801.5870
  23949280.060    23949278.360    23949279.900   125854533.4970   98068575.2850
  93982405.4850
 22  6 17  0 38  0.0000000  0 11G05G13G14G15G17G18G19G20G23G24G30
  21969926.180    21969921.940                   115452802.5730   89963237.3170

  20213524.420    20213519.460                   106222905.1480   82771156.1800

  21775316.980    21775312.900    21775317.060   114430216.0070   89166464.4640
  85451227.6930
  20664207.920    20664203.580                   108591241.1490   84616575.7920

  24262155.060    24262151.560                   127498523.4250   99349514.5610

  25011305.020    25011304.620    25011310.180   131435283.5660  102417084.0450
  98149744.6470
  25383460.980    25383460.400                   133390973.7310  103941002.9170

  23904943.740    23904943.100                   125621329.5800   97886766.1560

  23995786.520    23995783.540    23995788.080   126098727.2360   98258751.4340
  94164650.4270
  22481917.240    22481916.360    22481917.400   118143314.9660   92059729.0520
  88223937.0350
  23965440.120    23965438.680    23965439.880   125939455.2910   98134748.0700
  94045821.0640
 22  6 17  0 38 30.0000000  0 11G05G13G14G15G17G18G19G20G23G24G30
  21986452.520    21986448.320                   115539649.2700   90030910.0310

  20215639.060    20215633.940                   106234016.9500   82779814.7260

  21785312.020    21785307.800    21785311.860   114482739.4950   89207391.8490
  85490449.7760
  20654343.400    20654339.140                   108539402.9100   84576182.3790

  24249626.360    24249622.620                   127432685.6300   99298212.4270

  25021903.660    25021903.520    25021908.480
  98191341.9111
  25366447.280    25366446.100                   133301564.4500  103871333.6890

  23926280.680    23926279.980                   125733453.4990   97974134.9820

  23979653.100    23979649.880    23979653.860   126013945.4320   98192687.7000
  94101339.3640
  22466703.040    22466702.180    22466703.280   118063364.5830   91997430.1220
  88164233.9150
  23981609.340    23981608.440    23981608.920   126024425.1860   98200958.2700
  94109272.5430
 22  6 17  0 39  0.0000000  0 11G05G13G14G15G17G18G19G20G23G24G30
  22003045.540    22003041.400                   115626845.8850   90098855.4200

  20217821.240    20217815.960                   106245483.8730   82788749.9910

  21795399.200    21795394.920    21795399.080   114535747.9440   89248697.1360
  85530034.0000
  20644549.880    20644545.680                   108487937.7090   84536079.6420

  24237137.780    24237133.880                   127367058.3450   99247074.3390

  25032561.440    25032559.820    25032565.400   131546987.3221  102504154.2901
  98233161.3380
  25349420.660    25349420.300                   133212093.2960  103801616.4030

  23947623.340    23947622.460                   125845607.7830   98061527.4820

  23963588.160    23963584.680    23963589.280   125929523.1290   98126904.0960
  94038296.7360
  22451528.300    22451527.540    22451528.540   117983621.4800   91935292.7060
  88104685.5570
  23997785.820    23997785.060    23997785.280   126109433.0130   98267198.0560
  94172752.3510
 22  6 17  0 39 30.0000000  0 11G05G13G14G15G17G18G19G20G23G24G30
  22019705.800    22019701.800                   115714396.4390   90167076.6110

  20220072.280    20220067.020                   106257313.3630   82797967.7770

  21805579.540    21805575.340    21805579.580   114589246.3600   89290384.2110
  85569984.1160
  20634829.000    20634824.840                   108436854.3790   84496274.4660

  24224691.020    24224687.560                   127301651.3250   99196107.9260

  25043276.800    25043276.240    25043281.760   131603300.0480  102548034.2150
  98275212.8760
  25332384.220    25332383.660                   133122569.2110  103731857.9790

  23968972.520    23968971.900                   125957796.8460   98148947.0170

  23947593.340    23947590.160    23947595.460   125845469.9090   98061408.1030
  93975529.7420
  22436394.660    22436393.700    22436394.900   117904093.2030   91873322.6690
  88045297.6240
  24013970.660    24013969.560    24013970.480   126194484.8500   98333472.1850
  94236265.0310
 22  6 17  0 40  0.0000000  0 11G05G13G14G15G17G18G19G20G23G24G30
  22036432.540    22036428.520                   115802295.5100   90235569.3620

  20222392.020    20222386.800                   106269504.0550   82807467.0110

  21815852.240    21815848.120    21815852.460   114643230.4560   89332449.7390
  85610296.9190
  20625180.760    20625176.520                   108386152.6170   84456766.6200

  24212286.760    24212282.980                   127236464.9020   99145313.3760

  25054050.360    25054050.480    25054056.060   131659918.6910  102592152.5520
  98317492.9470
  25315338.280    25315337.180                   133032992.7170  103662058.6260

  23990327.660    23990326.920                   126070016.7860   98236391.3170

  23931668.880    23931665.760    23931671.100   125761786.0990   97996199.9330
  93913038.5950
  22421301.560    22421300.360    22421301.740   117824778.0090   91811518.6650
  87986068.7970
  24030163.380    24030161.820    24030163.360   126279577.6080   98399778.1930
  94299808.2700
 22  6 17  0 40 30.0000000  0 11G05G13G14G15G17G18G19G20G23G24G30
  22053225.600    22053221.640                   115890543.6930   90304334.1650

  20224781.260    20224775.920                   106282059.0380   82817250.1140

  21826217.480    21826213.500    21826217.940   114697701.1800   89374894.4500
  85650973.0870
  20615605.980    20615601.660                   108335836.7610   84417559.4720

  24199925.120    24199921.580                   127171505.5610   99094695.7650

  25064881.680                    25064887.260
  98360001.3841
  25298283.460    25298282.100                   132943370.2970  103592223.5980

  24011688.220    24011687.740                   126182265.9330   98323857.9780

  23915815.600    23915812.640    23915817.260   125678477.2420   97931283.9480
  93850827.4390
  22406249.480    22406248.260    22406249.740   117745679.3260   91749883.3760
  87927001.6610
  24046364.280    24046362.360    24046364.240   126364713.5520   98466117.8410
  94363383.7070
 22  6 17  0 41  0.0000000  0 11G05G13G14G15G17G18G19G20G23G24G30
  22070084.560    22070080.760                   115979138.5990   90373369.1290

  20227239.940    20227234.560                   106294979.3210   82827317.8680

  21836675.140    21836671.300    21836675.620   114752656.8640   89417717.0570
  85692011.4340
  20606105.080    20606100.740                   108285909.2320   84378654.9240

  24187607.260    24187604.300                   127106775.6820   99044256.9980

  25075772.760    25075774.020    25075778.900   131774070.5871  102681098.5151
  98402736.7050
  25281219.600    25281218.840                   132853704.7330  103522354.9110

  24033054.040    24033053.380                   126294543.1030   98411346.8510

  23900034.360    23900031.200    23900035.480   125595546.3810   97866662.4990
  93788898.5540
  22391238.660    22391237.720    22391239.060   117666798.1190   91688417.5630
  87868096.9440
  24062573.240    24062571.380    24062573.260   126449892.1960   98532490.7490
  94426991.0470
 22  6 17  0 41 30.0000000  0 11G05G13G14G15G17G18G19G20G23G24G30
  22087008.240    22087004.360                   116068072.9170   90442668.5800

  20229767.400    20229762.060                   106308261.5070   82837667.6220

  21847223.860    21847220.160    21847224.380   114808091.2580   89460912.6870
  85733407.2370
  20596677.580    20596673.280                   108236367.5820   84340051.0620

  24175333.320    24175329.860                   127042274.9400   98993996.7440

  25086720.760    25086720.360    25086725.260   131831595.4920  102725923.1180
  98445693.5800
  25264147.720    25264147.400                   132763994.8660  103452451.6760

  24054423.500    24054422.660                   126406840.2890   98498851.0380

  23884324.620    23884321.480    23884326.400   125512991.8340   97802334.2800
  93727250.6640
  22376268.700    22376267.900    22376268.880   117588130.7080   91627118.3370
  87809351.8530
  24078789.580    24078787.840    24078789.360   126535108.6060   98598893.0900
  94490626.6050
 22  6 17  0 42  0.0000000  0 11G05G13G14G15G17G18G19G20G23G24G30
  22103996.500    22103992.420                   116157345.8960   90512231.9210

  20232364.140    20232358.820                   106321907.6780   82848300.9980

  21857863.760    21857860.040    21857864.320   114864004.1920   89504481.2050
  85775160.3990
  20587324.360    20587319.940                   108187215.4690   84301750.7310

  24163103.700    24163099.960                   126978007.4410   98943918.1990

  25097723.820    25097722.720    25097728.320   131889415.9690  102770977.9950
  98488871.1190
  25247068.880    25247068.260                   132674245.3080  103382517.4400

  24075796.660    24075795.620                   126519157.0430   98586370.5490

  23868687.560    23868684.400    23868689.780   125430818.0430   97738302.7510
  93665887.1410
  22361339.900    22361339.100    22361340.040   117509679.4350   91565987.5170
  87750768.1630
  24095013.220    24095011.620    24095012.840   126620363.8440   98665325.7010
  94554291.1920
 22  6 17  0 42 30.0000000  0 11G05G13G14G15G17G18G19G20G23G24G30
  22121048.060    22121044.060                   116246952.2770   90582055.0430

  20235029.840    20235024.500                   106335915.8710   82859216.4630

  21868594.040    21868590.140    21868594.440   114920391.0690   89548419.0230
  85817267.4670
  20578045.120    20578040.560                   108138452.0540   84263753.2720

  24150918.100    24150914.700                   126913973.2700   98894021.4700

  25108781.820    25108780.480    25108786.540   131947526.4770  102816258.7490
  98532265.1720
  25229982.580    25229981.220                   132584456.5140  103312552.6620

  24097172.460    24097171.340                   126631487.3490   98673900.2480

  23853122.800    23853119.600    23853124.700   125349024.9900   97674567.9140
  93604807.9070
  22346451.720    22346450.960    22346452.000   117431442.2280   91505023.5110
  87692344.3410
  24111243.860    24111242.080    24111242.880   126705654.5070   98731785.9330
  94617982.2560
 22  6 17  0 43  0.0000000  0 11G05G13G14G15G17G18G19G20G23G24G30
  22138164.060    22138159.980                   116336896.9630   90652141.7840

  20237766.080    20237760.780                   106350295.0010   82870420.9750

  21879415.660    21879411.560    21879415.820   114977258.1330   89592731.0170
  85859733.1380
  20568841.660    20568837.140                   108090087.6790   84226066.7670

  24138779.560    24138776.080                   126850184.1710   98844315.7310

  25119896.120    25119894.820    25119901.140   132005932.7250  102861770.0540
  98575880.1260
  25212890.880    25212889.040                   132494639.5310  103242565.7770

  24118552.140    24118551.600                   126743839.0370   98761447.3950

  23837632.760    23837629.340    23837634.100   125267623.7020   97611138.3660
  93544021.2580
  22331606.240    22331605.400    22331606.280   117353428.0730   91444233.3140
  87634087.0790
  24127482.280    24127480.740    24127481.320   126790988.3090   98798279.7370
  94681705.4880
 22  6 17  0 43 30.0000000  0 11G05G13G14G15G17G18G19G20G23G24G30
  22155342.200    22155338.100                   116427168.7290   90722483.3940

  20240571.420    20240566.260                   106365037.3620   82881908.5230

  21890326.520    21890322.440    21890326.660   115034594.8030   89637408.9320
  85902549.4710
  20559712.800    20559708.240                   108042115.2590   84188685.6720

  24126686.260    24126682.920                   126786633.9990   98794796.1870

  25131064.580    25131063.720    25131069.600   132064623.3290  102907502.7950
  98619707.2890
  25195792.440    25195790.580                   132404789.0220  103172552.7540

  24139933.320    24139933.240                   126856199.1080   98849000.8650

  23822216.160    23822212.320    23822217.300   125186608.1030   97548009.3380
  93483522.6100
  22316801.540    22316800.620    22316801.540   117275628.8760   91383610.6160
  87575990.3240
  24143726.880    24143725.560    24143726.340   126876355.8760   98864799.8620
  94745453.9280
 22  6 17  0 44  0.0000000  0 11G05G13G14G15G17G18G19G20G23G24G30
  22172582.560    22172578.480                   116517767.2750   90793079.6360

  20243446.360    20243441.260                   106380145.3340   82893680.9650

  21901326.620    21901322.580    21901326.900   115092400.8140   89682452.5780
  85945716.2910
  20550659.220    20550654.700                   107994538.7480   84151613.0830

  24114639.460    24114636.180                   126723327.8690   98745466.7700

  25142286.740    25142286.500    25142292.160   132123597.2310  102953456.4710
  98663746.1680
  25178688.300    25178686.480                   132314909.7330  103102517.1490

  24161315.920    24161316.160                   126968567.1080   98936560.6670

  23806873.440    23806869.980    23806875.220   125105982.6740   97485184.3380
  93423315.3330
  22302038.040    22302037.200    22302038.260   117198047.0030   91323157.2560
  87518055.8580
  24159978.300    24159977.040    24159977.960   126961758.3850   98931347.2450
  94809228.5170
 22  6 17  0 44 30.0000000  0 11G05G13G14G15G17G18G19G20G23G24G30
  22189884.920    22189880.800                   116608691.5720   90863929.7080

  20246391.440    20246386.240                   106395621.5080   82905740.3110

  21912416.040    21912412.020    21912416.540   115150676.6080   89727862.2780
  85989233.9200
  20541681.920    20541677.300                   107947362.3630   84114852.2780

  24102640.140    24102636.540                   126660271.2120   98696331.7340

  25153563.180    25153563.220    25153568.540   132182854.1600  102999630.5160
  98707996.3040
  25161580.020    25161578.740                   132225007.4190  103032463.6640

  24182699.960    24182700.100                   127080943.3800   99024127.3340

  23791605.840    23791602.740    23791608.100   125025752.4710   97422667.3260
  93363403.1920
  22287316.380    22287315.640    22287316.860   117120685.4980   91262875.6100
  87460285.9730
  24176236.540    24176235.560    24176236.620   127047197.5660   98997923.1720
  94873030.4690
 22  6 17  0 45  0.0000000  0 12G05G12G13G14G15G17G18G19G20G23G24G30
  22207247.680    22207243.720                   116699934.4820   90935028.0400

  25288824.940

  20249405.720    20249400.500                   106411461.8720   82918083.4460

  21923593.600    21923589.560    21923594.220   115209415.2800   89773632.6670
  86033097.2070
  20532780.140    20532775.500                   107900583.2620   84078401.0570

  24090687.860    24090684.280                   126597461.7820   98647389.3730

  25164892.080    25164892.080    25164897.260   132242386.6010  103046019.3750
  98752452.3230
  25144467.520    25144466.380                   132135080.1330  102962390.7450

  24204083.920    24204084.100                   127193319.0950   99111693.1720

  23776413.400    23776410.220    23776415.380   124945915.3150   97360456.5860
  93303784.5720
  22272636.120    22272635.360    22272636.700   117043540.1970   91202762.4360
  87402677.5270
  24192500.660    24192499.900    24192501.340   127132668.0580   99064523.5130
  94936855.7640
 22  6 17  0 45 30.0000000  0 12G05G12G13G14G15G17G18G19G20G23G24G30
  22224671.820    22224667.860                   116791498.5330   91006376.6020

  25266079.840    25266079.000                   132774142.1481  103460369.2721

  20252490.480    20252485.320                   106427672.6920   82930715.2390

  21934859.860    21934855.980    21934860.520   115268620.3850   89819766.5030
  86077308.8060
  20523955.300    20523950.660                   107854208.7620   84042265.0830

  24078784.300    24078781.000                   126534907.9240   98598646.1390

  25176273.520    25176273.620    25176278.720   132302197.2580  103092624.9910
  98797116.0480
  25127351.820    25127349.780                   132045136.6040  102892305.2040

  24225468.520    24225468.840                   127305698.4230   99199262.0860

  23761297.020    23761294.160    23761299.060   124866479.3610   97298558.4750
  93244465.5410
  22257998.200    22257997.520    22257998.680   116966617.2300   91142822.5030
  87345235.0980
  24208772.260    24208771.040    24208772.900   127218174.7060   99131152.0580
  95000708.1060
 22  6 17  0 46  0.0000000  0 12G05G12G13G14G15G17G18G19G20G23G24G30
  22242156.460    22242152.420                   116883380.3930   91077972.8090

  25243333.780    25243332.460                   132654608.4680  103367225.8910

  20255645.720    20255640.520                   106444253.2960   82943635.1840

  21946214.420    21946210.420    21946214.940   115328288.9820   89866261.5080
  86121866.5150
  20515207.420    20515203.020                   107808239.4720   84006444.8690

  24066929.440    24066926.320                   126472612.1370   98550104.0010

  25187706.940    25187707.420    25187712.460   132362282.3690  103139444.4450
  98841984.6570
  25110233.160    25110230.600                   131955178.8130  102822208.6000

  24246852.880    24246853.320                   127418076.7780   99286830.1430

  23746257.320    23746254.620    23746259.820   124787446.3360   97236974.3180
  93185447.4200
  22243402.320    22243401.700    22243402.980   116889916.2140   91083055.5390
  87287958.4420
  24225050.620    24225048.980    24225050.960   127303715.8610   99197807.4930
  95064586.2030
 22  6 17  0 46 30.0000000  0 12G05G12G13G14G15G17G18G19G20G23G24G30
  22259700.220    22259696.180                   116975573.3690   91149811.4470

  25220586.700    25220585.580                   132535070.4760  103274079.2590

  20258870.820    20258865.560                   106461200.7070   82956840.9460

  21957656.140    21957652.060    21957656.560   115388415.2040   89913113.0970
  86166765.9430
  20506536.400    20506532.200                   107762673.8610   83970939.2140

  24055124.200    24055120.360                   126410573.3060   98501762.0580

  25199191.800    25199192.200    25199197.580   132422635.3740  103186472.6730
  98887053.3180
  25093111.460    25093109.160                   131865206.1440  102752100.3690

  24268236.000    24268235.960                   127530447.3140   99374391.7140

  23731294.400    23731291.720    23731296.860   124708815.0860   97175703.2460
  93126729.3040
  22228848.220    22228847.620    22228848.900   116813434.0580   91023459.0940
  87230845.1770
  24241334.700    24241332.700    24241334.800   127389287.2420   99264486.4830
  95128486.8610
 22  6 17  0 47  0.0000000  0 12G05G12G13G14G15G17G18G19G20G23G24G30
  22277304.040    22277299.940                   117068081.8070   91221895.9110

  25197840.240    25197839.320                   132415537.2380  103180936.3220

  20262167.100    20262161.880                   106478522.9690   82970338.8030

  21969185.960    21969181.860    21969186.380   115449004.4200   89960325.4440
  86212011.1150
  20497944.120    20497939.860                   107717521.0300   83935755.1940

  24043369.320    24043365.940                   126348801.5260   98453628.2320

  25210728.780    25210729.000    25210734.440   132483260.9000  103233713.2200
  98932325.4820
  25075989.260    25075987.300                   131775228.9040  102681988.5060

  24289618.720    24289618.980                   127642816.2080   99461929.1591

  23716409.680    23716406.680    23716412.080   124630595.5700   97114753.0150
  93068318.6730
  22214337.320    22214336.560    22214337.980   116737178.7030   90964039.3760
  87173901.2920
  24257625.700    24257623.640    24257625.420   127474895.5800   99331194.2600
  95192415.1220
 22  6 17  0 47 30.0000000  0 12G05G12G13G14G15G17G18G19G20G23G24G30
  22294965.460    22294961.360                   117160893.2350   91294216.4720

  25175093.320    25175092.660                   132296001.7760  103087791.7940

  20265532.960    20265527.660                   106496210.8140   82984121.5290

  21980801.720    21980797.380    21980801.980   115510044.6100   90007889.2330
  86257593.0850
  20489429.000    20489424.560                   107672773.0860   83900886.6880

  24031664.120    24031660.680                   126287290.1300   98405697.3050

  25222315.140    25222315.080    25222320.640   132544146.2270  103281156.2440
  98977791.6750
  25058865.060    25058862.400                   131685240.1970  102611867.6000

  24310998.880    24310999.260                   127755170.8870   99549478.6280

  23701601.780    23701599.120    23701603.960   124552780.5000   97054117.9390
  93010210.0860
  22199867.880    22199866.740    22199868.280   116661140.8670   90904789.1490
  87117119.8510
  24273921.460    24273919.700    24273920.980   127560530.3560   99397922.6160
  95256363.1530
 22  6 17  0 48  0.0000000  0 12G05G12G13G14G15G17G18G19G20G23G24G30
  22312684.920    22312680.920                   117254009.6410   91366774.6720

  25152347.080    25152346.720                   132176470.4290  102994650.4340

  20268969.400    20268963.980                   106514269.1000   82998192.9230

  21992503.420    21992499.240    21992503.900   115571538.2470   90055806.3490
  86303513.6440
  20480992.140    20480987.500                   107628436.2650   83866338.5300

  24020009.820    24020006.340                   126226046.2120   98357974.8060

  25233951.220    25233951.780    25233956.400   132605293.2080  103328803.0980
  99023453.2520
  25041740.120    25041736.920                   131595248.3900  102541744.4090

  24332376.620    24332376.940                   127867513.2820   99637019.0390

  23686872.300    23686869.820    23686874.300   124475377.0770   96993803.6220
  92952408.8600
  22185440.700    22185439.480    22185440.900   116585325.6880   90845712.4370
  87060504.6880
  24290222.920    24290221.540    24290222.540   127646195.6690   99464674.7540
  95320333.9570
 22  6 17  0 48 30.0000000  0 11G05G12G13G14G15G17G19G20G23G24G30
  22330462.100    22330458.180                   117347429.8550   91439569.5820

  25129602.640    25129602.420                   132056947.8790  102901516.0180

  20272476.800    20272471.420                   106532700.4140   83012554.9860

  22004291.380    22004287.420    22004291.880   115633484.9890   90104076.5310
  86349772.5730
  20472634.060    20472629.320                   107584514.0010   83832113.4090

  24008407.140    24008403.780                   126165074.9230   98310464.7320

  25024615.100    25024611.900                   131505257.6890  102471622.0080

  24353751.840    24353751.820                   127979843.3700   99724550.3080

  23672222.120    23672219.580    23672223.940   124398389.5700   96933813.4140
  92894918.2560
  22171056.300    22171055.220    22171056.340   116509735.5470   90786811.0800
  87004057.5620
  24306530.140    24306529.160    24306530.220   127731892.6270   99531451.5790
  95384328.4310
 22  6 17  0 49  0.0000000  0 11G05G12G13G14G15G17G19G20G23G24G30
  22348296.120    22348292.040                   117441147.6050   91512596.3570

  25106859.520    25106859.560                   131937432.9150  102808387.4730

  20276054.580    20276049.320                   106551501.8230   83027205.4130

  22016164.700    22016160.640    22016165.100   115695879.3860   90152695.5420
  86396365.7880
  20464354.460    20464349.840                   107541005.0870   83798210.3680

  23996856.420    23996852.540                   126104375.5220   98263166.4950

  25007490.440    25007487.900                   131415267.9500  102401500.4010

  24375122.980    24375122.480                   128092153.2550   99812052.1591

  23657650.940    23657648.380    23657652.560   124321817.2340   96874146.7110
  92837737.6840
  22156714.320    22156713.300    22156714.200   116434367.6790   90728082.9280
  86947776.4220
  24322842.700    24322842.000    24322842.880   127817617.2670   99598249.9640
  95448343.5600
 22  6 17  0 49 30.0000000  0 11G05G12G13G14G15G17G19G20G23G24G30
  22366186.300    22366182.200                   117535160.4710   91585853.0910

  25084118.480    25084118.680                   131817928.6610  102715267.3420

  20279703.020    20279697.820                   106570674.4670   83042145.1220

  22028122.760    22028118.840    22028123.240   115758719.8310   90201662.1050
  86443292.0660
  20456153.980    20456149.420                   107497911.5130   83764630.9650

  23985358.000    23985354.300                   126043950.9380   98216082.4340

  24990366.820    24990364.080                   131325283.0140  102331382.5010

  24396489.740    24396487.540                   128204419.0631   99899544.1361

  23643159.460    23643156.620    23643161.100   124245663.1150   96814805.9040
  92780869.4230
  22142414.720    22142413.760    22142414.720   116359223.1100   90669528.7700
  86891662.0280
  24339160.780    24339159.920    24339160.780   127903369.4080   99665069.7990
  95512379.2410
 22  6 17  0 50  0.0000000  0 11G05G12G13G14G15G17G19G20G23G24G30
  22384132.060    22384128.060                   117629466.2340   91659338.0620

  25061380.120    25061380.400                   131698437.7010  102622157.6490

  20283422.260    20283417.060                   106590219.1950   83057374.7740

  22040165.480    22040161.680    22040165.840   115822004.5070   90250974.8260
  86490550.1000
  20448033.060    20448028.480                   107455235.6090   83731377.0290

  23973912.720    23973909.300                   125983804.8290   98169215.3980

  24973244.660    24973241.560                   131235306.1630  102261270.8470

  24417851.980    24417850.140                   128316683.9050   99987024.0050

  23628748.320    23628745.020    23628749.580   124169930.1190   96755793.2450
  92724315.6330
  22128157.840    22128156.780    22128157.800   116284302.8360   90611149.3970
  86835715.1390
  24355484.440    24355483.060    24355484.060   127989148.9030   99731910.9510
  95576435.3450
 22  6 17  0 50 30.0000000  0 11G05G12G13G14G15G17G19G20G23G24G30
  22402132.760    22402128.960                   117724061.1820   91733048.3720

  25038644.760    25038644.660                   131578961.8320  102529059.7690

  20287212.140    20287207.000                   106610135.6240   83072894.0630

  22052292.100    22052288.300    22052292.520   115885730.5410   90300631.4610
  86538137.7050
  20439991.840    20439987.160                   107412978.3710   83698449.3210

  23962520.760    23962517.240                   125923939.7540   98122567.2750

  24956124.280    24956121.300                   131145339.9210  102191167.4620

  24439209.400    24439206.820                   128428921.5880  100074482.9600

  23614417.160    23614413.980    23614418.540   124094620.0430   96697110.1370
  92668077.6540
  22113943.640    22113942.420    22113943.600   116209606.6220   90552944.6140
  86779935.5710
  24371813.060    24371811.360    24371812.540   128074954.3250   99798772.2780
  95640510.7830
 22  6 17  0 51  0.0000000  0 11G05G12G13G14G15G17G19G20G23G24G30
  22420188.320    22420184.780                   117818945.1060   91806983.8480

  25015913.100    25015912.660                   131459505.5010  102435977.1000

  20291073.320    20291068.280                   106630426.8510   83088705.3940

  22064502.760    22064498.880    22064503.300   115949898.1230   90350632.1670
  86586055.0380
  20432031.060    20432026.320                   107371143.9930   83665851.1160

  23951182.820    23951179.540                   125864360.2140   98076141.7060

  24939006.840    24939004.120                   131055389.4840  102121076.3740

  24460561.400    24460559.200                   128541130.7260  100161919.0760

  23600167.440    23600163.980    23600168.700   124019737.7350   96638760.3290
  92612159.1120
  22099772.720    22099771.340    22099772.600   116135137.4540   90494916.7360
  86724325.5350
  24388146.880    24388144.940    24388146.280   128160787.5180   99865655.2570
  95704606.9340
 22  6 17  0 51 30.0000000  0 11G05G12G13G14G15G17G19G20G23G24G30
  22438297.680    22438294.120                   117914110.5770   91881138.7120

  24993184.480    24993184.060                   131340066.7370  102342908.0120

  20295005.280    20295000.140                   106651089.1300   83104805.8530

  22076796.240    22076792.400    22076796.840   116014500.7260   90400971.8510
  86634297.2430
  20424150.180    20424145.540                   107329730.0990   83633580.5580

  23939899.500    23939896.140                   125805064.6870   98029937.3920

  24921892.460    24921889.860                   130965453.8400  102050996.8670

  24481907.300    24481905.240                   128653305.7750  100249328.5300

  23585998.880    23585995.420    23586000.080   123945281.3550   96580742.4400
  92556558.6550
  22085644.200    22085642.760    22085644.140   116060891.4960   90437062.7860
  86668882.1880
  24404484.640    24404482.620    24404484.260   128246643.6590   99932556.1110
  95768720.1880
 22  6 17  0 52  0.0000000  0 11G05G12G13G14G15G17G19G20G23G24G30
  22456461.160    22456457.460                   118009559.2240   91955514.2500

  24970460.340    24970460.180                   131220652.9590  102249858.4800

  20299008.880    20299003.620                   106672127.5520   83121199.4300

  22089172.960    22089169.180    22089173.620   116079540.9520   90451652.5380
  86682866.2330
  20416350.580    20416345.980                   107288743.1110   83601642.6640

  23928671.440    23928667.880                   125746061.1960   97983960.6340

  24904782.760    24904779.820                   130875540.8610  101980934.9910

  24503247.220    24503245.560                   128765448.6680  100336712.6540

  23571912.660    23571909.440    23571914.080   123871258.1920   96523062.1270
  92501281.7100
  22071558.940    22071557.720    22071559.100   115986874.0640   90379386.9160
  86613609.4950
  24420827.360    24420825.920    24420827.320   128332526.8490   99999478.0130
  95832853.6640
 22  6 17  0 52 30.0000000  0 11G05G12G13G14G15G17G19G20G23G24G30
  22474677.520    22474673.740                   118105285.5120   92030106.1100

  24947740.500    24947740.840                   131101262.7380  102156827.2770

  20303083.320    20303078.080                   106693538.9890   83137883.6510

  22101632.040    22101628.000    22101632.520   116145013.0890   90502669.7760
  86731757.7430
  20408631.840    20408627.260                   107248180.8820   83570035.7340

  23917498.920    23917495.280                   125687348.7320   97938210.7020

  24887677.240    24887674.220                   130785650.2010  101910890.4150

  24524579.880    24524577.560                   128877551.0710  100424064.3810

  23557908.460    23557905.400    23557910.140   123797667.1850   96465718.5430
  92446327.4430
  22057516.480    22057515.720    22057516.780   115913082.2200   90321886.8420
  86558505.2610
  24437174.300    24437173.700    24437174.920   128418433.1390  100066417.8780
  95897004.3540
 22  6 17  0 53  0.0000000  0 11G05G12G13G14G15G17G19G20G23G24G30
  22492947.000    22492943.140                   118201291.3470   92104915.7980

  24925026.800    24925027.460                   130981904.0770  102063820.7550

  20307229.880    20307224.680                   106715329.2350   83154863.0530

  22114174.000    22114169.700    22114174.060   116210920.2360   90554025.9940
  86780974.1220
  20400995.320    20400990.740                   107208050.8380   83538765.5800

  23906383.440    23906379.760                   125628935.6500   97892694.0170

  24870577.300    24870573.860                   130695790.2530  101840869.7970

  24545906.180    24545903.820                   128989619.0030  100511389.4120

  23543988.220    23543985.140    23543989.740   123724516.1930   96408717.8250
  92391701.7790
  22043518.180    22043517.580    22043518.520   115839521.8970   90264567.1610
  86503573.9020
  24453527.260    24453526.560    24453527.660   128504367.1420  100133379.3890
  95961175.8000
 22  6 17  0 53 30.0000000  0 11G05G12G13G14G15G17G19G20G23G24G30
  22511266.980    22511263.040                   118297563.5030   92179932.9860

  24902317.960    24902318.620                   130862568.9460  101970832.6580

  20311446.720    20311441.640                   106737488.9520   83172130.3550

  22126796.240    22126791.760    22126796.060   116277250.0790   90605711.5840
  86830506.1420
  20393439.500    20393434.880                   107168344.8570   83507825.8620

  23895323.300    23895319.560                   125570814.6790   97847404.9610

  24853482.040    24853478.180                   130605954.1260  101770867.7090

  24567223.300    24567220.700                   129101639.0150  100598677.1190

  23530149.940    23530147.080    23530151.760   123651797.5370   96352053.9990
  92337398.9600
  22029562.400    22029561.660    22029562.620   115766183.4840   90207420.3960
  86448808.2620
  24469883.460    24469882.660    24469883.240   128590318.2390  100200354.2620
  96025360.0830
 22  6 17  0 54  0.0000000  0 11G05G12G13G14G15G17G19G20G23G24G30
  22529638.780    22529634.720                   118394107.3040   92255161.8570

  24879615.840    24879616.140                   130743267.9660  101877871.1800

  20315735.300    20315730.260                   106760025.6920   83189691.4410

  22139499.800    22139495.360    22139499.640   116344007.8030   90657730.5920
  86880357.6970
  20385966.060    20385961.480                   107129071.9190   83477223.5860

  23884320.660    23884316.800                   125512995.5810   97802351.1530

  24836393.120    24836389.740                   130516152.6250  101700892.5820

  24588532.260    24588530.040                   129213616.1490  100685931.5530

  23516395.840    23516393.160    23516397.980   123579521.0200   96295734.7040
  92283426.3220
  22015650.560    22015649.380    22015650.560   115693074.9260   90150452.7380
  86394214.2740
  24486244.000    24486243.240    24486243.500   128676293.1970  100267347.6560
  96089562.1110
 22  6 17  0 54 30.0000000  0 11G05G12G13G14G15G17G19G20G23G24G30
  22548061.180    22548057.120                   118490917.1510   92330598.0340

  24856920.300    24856920.000                   130624000.7170  101784935.9060

  20320095.340    20320090.260                   106782937.8940   83207545.0980

  22152283.920    22152279.720    22152283.780   116411189.0330   90710079.5880
  86930525.4850
  20378574.980    20378570.380                   107090231.4080   83446958.2630

  23873375.580    23873371.960                   125455479.5010   97757533.4330

  24819311.120    24819307.920                   130426386.6270  101630945.2230

  24609832.600    24609829.620                   129325545.6270  100773148.8090

  23502726.340    23502723.640    23502728.480   123507687.0050   96239760.2030
  92229784.1030
  22001781.960    22001780.620    22001781.940   115620194.6310   90093662.9430
  86339790.7260
  24502608.420    24502607.480    24502608.420   128762289.4510  100334357.6420
  96153779.9900
 22  6 17  0 55  0.0000000  0 11G05G12G13G14G15G17G19G20G23G24G30
  22566533.740    22566529.700                   118587991.2880   92406240.1470

  24834231.680    24834230.940                   130504770.3310  101692029.3860

  20324527.080    20324521.960                   106806226.8240   83225692.3100

  22165148.200    22165144.180    22165148.380   116478792.1900   90762757.3730
  86981008.3520
  20371266.580    20371262.040                   107051825.6310   83417031.6950

  23862488.720    23862485.600                   125398269.4910   97712954.2430

  24802236.280    24802233.560                   130336659.6970  101561028.3380

  24631123.180    24631119.800                   129437425.3010  100860340.3791

  23489141.820    23489139.240    23489143.580   123436298.5830   96184132.9100
  92176474.6240
  21987956.820    21987955.620    21987956.740   115547543.7970   90037051.9610
  86285538.5470
  24518977.180    24518975.900    24518977.420   128848307.1530  100401384.4390
  96218013.9950
 22  6 17  0 55 30.0000000  0 11G05G12G13G14G15G17G19G20G23G24G30
  22585055.980    22585051.980                   118685326.4370   92482085.6540

  24811550.240    24811549.380                   130385579.0690  101599153.4940

  20329030.600    20329025.520                   106829892.9600   83244133.4490

  22178092.440    22178088.500    22178092.920   116546815.0960   90815762.2300
  87031804.6820
  20364041.320    20364036.700                   107013856.4650   83387445.3400

  23851660.660    23851657.420                   125341368.4950   97668615.7920

  24785169.820    24785166.980                   130246975.3090  101491144.5940

  24652403.780    24652400.420                   129549252.9940  100947478.4170

  23475642.240    23475639.520    23475643.940   123365358.1980   96128854.7470
  92123499.7350
  21974175.500    21974174.420    21974175.400   115475123.0500   89980620.2690
  86231458.1870
  24535350.080    24535348.640    24535350.200   128934345.8150  100468427.5650
  96282263.6310
 22  6 17  0 56  0.0000000  0 11G05G12G13G14G15G17G19G20G23G24G30
  22603627.700    22603623.620                   118782920.4780   92558132.8850

  24788876.320    24788875.820                   130266429.7270  101506310.1270

  20333606.080    20333601.060                   106853937.0800   83262869.1150

  22191116.100    22191112.280    22191116.860   116615255.8260   90869092.6570
  87082912.9960
  20356899.500    20356894.860                   106976326.0080   83358200.8390

  23840892.160    23840888.860                   125284779.4590   97624520.4680

  24768112.240    24768108.740                   130157336.9060  101421296.6430

  24673674.120    24673671.420                   129661026.6550  101034574.2140

  23462228.620    23462225.440    23462230.100   123294868.6130   96073927.8650
  92070861.4700
  21960438.280    21960437.100    21960437.960   115402933.2380   89924368.5100
  86177550.2600
  24551726.740    24551725.360    24551726.880   129020405.2450  100535486.8500
  96346528.7470
 22  6 17  0 56 30.0000000  0 11G05G12G13G14G15G17G19G20G23G24G30
  22622247.800    22622243.600                   118880768.6000   92634378.1190

  24766210.720    24766210.300                   130147322.9790  101413499.9810

  20338253.100    20338248.180                   106878357.3880   83281897.9220

  22204218.660    22204214.820    22204219.420   116684110.1100   90922745.3420
  87134330.1560
  20349841.140    20349836.480                   106939234.1650   83329298.1120

  23830183.600    23830180.240                   125228503.4290   97580669.0260

  24751063.660    24751059.640                   130067745.7820  101351485.4760

  24694933.200    24694930.800                   129772741.4100  101121624.1030

  23448900.700    23448897.560    23448902.300   123224830.2090   96019352.5150
  92018560.1180
  21946744.660    21946743.400    21946744.360   115330972.9840   89868295.6300
  86123813.7620
  24568106.680    24568105.420    24568106.740   129106482.9050  100602560.3270
  96410807.4990
 22  6 17  0 57  0.0000000  0 11G05G12G13G14G15G17G19G20G23G24G30
  22640915.360    22640911.180                   118978867.0610   92710818.4030

  24743553.700    24743553.340                   130028260.4970  101320724.3770

  20342971.640    20342966.700                   106903153.5930   83301219.6310

  22217399.420    22217395.440    22217400.120   116753375.0110   90976717.9900
  87186053.9340
  20342866.440    20342861.820                   106902581.7170   83300737.7770

  23819534.640    23819531.280                   125172542.3090   97537062.9860

  24734024.600    24734020.560                   129978204.4290  101281713.0950

  24716180.400    24716178.440                   129884394.0710  101208625.6360

  23435658.920    23435656.040    23435660.760   123155244.7060   95965130.0830
  91966596.9660
  21933094.660    21933093.320    21933094.460   115259241.9700   89812401.3810
  86070248.4630
  24584489.740    24584488.620    24584490.040   129192577.5070  100669646.9890
  96475098.8710
 22  6 17  0 57 30.0000000  0 11G05G12G13G14G15G17G19G20G23G24G30
  22659631.160    22659627.140                   119077219.0180   92787456.2320

  24720906.940    24720906.300                   129909251.0830  101227990.1370

  20347763.040    20347757.940                   106928332.4470   83320839.5140

  22230658.960    22230654.960    22230659.440   116823054.3300   91031013.5550
  87238087.1860
  20335976.740    20335972.220                   106866376.3980   83272525.8490

  23808947.100    23808943.460                   125116904.8550   97493709.1370

  24716996.580    24716992.420                   129888722.0260  101211986.7220

  24737416.400    24737414.820                   129995988.3390  101295581.7370

  23422504.920    23422501.980    23422506.720   123086120.5210   95911267.1360
  91914978.3310
  21919489.600    21919488.100    21919489.340   115187746.9110   89756690.9920
  86016859.3440
  24600877.160    24600876.400    24600877.360   129278694.7180  100736751.2990
  96539407.1300
 22  6 17  0 58  0.0000000  0 11G05G12G13G14G15G17G19G20G23G24G30
  22678392.880    22678389.220                   119175813.4260   92864282.9570

  24698268.960    24698267.940                   129790288.7090  101135292.5140

  20352625.780    20352620.580                   106953886.3970   83340751.6770

  22243995.560    22243991.360    22243995.840   116893137.9400   91085624.1700
  87290422.3510
  20329171.020    20329166.620                   106830612.1800   83244657.6370

  23798420.240    23798416.620                   125061586.0690   97450603.6250

  24699978.760    24699975.000                   129799293.9320  101142302.6590

  24758639.220    24758637.900                   130107513.9800  101382484.2490

  23409437.860    23409434.420    23409439.460   123017452.2480   95857759.4350
  91863700.1280
  21905928.060    21905926.520    21905927.800   115116480.5160   89701158.7780
  85963640.9700
  24617267.560    24617266.880    24617267.220   129364826.1240  100803866.6430
  96603726.0380
 22  6 17  0 58 30.0000000  0 11G05G12G13G14G15G17G19G20G23G24G30
  22697201.180    22697197.660                   119274652.2270   92941300.1310

  24675641.080    24675639.760                   129671380.2910  101042636.9870

  20357560.800    20357555.660                   106979820.2990   83360959.9120

  22257409.400    22257405.240    22257409.660   116963627.7510   91140551.2950
  87343060.8580
  20322450.300    20322445.960                   106795294.9890   83217137.7620

  23787955.560    23787951.860                   125006592.7530   97407751.7090

  24682972.840    24682969.180                   129709927.7450  101072666.7950

  24779849.300    24779848.120                   130218972.7700  101469334.7440

  23396458.700    23396455.480    23396460.220   122949246.5220   95804612.1530
  91812767.3160
  21892410.840    21892409.340    21892410.720   115045447.6290   89645808.5290
  85910597.0150
  24633661.480    24633660.620    24633661.100   129450975.5750  100870996.0200
  96668058.3680
 22  6 17  0 59  0.0000000  0 11G05G12G13G14G15G17G19G20G23G24G30
  22716055.540    22716051.940                   119373731.8370   93018504.9650

  24653023.500    24653022.120                   129552527.2150  100950024.5030

  20362568.040    20362563.000                   107006133.4490   83381463.6620

  22270899.860    22270895.740    22270900.280   117034520.8010   91195792.6230
  87396000.4700
  20315814.920    20315810.440                   106760425.5430   83189966.7690

  23777552.780    23777549.020                   124951926.8530   97365154.9340

  24665979.200    24665975.180                   129620625.6980  101003080.8770

  24801046.400    24801044.840                   130330361.1930  101556130.4260

  23383567.900    23383564.960    23383569.420   122881504.7140   95751826.3630
  91762180.9560
  21878937.740    21878936.620    21878937.960   114974647.8550   89590639.9500
  85857727.1270
  24650058.540    24650057.360    24650058.440   129537141.7790  100938138.5170
  96732403.2650
 22  6 17  0 59 30.0000000  0 11G05G12G13G14G15G17G19G20G23G24G30
  22734955.240    22734951.680                   119473049.8660   93095895.5680

  24630417.300    24630415.840                   129433733.0210  100857457.9440

  20367647.840    20367642.700                   107032827.2770   83402264.0470

  22284466.880    22284462.680    22284467.260   117105815.5680   91251346.9870
  87449240.0500
  20309265.240    20309260.560                   106726006.3080   83163146.5990

  23767212.940    23767209.180                   124897592.0900   97322816.2130

  24648998.380    24648994.400                   129531391.9480  100933548.2320

  24822229.980    24822228.580                   130441678.0650  101642870.4680

  23370766.180    23370762.800    23370767.160   122814230.0520   95699404.6080
  91711943.4390
  21865509.660    21865508.460    21865509.800   114904082.5950   89535654.0900
  85805032.3520
  24666458.720    24666457.120    24666458.660   129623325.0260  101005294.2900
  96796760.8700
 22  6 17  1  0  0.0000000  0 11G05G12G13G14G15G17G19G20G23G24G30
  22753899.200    22753895.580                   119572600.3890   93173467.3400

  24607822.580    24607820.980                   129314997.7300  100764937.4160

  20372799.500    20372794.320                   107059899.4750   83423359.2600

  22298109.320    22298105.080    22298109.760   117177507.0400   91307210.4590
  87502775.8900
  20302801.000    20302796.200                   106692036.2820   83136676.4630

  23756936.140    23756932.360                   124843588.1190   97280735.2010

  24632030.460    24632026.960                   129442226.7420  100864069.0350

  24843399.040    24843397.500                   130552918.4430  101729550.9700

  23358053.080    23358049.580    23358054.000   122747422.2130   95647346.5890
  91662054.5000
  21852125.900    21852124.600    21852125.640   114833749.7280   89480849.3140
  85752511.1170
  24682861.320    24682859.280    24682861.220   129709522.0480  101072460.7540
  96861128.7250
 22  6 17  1  0 30.0000000  0 11G05G12G13G14G15G17G19G20G23G24G30
  22772886.680    22772882.940                   119672379.3210   93251217.1180

  24585239.000    24585237.100                   129196321.2200  100672462.4420

  20378022.840    20378017.580                   107087348.6220   83444748.1870

  22311826.460    22311822.240    22311826.760   117249591.0530   91363379.8140
  87556604.8480
  20296422.200    20296417.400                   106658515.4590   83110556.3420

  23746722.480    23746718.660                   124789915.9330   97238912.7200

  24615076.180    24615072.800                   129353131.9960  100794644.7400

  24864552.160    24864550.720                   130664077.7610  101816168.4490

  23345428.820    23345425.380    23345429.960   122681081.6370   95595652.6700
  91612514.4980
  21838785.920    21838784.660    21838785.600   114763647.8760   89426224.5330
  85700162.3840
  24699266.100    24699264.300    24699266.340   129795730.5790  101139636.1280
  96925505.0980
 22  6 17  1  1  0.0000000  0 11G05G12G13G14G15G17G19G20G23G24G30
  22791918.520    22791914.880                   119772392.1260   93329149.1170

  24562668.780    24562666.720                   129077714.7460  100580042.0410

  20383319.660    20383314.380                   107115183.5410   83466437.7330

  22325619.420    22325615.360    22325619.780   117322073.9350   91419859.9720
  87610731.6770
  20290130.760    20290126.140                   106625454.1130   83084794.2600

  23736574.180    23736570.560                   124736586.8210   97197357.5890

  24598137.520    24598134.160                   129264119.4020  100725284.5140

  24885690.780    24885689.620                   130775162.2460  101902727.7830

  23332895.680    23332892.200    23332896.820   122615219.2600   95544331.3730
  91563331.6010
  21825491.660    21825490.380    21825491.260   114693786.2470   89371786.9610
  85647993.0580
  24715674.840    24715673.460    24715675.220   129881959.0060  101206827.0260
  96989896.3380
 22  6 17  1  1 30.0000000  0 11G05G12G13G14G15G17G19G20G23G24G30
  22810992.760    22810989.260                   119872628.5040   93407255.2810

  24540110.920    24540108.800                   128959173.5140  100487672.3970

  20388688.600    20388683.300                   107143397.0780   83488422.3070

  22339486.320    22339482.400    22339486.680   117394946.0430   91476643.4300
  87665149.1540
  20283925.680    20283921.180                   106592846.3630   83059385.6380

  23726490.760    23726486.860                   124683596.4070   97156066.3630

  24581213.500    24581210.040                   129175184.7260  100655984.9820

  24906813.080    24906812.220                   130886162.1030  101989221.2830

  23320452.540    23320448.880    23320453.720   122549829.9760   95493378.7120
  91514501.9750
  21812241.940    21812240.560    21812241.480   114624158.0510   89317531.2780
  85595998.0380
  24732085.840    24732084.820    24732086.340   129968199.3220  101274027.2290
  97054296.5150
 22  6 17  1  2  0.0000000  0 11G05G12G13G14G15G17G19G20G23G24G30
  22830108.920    22830105.520                   119973085.2670   93485533.1840

  24517565.920    24517563.800                   128840699.5850  100395355.2050

  20394129.540    20394124.320                   107171989.3470   83510701.9950

  22353426.880    22353422.960    22353427.300   117468204.4380   91533727.8980
  87719855.0980
  20277807.120    20277802.560                   106560693.0370   83034331.1100

  23716471.920    23716468.280                   124630946.3750   97115040.3680

  24564305.000    24564301.160                   129086330.5320  100586748.0990

  24927918.580    24927917.860                   130997074.1460  102075646.3910

  23308099.320    23308096.020    23308100.700   122484915.4640   95442796.0250
  91466026.9050
  21799036.680    21799035.180    21799036.040   114554763.2160   89263457.4340
  85544177.2960
  24748499.180    24748497.900    24748499.640   130054450.5710  101341235.9440
  97118704.8570
 22  6 17  1  2 30.0000000  0 11G05G12G13G14G15G17G19G20G23G24G30
  22849267.220    22849263.980                   120073763.0710   93563983.3000

  24495034.820    24495032.740                   128722298.6390  100303094.7740

  20399643.340    20399638.180                   107200964.7330   83533280.2070

  22367441.400    22367437.360    22367441.720   117541850.7650   91591114.6480
  87774850.7350
  20271776.160    20271771.440                   106528999.8370   83009635.1100

  23706519.180    23706515.380                   124578643.4980   97074284.8840

  24547413.360    24547409.460                   128997564.2150  100517579.6880

  24949007.800    24949007.140                   131107900.0820  102162004.5190

  23295838.080    23295834.780    23295839.240   122420481.9550   95392588.1290
  91417911.0200
  21785876.480    21785875.080    21785875.800   114485606.1720   89209568.8890
  85492534.1060
  24764915.140    24764913.480    24764915.500   130140716.2510  101408455.8490
  97183123.8860
 22  6 17  1  3  0.0000000  0 11G05G12G13G14G15G17G19G20G23G24G30
  22868466.120    22868462.920                   120174653.3220   93642598.9780

  24472517.260    24472515.280                   128603968.3850  100210889.3660

  20405228.980    20405223.800                   107230317.5610   83556152.5350

  22381528.040    22381524.220    22381528.660   117615877.2590   91648797.6230
  87830130.2510
  20265831.880    20265827.220                   106497763.0630   82985294.7810

  23696631.740    23696627.980                   124526684.8920   97033797.6970

  24530538.040    24530534.100                   128908883.3970  100448477.8440

  24970079.360    24970078.220                   131218632.0950  102248289.4630

  23283667.700    23283664.440    23283669.040   122356526.2630   95342752.5570
  91370151.9330
  21772760.660    21772759.140    21772759.980   114416682.0410   89155861.8220
  85441064.8440
  24781332.720    24781331.060    24781332.680   130226990.4460  101475682.4090
  97247549.3250
 22  6 17  1  3 30.0000000  0 11G05G12G13G14G15G17G19G20G23G24G30
  22887707.000    22887703.600                   120275763.5860   93721386.0940

  24450015.400    24450013.440                   128485720.4020  100118748.1870

  20410888.400    20410883.180                   107260057.9110   83579326.8300

  22395688.380    22395684.620    22395689.120   117690290.6470   91706782.0730
  87885698.6900
  20259976.640    20259972.000                   106466993.5870   82961318.5700

  23686812.120    23686808.460                   124475082.2860   96993587.8900

  24513681.060    24513677.160                   128820300.6070  100379452.3830

  24991134.120    24991133.140                   131329276.2650  102334505.9040

  23271590.260    23271586.980    23271591.960   122293059.6970   95293298.1230
  91322758.1140
  21759690.920    21759689.440    21759690.260   114348000.4510   89102343.7260
  85389776.6670
  24797753.480    24797751.860    24797753.340   130313281.8150  101542922.2990
  97311987.5220
 22  6 17  1  4  0.0000000  0 11G05G12G13G14G15G17G19G20G23G24G30
  22906987.120    22906983.600                   120377080.5000   93800334.2460

  24427527.780    24427525.820                   128367547.3610  100026665.3570

  20416619.700    20416614.600                   107290176.3900   83602795.7750

  22409920.280    22409916.360    22409920.980   117765079.1430   91765058.8250
  87941547.2300
  20254208.760    20254204.180                   106436683.0760   82937700.0020

  23677058.640    23677055.320                   124423828.7450   96953650.1340

  24496841.540    24496837.740                   128731809.5200  100310498.3670

  25012170.020    25012169.640                   131439821.5200  102420645.3270

  23259604.680    23259601.240    23259606.120   122230074.9860   95244219.1820
  91275724.1190
  21746665.460    21746664.100    21746665.080   114279552.4320   89049007.6620
  85338662.9550
  24814175.380    24814174.280    24814175.600   130399580.5990  101610167.9960
  97376431.3330
 22  6 17  1  4 30.0000000  0 11G05G12G13G14G15G17G19G20G23G24G30
  22926307.080    22926303.600                   120478607.4060   93879446.0290

  24405056.020    24405053.980                   128249457.8150   99934647.6880

  20422424.080    20422419.080                   107320679.0410   83626564.0620

  22424224.080    22424220.240    22424224.740   117840246.2560   91823630.5990
  87997678.5180
  20248529.700    20248525.100                   106406839.0650   82914444.9410

  23667373.480    23667370.040                   124372932.7070   96913990.9040

  24480021.440    24480017.480                   128643419.1530  100241622.7550

  25033187.420    25033187.020                   131550271.1070  102506710.2660

  23247712.200    23247708.960    23247713.660   122167580.2150   95195521.9890
  91229055.9850
  21733685.820    21733684.480    21733685.560   114211344.4260   88995858.6140
  85287728.4640
  24830599.780    24830599.080    24830600.160   130485892.1940  101677423.6850
  97440884.7130
 22  6 17  1  5  0.0000000  0 11G05G12G13G14G15G17G19G20G23G24G30
  22945665.680    22945662.460                   120580337.9040   93958716.4490

  24382599.940    24382598.000                   128131450.9910   99842694.4640

  20428301.100    20428296.120                   107351563.4470   83650629.8260

  22438598.880    22438595.040    22438599.460   117915786.6340   91882493.2190
  88054088.5230
  20242939.080    20242934.500                   106377460.1190   82891552.2600

  23657756.040    23657752.900                   124322393.7460   96874609.9490

  24463220.280    24463216.360                   128555130.1120  100172826.0970

  25054185.600    25054186.320                   131660619.5710  102592705.2481

  23235912.700    23235909.860    23235914.480   122105574.5170   95147205.8770
  91182753.0510
  21720751.440    21720749.980    21720751.240   114143373.8740   88942894.5940
  85236971.2890
  24847026.340    24847025.560    24847026.620   130572213.1800  101744686.7030
  97505345.1170
 22  6 17  1  5 30.0000000  0 11G05G12G13G14G15G17G19G20G23G24G30
  22965063.000    22965059.980                   120682271.8160   94038145.3870

  24360160.340    24360158.620                   128013531.0010   99750808.8620

  20434251.180    20434246.240                   107382831.6810   83674994.6860

  22453044.740    22453040.900    22453045.040   117991699.7200   91941646.2810
  88110776.8780
  20237437.620    20237433.020                   106348549.6200   82869024.6090

  23648207.740    23648204.300                   124272216.6230   96835510.9390

  24446439.300    24446435.360                   128466947.2140  100104112.1960

  25075164.860                                   131770892.4281

  23224207.300    23224204.440    23224209.080   122044061.8910   95099274.0000
  91136818.3530
  21707862.780    21707861.180    21707862.420   114075643.1880   88890117.4900
  85186393.2510
  24863454.840    24863454.040    24863454.940   130658544.7660  101811957.9310
  97569813.3520
 22  6 17  1  6  0.0000000  0 10G05G12G13G14G15G17G19G23G24G30
  22984498.040    22984494.920                   120784403.2230   94117728.2170

  24337737.340    24337735.780                   127895698.1570   99658991.0990

  20440273.960    20440269.040                   107414481.6010   83699656.9550

  22467560.640    22467556.760    22467560.980   118067980.7720   92001086.0580
  88167739.9760
  20232025.120    20232020.500                   106320106.8430   82846861.4140

  23638728.200    23638724.800                   124222401.3380   96796693.9080

  24429679.420    24429675.300                   128378871.7450  100035482.0190

  23212595.580    23212592.600    23212597.220   121983042.1090   95051726.1540
  91091251.6610
  21695019.340    21695017.780    21695018.800   114008150.4520   88837525.8050
  85135992.8850
  24879884.820    24879883.700    24879885.360   130744884.4500  101879235.5590
  97634287.6770
 22  6 17  1  6 30.0000000  0 10G05G12G13G14G15G17G19G23G24G30
  23003970.080    23003966.680                   120886727.7310   94197461.4880

  24315331.160    24315329.680                   127777953.4490   99567242.0290

  20446369.180    20446364.280                   107446511.9740   83724615.6860

  22482145.820    22482142.060    22482146.280   118144626.1000   92060809.6640
  88224975.1170
  20226701.520    20226696.960                   106292131.8620   82825062.7270

  23629317.640    23629314.120                   124172948.6040   96758159.3360

  24412940.000    24412936.040                   128290905.4880   99966936.9870

  23201077.880    23201074.780    23201079.420   121922515.9840   95004562.9550
  91046053.6150
  21682221.040    21682219.480    21682220.520   113940894.8710   88785118.8900
  85085769.6090
  24896316.040    24896314.660    24896316.840   130831230.2680  101946517.9600
  97698766.6030
 22  6 17  1  7  0.0000000  0 10G05G12G13G14G15G17G19G23G24G30
  23023479.240    23023475.640                   120989247.3220   94277346.7560

  24292943.340    24292941.720                   127660304.2930   99475567.3820

  20452537.680    20452532.760                   107478927.8030   83749874.7580

  22496800.780    22496796.920    22496801.180   118221638.0490   92120818.9680
  88282484.0280
  20221468.220    20221463.660                   106264630.9810   82803633.4780

  23619977.420    23619973.960                   124123865.9440   96719913.1410

  24396222.840    24396219.080                   128203056.3880   99898483.2550

  23189655.620    23189652.560    23189656.900   121862490.3630   94957789.7720
  91001229.3130
  21669468.680    21669467.320    21669468.320   113873881.6450   88732900.8550
  85035727.3350
  24912749.120    24912747.960    24912750.120   130917586.7260  102013808.6330
  97763253.4610
 22  6 17  1  7 30.0000000  0 10G05G12G13G14G15G17G19G23G24G30
  23043023.600    23043019.880                   121091952.7940   94357376.8920

  24270572.980    24270571.080                   127542746.3490   99383963.8880

  20458778.380    20458773.360                   107511722.7740   83775429.2650

  22511523.620    22511519.920    22511524.300   118299007.7650   92181107.0300
  88340260.0840
  20216324.340    20216319.660                   106237599.2840   82782569.8300

  23610707.020    23610703.460                   124075149.6370   96681952.4130

  24379527.760    24379523.420                   128115321.3400   99830118.3970

  23178327.580    23178324.360    23178328.840   121802960.7850   94911403.1230
  90956775.4480
  21656761.260    21656759.980    21656761.060   113807104.8060   88680867.0050
  84985861.5780
  24929182.720    24929181.800    24929183.920   131003946.7990  102081102.0960
  97827742.9960
 22  6 17  1  8  0.0000000  0 10G05G12G13G14G15G17G19G23G24G30
  23062604.360    23062600.680                   121194850.2560   94437556.6280

  24248222.180    24248219.920                   127425291.1720   99292440.4780

  20465093.080    20465087.940                   107544906.4280   83801286.6520

  22526315.860    22526311.940    22526316.760   118376741.6290   92241678.8620
  88398308.0850
  20211271.740    20211266.920                   106211046.8670   82761879.6350

  23601508.560    23601504.880                   124026810.9180   96644285.9000

  24362856.160    24362851.620                   128027712.2890   99761851.6870

  23167095.920    23167092.500    23167097.100   121743938.2370   94865411.5550
  90912700.1920
  21644100.740    21644099.380    21644100.540   113740573.7150   88629024.6400
  84936179.3280
  24945618.880    24945618.120    24945620.120   131090318.9090  102148404.9100
  97892241.4890
 22  6 17  1  8 30.0000000  0 10G05G12G13G14G15G17G19G23G24G30
  23082219.480    23082216.000                   121297928.9070   94517877.5730

  24225889.760    24225887.500                   127307933.2890   99200992.8360

  20471480.260    20471475.220                   107578471.0700   83827440.9100

  22541175.660    22541171.480    22541176.420   118454829.6930   92302526.6920
  88456620.5910
  20206309.040    20206304.240                   106184967.5160   82741558.0690

  23592380.760    23592377.160                   123978844.5800   96606909.5810

  24346207.700    24346203.220                   127940224.6960   99693679.6140

  23155959.640    23155956.340    23155960.940   121685417.1500   94819810.7330
  90868999.4120
  21631485.720    21631484.360    21631485.440   113674281.2540   88577368.2280
  84886675.2740
  24962056.200    24962055.260    24962057.000   131176695.2520  102215711.0730
  97956743.2700
 22  6 17  1  9  0.0000000  0 10G05G12G13G14G15G17G19G23G24G30
  23101869.180    23101866.180                   121401189.6600   94598340.3830

  24203576.860    24203574.720                   127190678.9440   99109625.9660

  20477940.700    20477935.740                   107612420.5650   83853895.0600

  22556103.000    22556098.820    22556103.840   118533273.0210   92363651.3340
  88515198.3710
  20201437.220    20201432.520                   106159366.2620   82721609.0440

  23583325.300    23583321.480                   123931256.6500   96569828.1010

  24329584.040    24329579.380                   127852865.8430   99625607.8620

  23144919.840    23144916.380    23144921.200   121627403.0010   94774604.9210
  90825677.1840
  21618916.920    21618915.600    21618916.580   113608231.3670   88525900.8250
  84837352.3510
  24978494.900    24978493.900    24978495.240   131263078.8360  102283022.8360
  98021250.3740
 22  6 17  1  9 30.0000000  0 10G05G12G13G14G15G17G19G23G24G30
  23121552.860    23121550.100                   121504628.2780   94678941.7700

  24181284.000    24181281.800                   127073529.7970   99018340.9980

  20484474.340    20484469.320                   107646754.6670   83880648.9040

  22571097.360    22571093.120    22571098.240   118612068.7990   92425050.6210
  88574039.3450
  20196656.700    20196651.960                   106134244.3390   82702033.5240

  23574341.840    23574338.300                   123884049.2240   96533043.1620

  24312985.220    24312980.360                   127765638.3870   99557638.4770

  23133976.760    23133973.340    23133978.260   121569897.4580   94729795.4360
  90782734.7560
  21606394.180    21606392.860    21606393.720   113542424.1500   88474622.5270
  84788210.6590
  24994934.440    24994933.500    24994934.320   131349468.7420  102350339.5870
  98085762.2380
 22  6 17  1 10  0.0000000  0 10G05G12G13G14G15G17G19G23G24G30
  23141270.280    23141267.320                   121608242.9500   94759680.3570

  24159011.520    24159009.380                   126956488.0130   98927139.7160

  20491081.220    20491076.080                   107681473.6150   83907702.6310

  22586158.360    22586154.100    22586159.100   118691214.5810   92486722.6490
  88633141.7030
  20191967.780    20191962.840                   106109603.1920   82682832.6420

  23565431.240    23565427.620                   123837224.5140   96496556.4180

  24296411.540    24296407.220                   127678545.2880   99489773.8190

  23123131.020    23123127.640    23123132.340   121512902.4680   94685383.7690
  90740173.5860
  21593917.620    21593916.380    21593917.100   113476860.0660   88423533.6850
  84739250.5150
  25011374.900    25011374.020    25011374.880   131435864.7070  102417661.1220
  98150278.7270
 22  6 17  1 10 30.0000000  0 11G05G10G12G13G14G15G17G19G23G24G30
  23161020.220    23161016.980                   121712027.8040   94840551.5320

  25699052.660    25699052.320    25699050.900   135049432.4721  105233321.1161
 100848595.1691
  24136759.800    24136757.280                   126839554.5850   98836022.8450

  20497760.840    20497755.640                   107716575.0520   83935054.3900

  22601285.080    22601281.040    22601285.620   118770705.6950   92548663.7480
  88692501.9190
  20187370.140    20187364.960                   106085441.8730   82664005.6380

  23556593.440    23556590.020                   123790782.7150   96460368.0640

  24279864.100    24279859.860                   127591588.0540   99422015.0440

  23112382.400    23112379.200    23112383.280   121456417.7310   94641369.7200
  90697993.4680
  21581487.100    21581485.720    21581486.460   113411537.3240   88372632.8960
  84690470.6060
  25027816.180    25027815.340    25027816.160   131522263.9720  102484985.1980
  98214797.6290
 22  6 17  1 11  0.0000000  0 11G05G10G12G13G14G15G17G19G23G24G30
  23180802.520    23180799.060                   121815983.0600   94921555.4910

  25681050.900    25681048.760    25681047.880   134954826.0530  105159601.8630
 100777947.5480
  24114529.560    24114526.920                   126722734.4290   98744994.2380

  20504513.840    20504508.600                   107752062.3960   83962706.8480

  22616477.580    22616473.620    22616477.980   118850542.7160   92610874.3850
  88752120.4360
  20182864.460    20182859.280                   106061764.5250   82645555.7650

  23547829.800    23547826.560                   123744729.1400   96424482.2210

  24263343.780    24263339.540                   127504772.7030   99354366.8600

  23101731.860    23101728.540    23101732.660   121400448.2400   94597757.1350
  90656198.0850
  21569103.160    21569101.720    21569102.500   113346459.4000   88321922.8800
  84641873.5170
  25044258.480    25044257.440    25044258.580   131608669.2120  102552313.9480
  98279320.9860
 22  6 17  1 11 30.0000000  0 11G05G10G12G13G14G15G17G19G23G24G30
  23200615.740    23200612.200                   121920102.1230   95002687.0710

  25663095.440    25663093.220    25663092.720   134860469.4630  105086077.2860
 100707486.5170
  24092320.500    24092318.020                   126606025.9030   98654052.6610

  20511339.500    20511334.340                   107787931.6260   83990656.8870

  22631734.680    22631730.600    22631734.860   118930719.1180   92673349.4750
  88811992.3950
  20178450.260    20178445.280                   106038568.4780   82627480.9270

  23539139.760    23539136.120                   123699062.3930   96388897.7710

  24246850.000    24246845.780                   127418098.5130   99286828.6240

  23091178.860    23091175.380    23091179.840   121344991.8540   94554544.3890
  90614785.8700
  21556765.160    21556763.620    21556764.540   113281622.6830   88271400.8010
  84593456.5370
  25060700.840    25060700.100    25060701.360   131695076.0130  102619643.8900
  98343845.5150
 22  6 17  1 12  0.0000000  0 11G05G10G12G13G14G15G17G19G23G24G30
  23220459.760    23220456.520                   122024383.4330   95083945.0670

  25645187.480    25645186.340    25645186.020   134766367.0730  105012750.8070
 100637215.3380
  24070133.420    24070131.220                   126489433.2330   98563201.3810

  20518238.280    20518233.100                   107824184.8050   84018906.1050

  22647056.360    22647052.020    22647056.440   119011234.3780   92736088.6010
  88872117.3840
  20174128.240    20174123.520                   106015857.0530   82609783.7150

  23530524.040    23530520.340                   123653786.6420   96353618.0330

  24230384.280    24230379.640                   127331570.8800   99219404.5930

  23080724.300    23080720.740    23080725.060   121290052.3470   94511734.4120
  90573759.6360
  21544473.500    21544471.760    21544472.980   113217029.5240   88221068.5170
  84545221.4500
  25077144.300    25077143.540    25077144.860   131781485.7170  102686976.1070
  98408372.1900
 22  6 17  1 12 30.0000000  0 11G05G10G12G13G14G15G17G19G23G24G30
  23240334.400    23240331.420                   122128824.8220   95165327.8180

  25627328.320    25627328.560    25627327.980   134672522.3180  104939625.0940
 100567136.4840
  24047969.200    24047967.020                   126372959.5390   98472442.8020

  20525210.260    20525205.180                   107860822.8600   84047455.2280

  22662442.020    22662437.520    22662442.160   119092086.6900   92799090.3710
  88932494.0730
  20169898.980    20169894.320                   105993632.2730   82592465.7110

  23521983.400    23521979.200                   123608904.5930   96318645.0260

  24213947.180    24213942.280                   127245192.9010   99152097.1600

  23070368.580    23070364.840    23070369.400   121235632.2800   94469329.1880
  90533121.3060
  21532228.400    21532226.560    21532227.920   113152681.0500   88170926.8830
  84497169.0650
  25093588.020    25093587.160    25093588.920   131867898.6190  102754310.7440
  98472901.2070
 22  6 17  1 13  0.0000000  0 11G05G10G12G13G14G15G17G19G23G24G30
  23260239.420    23260236.640                   122233425.9930   95246835.0890

  25609519.720    25609520.500    25609519.540   134578940.0210  104866703.8490
 100497253.6240
  24025828.560    24025826.160                   126256609.7300   98381780.7780

  20532255.860    20532250.820                   107897847.9110   84076305.9110

  22677891.660    22677887.140    22677891.980   119173275.8480   92862354.6190
  88993122.3030
  20165763.100    20165758.320                   105971897.7090   82575529.6930

  23513518.340    23513514.360                   123564421.1040   96283982.6200

  24197539.320    24197534.860                   127158970.7350   99084911.1560

  23060112.300    23060108.600    23060113.400   121181735.8160   94427331.9720
  90492873.9620
  21520030.380    21520028.440    21520029.760   113088579.9570   88120978.0280
  84449301.4210
  25110032.960    25110031.800    25110033.960   131954316.6500  102821649.4380
  98537434.0580
 22  6 17  1 13 30.0000000  0 11G05G10G12G13G14G15G17G19G23G24G30
  23280173.360    23280170.600                   122338178.9010   95328460.5850

  25591761.480    25591761.940    25591760.860   134485617.9700  104793985.4300
 100427565.1690
  24003710.860    24003708.140                   126140380.7570   98291212.9320

  20539374.200    20539369.100                   107935255.1480   84105454.3910

  22693404.060    22693399.580    22693404.520   119254794.4880   92925875.6040
  89053996.5770
  20161719.840    20161714.860                   105950649.7670   82558972.8610

  23505128.820    23505124.560                   123520333.3770   96249628.5470

  24181160.920    24181156.640                   127072902.8740   99017845.3780

  23049954.960    23049951.660    23049956.400   121128359.8480   94385740.3230
  90453015.3080
  21507878.560    21507876.620    21507877.880   113024721.7980   88071218.4630
  84401615.1810
  25126477.940    25126476.960    25126478.600   132040734.5290  102888988.0000
  98601966.8440
 22  6 17  1 14  0.0000000  0 11G05G10G12G13G14G15G17G19G23G24G30
  23300136.660    23300133.840                   122443086.1460   95410206.3740

  25574054.640    25574054.380    25574053.460   134392564.6760  104721476.3540
 100358077.3410
  23981617.700    23981614.860                   126024281.0930   98200745.8190

  20546566.340    20546561.220                   107973050.3220   84134905.1640

  22708979.860    22708975.560    22708980.280   119336645.7910   92989655.8220
  89115119.2760
  20157770.420    20157765.420                   105929895.3510   82542800.6030

  23496815.800    23496811.780                   123476649.7090   96215589.3870

  24164813.660    24164809.340                   126986997.9580   98950906.6210

  23039898.080    23039895.000    23039899.660   121075511.8930   94344560.1120
  90413550.9400
  21495773.940    21495772.220    21495773.440   112961112.6520   88021652.9500
  84354114.9150
  25142923.600    25142922.980    25142924.040   132127157.5520  102956330.5790
  98666503.4720
 22  6 17  1 14 30.0000000  0 11G05G10G12G13G14G15G17G19G23G24G30
  23320127.360    23320124.360                   122548137.5470   95492064.4740

  25556397.380    25556396.820    25556396.160   134299774.8830  104649172.7090
 100288786.3430
  23959548.180    23959545.160                   125908305.3820   98110375.2620

  20553830.920    20553825.820                   108011226.1970   84164652.5810

  22724617.060    22724612.920    22724617.380   119418819.7210   93053687.4090
  89176482.8820
  20153913.680    20153908.720                   105909628.2770   82527008.0800

  23488578.860    23488574.940                   123433364.6020   96181860.7860

  24148496.600    24148492.260                   126901251.8430   98884091.6230

  23029940.640    23029937.760    23029942.220   121023186.0960   94303786.7770
  90374476.5090
  21483715.620    21483713.800    21483715.060   112897745.3800   87972275.9000
  84306795.2540
  25159368.580    25159368.300    25159369.060   132213577.5960  103023670.8210
  98731037.9260
 22  6 17  1 15  0.0000000  0 11G05G10G12G13G14G15G17G19G23G24G30
  23340146.460    23340143.340                   122653337.5030   95574038.3320

  25538791.360    25538791.100    25538790.840   134207259.0190  104577082.4580
 100219699.8700
  23937504.040    23937501.100                   125792463.1540   98020108.7080

  20561169.480    20561164.360                   108049790.4040   84194702.6030

  22740316.700    22740312.660    22740316.980   119501321.2660   93117974.3000
  89238091.1350
  20150151.280    20150146.420                   105889856.9600   82511601.8670

  23480419.620    23480415.540                   123390487.7690   96148450.2950

  24132211.760    24132207.400                   126815675.1860   98817408.6600

  23020084.500    23020081.560    23020086.080   120971391.8390   94263427.6190
  90335798.9770
  21471704.820    21471703.020    21471704.040   112834627.9450   87923093.5320
  84259662.1490
  25175814.440    25175814.440    25175815.180   132300002.0770  103091014.5300
  98795575.6310
 22  6 17  1 15 30.0000000  0 11G05G10G12G13G14G15G17G19G23G24G30
  23360192.060    23360188.720                   122758675.9090   95656120.0860

  25521237.060    25521237.220    25521236.700   134115012.9310  104505202.5140
 100150814.9080
  23915484.600    23915481.660                   125676750.7860   97929943.2980

  20568580.600    20568575.500                   108088735.9260   84225049.7540

  22756076.980    22756072.920    22756077.060   119584141.3770   93182509.4180
  89299937.2760
  20146482.420    20146477.560                   105870576.6110   82496578.2140

  23472336.980    23472333.340                   123348014.7230   96115354.4840

  24115958.620    24115954.480                   126730264.4480   98750854.9330

  23010328.620    23010325.760    23010330.140   120920124.1800   94223478.8110
  90297514.7100
  21459740.180    21459738.520    21459739.400   112771754.0780   87874100.9600
  84212710.9500
  25192260.000    25192260.120    25192260.420   132386423.7600  103158356.0300
  98860111.2510
 22  6 17  1 16  0.0000000  0 11G05G10G12G13G14G15G17G19G23G24G30
  23380264.800    23380261.100                   122864156.8540   95738312.9540

  25503736.660    25503736.520    25503735.740   134023045.6480  104433539.6540
 100082137.9800
  23893491.320    23893488.600                   125561176.5360   97839885.5190

  20576065.460    20576060.520                   108128069.4650   84255699.2600

  22771898.420    22771894.620    22771898.420   119667283.7340   93247295.6340
  89362024.0620
  20142908.340    20142903.420                   105851794.3180   82481942.6670

  23464333.380    23464329.360                   123305954.3020   96082580.1710

  24099739.120    24099734.900                   126645029.3940   98684438.1590

  23000674.500    23000671.680    23000675.900   120869391.1460   94183946.6110
  90259629.6810
  21447823.140    21447821.600    21447822.420   112709130.4860   87825303.4110
  84165946.6380
  25208706.200    25208705.920    25208706.600   132472848.4020  103225699.8880
  98924649.1090
 22  6 17  1 16 30.0000000  0 11G05G10G12G13G14G15G17G19G23G24G30
  23400363.320    23400359.640                   122969774.3150   95820612.1840

  25486289.240    25486288.700    25486287.820   133931356.9580  104362093.9560
 100013669.2560
  23871524.300    23871521.920                   125445740.0420   97749935.0670

  20583623.640    20583618.760                   108167788.1660   84286648.8890

  22787780.340    22787776.460    22787780.340   119750743.1590   93312328.9230
  89424347.6270
  20139428.700    20139423.720                   105833508.5780   82467694.0480

  23456407.760    23456403.960                   123264305.7260   96050126.8190

  24083552.880    24083548.360                   126559970.2600   98618158.4270

  22991121.920    22991118.880    22991123.160   120819191.7490   94144830.2060
  90222143.1270
  21435953.220    21435951.740    21435952.680   112646754.8830   87776699.1020
  84119367.5150
  25225152.620    25225151.780    25225152.920   132559273.0750  103293043.7260
  98989186.9320
 22  6 17  1 17  0.0000000  0 11G05G10G12G13G14G15G17G19G23G24G30
  23420486.540    23420483.360                   123075523.1120   95903013.7300

  25468895.000    25468894.000    25468893.040   133839947.4560  104290865.8050
  99945408.9150
  23849583.440    23849581.260                   125330441.2240   97660091.8940

  20591254.820    20591249.780                   108207889.7480   84317896.8690

  22803721.500    22803717.740    22803721.800   119834514.9800   93377605.6360
  89486904.4680
  20136043.280    20136038.320                   105815718.5780   82453831.7180

  23448560.680    23448556.740                   123223068.9580   96017994.3040

  24067400.220    24067395.380                   126475088.3180   98552016.7750

  22981670.840    22981667.360    22981671.920   120769525.4580   94106129.2100
  90185054.6740
  21424130.100    21424128.600    21424129.900   112584625.4420   87728286.5920
  84072972.2040
  25241598.160    25241597.400    25241598.480   132645695.2840  103360385.7080
  99053722.9660
 22  6 17  1 17 30.0000000  0 11G05G10G12G13G14G15G17G19G23G24G30
  23440634.860    23440632.120                   123181404.6980   95985518.7500

  25451554.260    25451553.740    25451552.560   133748823.9640  104219860.4970
  99877362.1880
  23827670.220    23827668.220                   125215287.3770   97570361.6500

  20598959.700    20598954.500                   108248378.4510   84349446.5020

  22819722.400    22819718.820    22819723.040   119918601.0890   93443127.2220
  89549695.9820
  20132753.140    20132748.320                   105798429.6790   82440359.8590

  23440793.200    23440789.380                   123182250.3200   95986187.6280

  24051282.800    24051277.840                   126390391.2870   98486019.2100

  22972322.420    22972318.580    22972323.440   120720398.2880   94067848.3110
  90148368.8210
  21412355.180    21412353.480    21412354.860   112522746.9790   87680069.6390
  84026764.3100
  25258044.000    25258043.560    25258044.040   132732118.8910  103427728.6860
  99118259.9920
 22  6 17  1 18  0.0000000  0 11G05G10G12G13G14G15G17G19G23G24G30
  23460807.140    23460804.780                   123287412.0850   96068121.7850

  25434267.940    25434267.880    25434266.680   133657985.8360  104149077.6180
  99809528.5640
  23805784.380    23805782.460                   125100277.1690   97480743.3370

  20606737.560    20606732.380                   108289251.2710   84381295.4400

  22835782.180    22835778.340    22835782.780   120002995.5180   93508889.0950
  89612717.7720
  20129558.060    20129553.280                   105781639.5420   82427276.6330

  23433105.080    23433101.200                   123141848.8950   95954706.0250

  24035200.540    24035195.760                   126305878.9290   98420165.5060

  22963076.200    22963072.420    22963077.100   120671808.5250   94029986.1730
  90112084.2750
  21400627.420    21400625.720    21400626.940   112461116.5220   87632045.9570
  83980741.6210
  25274489.540    25274488.800    25274489.880   132818540.2450  103495070.0100
  99182795.3720
 22  6 17  1 18 30.0000000  0 11G05G10G12G13G14G15G17G19G23G24G30
  23481003.060    23481000.600                   123393542.3030   96150820.5770

  25417036.540    25417036.400    25417035.540   133567434.4510  104078518.0930
  99741909.0400
  23783926.240    23783924.180                   124985411.6570   97391237.7780

  20614588.160    20614583.100                   108330506.7840   84413442.5870

  22851899.920    22851895.900    22851900.760   120087694.7090   93574888.4440
  89675967.1250
  20126458.060    20126453.220                   105765348.2670   82414582.1430

  23425496.720    23425492.580                   123101865.6720   95923550.2950

  24019153.780    24019148.920                   126221553.3220   98354457.3310

  22953932.060    22953928.420    22953933.140   120623756.6310   93992543.1560
  90076201.3820
  21388946.540    21388944.840    21388946.120   112399733.2620   87584214.8940
  83934903.5290
  25290934.300    25290933.720    25290935.160   132904957.6250  103562408.1600
  99247327.7480
 22  6 17  1 19  0.0000000  0 11G05G10G12G13G14G15G17G19G23G24G30
  23501222.440    23501219.720                   123499794.8670   96233614.6880

  25399860.960    25399860.460    25399859.960   133477175.2210  104008186.2270
  99674507.6980
  23762096.720    23762094.420                   124870696.3350   97301849.2220

  20622512.240    20622507.120                   108372147.6690   84445890.0200

  22868075.620    22868071.660    22868076.600   120172698.7150   93641125.2950
  89739444.1150
  20123453.680    20123448.760                   105749559.6470   82402279.3200

  23417968.800    23417964.480                   123062305.5890   95892724.2950

  24003143.860    24003138.720                   126137420.1050   98288899.0430

  22944891.080    22944887.780    22944892.320   120576246.9450   93955522.6260
  90040723.3790
  21377313.340    21377311.640    21377312.940   112338600.3410   87536578.8890
  83889252.3790
  25307379.120    25307378.260    25307379.740   132991373.6110  103629745.2310
  99311859.0980
 22  6 17  1 19 30.0000000  0 11G05G10G12G13G14G15G17G19G23G24G30
  23521464.680    23521461.700                   123606167.5470   96316502.4000

  25382741.880    25382740.360    25382740.340   133387211.1650  103938084.4300
  99607326.8020
  23740296.480    23740293.900                   124756133.9190   97212579.7960

  20630509.760    20630504.600                   108414174.5000   84478638.1950

  22884309.040    22884305.080    22884309.880   120258005.6290   93707598.1880
  89803147.2880
  20120545.060    20120540.240                   105734275.3740   82390369.5050

  23410521.860    23410517.340                   123023170.8800   95862229.7210

  23987171.240    23987166.260                   126053483.4090   98223493.9060

  22935953.840    22935950.640    22935955.060   120529281.5160   93918926.2040
  90005651.8120
  21365727.780    21365726.240    21365727.440   112277718.6800   87489138.6850
  83843788.8480
  25323823.640    25323822.300    25323824.140   133077788.1030  103697081.1530
  99376389.3550
 22  6 17  1 20  0.0000000  0 11G05G10G12G13G14G15G17G19G23G24G30
  23541728.420    23541725.540                   123712654.3190   96399479.0180

  25365678.360    25365677.260    25365677.060   133297542.7190  103868212.9580
  99540366.6420
  23718525.180    23718522.420                   124641724.2900   97123429.4250

  20638580.020    20638574.980                   108456584.6670   84511685.0690

  22900599.160    22900595.480    22900600.200   120343610.7420   93774303.4450
  89867073.1500
  20117732.340    20117727.460                   105719494.3170   82378851.8030

  23403155.480    23403151.220                   122984461.4660   95832066.5620

  23971236.020    23971231.120                   125969744.2200   98158242.6650

  22927120.120    22927116.800    22927121.120   120482859.7940   93882753.4400
  89970986.2540
  21354189.780    21354188.320    21354189.460   112217086.5060   87441892.8800
  83798511.6280
  25340267.340    25340265.900    25340267.540   133164198.8370  103764414.1580
  99440916.8320
 22  6 17  1 20 30.0000000  0 11G05G10G12G13G14G15G17G19G23G24G30
  23562013.760    23562011.140                   123819254.2270   96482543.7770

  25348671.860    25348671.260    25348670.680   133208173.6810  103798574.7710
  99473630.0520
  23696783.460    23696780.820                   124527470.8430   97034400.7700

  20646723.560    20646718.680                   108499379.9450   84545032.0280

  22916945.800    22916942.300    22916946.780   120429512.7030   93841239.9880
  89931220.6780
  20115015.860    20115010.900                   105705218.7220   82367727.9670

  23395870.780    23395866.460                   122946180.5720   95802237.3060

  23955339.440    23955334.240                   125886206.9730   98093148.7940

  22918390.200    22918386.940    22918391.260   120436984.4070   93847006.3910
  89936728.6690
  21342699.560    21342698.220    21342699.160   112156705.3000   87394842.6350
  83753421.8270
  25356709.500    25356708.800    25356710.500   133250606.4320  103831744.7270
  99505441.9660
 22  6 17  1 21  0.0000000  0 11G05G10G12G13G14G15G17G19G23G24G30
  23582320.820    23582318.200                   123925967.5150   96565696.9020

  25331723.620    25331723.540    25331722.160   133119110.3570  103729174.7640
  99407121.7490
  23675072.560    23675070.040                   124413379.9320   96945498.7820

  20654941.220    20654936.200                   108542563.7740   84578681.7510

  22933349.260    22933345.640    22933350.200   120515712.6920   93908408.7640
  89995590.7570
  20112396.500    20112391.480                   105691453.4530   82357001.7850

  23388668.880    23388664.380                   122908334.2240   95772746.6720

  23939482.400    23939477.160                   125802878.4480   98028217.5640

  22909765.200    22909762.060    22909766.520   120391660.6190   93811689.1480
  89902882.9850
  21331257.980    21331256.600    21331257.520   112096579.2280   87347991.1870
  83708522.5250
  25373152.260    25373151.520    25373153.060   133337014.3650  103899075.5680
  99569967.3670
 22  6 17  1 21 30.0000000  0 11G05G10G12G13G14G15G17G19G23G24G30
  23602647.840    23602645.180                   124032785.6360   96648931.7380

  25314832.900    25314832.860    25314831.540   133030349.5630  103660010.5830
  99340839.4030
  23653392.100    23653389.400                   124299448.1770   96856720.8590

  20663231.660    20663226.580                   108586129.9050   84612629.3830

  22949807.820    22949804.120    22949809.000   120602202.4590   93975803.3650
  90060177.2320
  20109873.140    20109868.220                   105678193.7190   82346669.5350

  23381548.840    23381544.540                   122870918.6740   95743591.7060

  23923664.600    23923659.360                   125719756.3520   97963447.1920

  22901244.580    22901241.420    22901245.700   120346884.1700   93776798.4240
  89869446.0400
  21319863.840    21319862.300    21319863.320   112036702.9210   87301334.3770
  83663809.7630
  25389593.700    25389593.220    25389594.780   133423416.4920  103966401.9470
  99634488.4410
 22  6 17  1 22  0.0000000  0 11G05G10G12G13G14G15G17G19G23G24G30
  23622994.320    23622991.680                   124139706.4870   96732246.5830

  25298000.300    25298000.360    25297998.960   132941894.4470  103591084.5420
  99274785.2340
  23631742.300    23631739.600                   124185678.5090   96768069.2470

  20671594.880    20671589.880                   108630079.1320   84646875.5160

  22966321.140    22966317.360    22966322.240   120688980.0530   94043422.2360
  90124978.6350
  20107446.340    20107441.400                   105665440.8910   82336732.2670

  23374511.060    23374506.960                   122833936.2830   95714774.2770

  23907886.740    23907881.940                   125636844.2970   97898840.4880

  22892828.640    22892825.400    22892829.820   120302657.1240   93742335.7950
  89836419.3500
  21308517.500    21308515.780    21308516.940   111977077.3360   87254872.9130
  83619284.2050
  25406034.560    25406033.680    25406035.320   133509812.9480  104033723.9000
  99699005.3420
 22  6 17  1 22 30.0000000  0 11G05G10G12G13G14G15G17G19G23G24G30
  23643359.940    23643357.260                   124246728.2320   96815640.0360

  25281226.620    25281227.300    25281225.400   132853748.9040  103522399.7140
  99208962.2890
  23610123.780    23610121.560                   124072074.4880   96679546.7370

  20680031.200    20680026.280                   108674412.4770   84681420.9770

  22982889.020    22982885.000    22982889.880   120776044.3160   94111264.4790
  90189994.1170
  20105116.560    20105111.560                   105653197.7780   82327192.1930

  23367556.600    23367552.620                   122797390.5350   95686297.1040

  23892150.000    23892145.140                   125554147.0440   97834401.1190

  22884517.680    22884514.600    22884518.860   120258982.2690   93708303.4570
  89803805.0160
  21297219.260    21297217.460    21297218.660   111917704.2160   87208608.2020
  83574947.1900
  25422474.460    25422473.420    25422475.180   133596204.5490  104101042.0370
  99763518.5290
 22  6 17  1 23  0.0000000  0 11G05G10G12G13G14G15G17G19G23G24G30
  23663744.460    23663741.740                   124353849.2640   96899110.8080

  25264513.140    25264513.040    25264511.760   132765917.1660  103453959.4090
  99143373.7010
  23588537.900    23588535.620                   123958640.0670   96591156.3780

  20688541.000    20688536.000                   108719131.5050   84716266.9610

  22999511.200    22999507.040    22999512.080   120863394.2440   94179329.3260
  90255222.9120
  20102884.200    20102879.240                   105641466.7020   82318051.1050

  23360686.000    23360681.820                   122761284.8370   95658162.8090

  23876454.900    23876449.600                   125471668.9760   97770132.5890

  22876312.300    22876309.040    22876313.480   120215862.5640   93674703.6770
  89771605.2350
  21285969.420    21285967.520    21285968.720   111858585.4560   87162541.6730
  83530800.1110
  25438913.520    25438912.620    25438914.140   133682592.6180  104168357.2800
  99828028.9380
 22  6 17  1 23 30.0000000  0 11G05G10G12G13G14G15G17G19G23G24G30
  23684147.120    23684144.340                   124461064.7620   96982655.1840

  25247859.300    25247858.220    25247857.380   132678399.7190  103385764.0080
  99078019.8060
  23566984.180    23566982.080                   123845375.2770   96502898.2390

  20697123.840    20697118.720                   108764234.2160   84751411.9160

  23016186.900    23016182.680    23016187.680   120951025.3150   94247613.2520
  90320661.6680
  20100749.020    20100744.120                   105630246.5780   82309308.1600

  23353898.820    23353895.200                   122725619.3630   95630371.5720

  23860801.900    23860796.700                   125389411.8580   97706036.2560

  22868212.360    22868209.120    22868213.700   120173297.4420   93641536.0470
  89739819.5890
  21274767.540    21274765.680    21274766.800   111799719.4480   87116672.0960
  83486841.7790
  25455351.600    25455351.000    25455352.380   133768975.3900  104235668.5640
  99892535.6100
 22  6 17  1 24  0.0000000  0 11G05G10G12G13G14G15G17G19G23G24G30
  23704568.020    23704565.120                   124568376.0650   97066274.2540

  25231266.260    25231265.740    25231264.320   132591203.1700  103317818.6840
  99012905.5400
  23545464.000    23545462.000                   123732286.5640   96414777.3300

  20705780.340    20705775.180                   108809724.2330   84786858.6770

  23032916.220    23032911.960    23032916.960   121038939.0770   94316117.4550
  90386311.5110
  20098712.060    20098707.200                   105619542.3210   82300967.1840

  23347196.500    23347193.120                   122690399.7840   95602927.7810

  23845192.280    23845187.320                   125307382.7300   97642117.5470

  22860219.120    22860215.700    22860220.440   120131292.2910   93608804.7650
  89708452.1100
  21263614.520    21263612.820    21263613.820   111741110.6180   87071002.9190
  83443075.4820
  25471789.260    25471788.860    25471790.120   133855355.9870  104302978.1450
  99957040.6270
 22  6 17  1 24 30.0000000  0 11G05G10G12G13G14G15G17G19G23G24G30
  23725004.720    23725001.740                   124675771.2100   97149958.6450

  25214732.720    25214733.420    25214731.560   132504321.1270  103250118.3940
  98948026.0900
  23523976.060    23523973.900                   123619367.1450   96326788.3500

  20714508.760    20714503.640                   108855592.4690   84822600.1570

  23049697.140    23049692.980    23049698.080   121127123.9450   94384832.9120
  90452163.8240
  20096771.780    20096766.900                   105609346.0120   82293022.0250

  23340578.040    23340574.520                   122655619.1500   95575826.0160

  23829624.900    23829619.920                   125225575.7590   97578371.9480

  22852331.000    22852327.360    22852332.040   120089839.4520   93576503.8510
  89677497.0720
  21252508.840    21252507.200    21252508.100   111682750.2960   87025527.3910
  83399494.7850
  25488224.880    25488224.240    25488225.880   133941725.2120  104370278.9190
 100021537.2280
 22  6 17  1 25  0.0000000  0 11G05G10G12G13G14G15G17G19G23G24G30
  23745457.940    23745455.200                   124783254.1400   97233711.4080

  25198261.360    25198262.000    25198260.520   132417763.2340  103182670.7170
  98883388.7260
  23502522.300    23502519.920                   123506626.9490   96238939.0130

  20723310.500    20723305.460                   108901845.9720   84858641.8370

  23066530.500    23066526.720    23066531.580   121215584.5480   94453763.2010
  90518222.0220
  20094929.660    20094924.740                   105599665.6880   82285478.9170

  23334045.000    23334041.260                   122621286.4690   95549073.2870

  23814101.480    23814096.360                   125144000.9740   97514807.2740

  22844549.380    22844545.960    22844550.680   120048947.4170   93544639.9090
  89646960.7960
  21241452.000    21241450.280    21241451.140   111624646.0250   86980251.3690
  83356105.2660
  25504659.740    25504658.340    25504660.400   134028089.5810  104437575.8140
 100086030.0260
 22  6 17  1 25 30.0000000  0 11G05G10G12G13G14G15G17G19G23G24G30
  23765927.620    23765925.080                   124890823.1470   97317531.2890

  25181852.300    25181852.360    25181851.160   132331532.7680  103115478.1360
  98818995.8610
  23481103.080    23481100.580                   123394068.7530   96151231.5120

  20732185.660    20732180.740                   108948485.2500   84894984.1280

  23083416.220    23083412.540    23083417.380   121304319.1110   94522906.9820
  90584484.8220
  20093186.100    20093181.120                   105590503.1020   82278339.2500

  23327597.620    23327593.720                   122587404.1580   95522671.5210

  23798623.340    23798618.080                   125062662.9020   97451427.0460

  22836874.840    22836871.520    22836876.440   120008618.2510   93513214.5940
  89616844.8650
  21230444.080    21230442.260    21230443.180   111566798.8580   86935175.6950
  83312907.7570
  25521093.700    25521092.420    25521094.120   134114450.0610  104504869.6430
 100150520.0070
 22  6 17  1 26  0.0000000  0 11G05G10G12G13G14G15G17G19G23G24G30
  23786411.900    23786409.360                   124998467.7270   97401410.0230

  25165504.480    25165504.380    25165503.780   132245625.0720  103048537.0230
  98754843.9630
  23459717.740    23459714.860                   123281687.4440   96063661.7980

  20741132.860    20741127.940                   108995503.0740   84931621.3810

  23100352.220    23100348.500    23100353.620   121393317.8980   94592256.6550
  90650944.9090
  20091539.820    20091534.840                   105581851.7770   82271597.9620

  23321234.860    23321230.840                   122553967.1050   95496616.6930

  23783189.620    23783183.940                   124981557.1180   97388227.8100

  22829306.360    22829303.120    22829308.000   119968846.0250   93482223.2510
  89587144.8200
  21219483.720    21219481.860    21219482.940   111509202.0220   86890295.0760
  83269897.1620
  25537524.980    25537524.300    25537525.160   134200798.8410  104572154.4030
 100215001.2610
 22  6 17  1 26 30.0000000  0 11G05G10G12G13G14G15G17G19G23G24G30
  23806911.920    23806909.320                   125106195.0950   97485353.2460

  25149220.460    25149220.840    25149220.140   132160053.2670  102981857.7560
  98690942.9790
  23438368.360    23438365.400                   123169496.1990   95976240.2000

  20750153.920    20750149.040                   109042909.4010   84968561.3550

  23117339.900    23117336.240    23117341.400   121482589.0510   94661818.5510
  90717608.3770
  20089993.000    20089988.100                   105573723.3720   82265264.1400

  23314959.020    23314955.180                   122520987.8850   95470918.6160

  23767802.340    23767797.040                   124900697.7950   97325220.6360

  22821846.240    22821842.940    22821847.740   119929642.6830   93451675.1940
  89557869.6090
  21208573.080    21208571.160    21208572.300   111451866.5080   86845618.0830
  83227081.7280
  25553955.880    25553955.660    25553956.340   134287146.1760  104639438.1350
 100279481.5000
 22  6 17  1 27  0.0000000  0 11G05G10G12G13G14G15G17G19G23G24G30
  23827425.600    23827422.920                   125213994.0130   97569352.2250

  25132999.660    25132999.340    25132999.160   132074811.4190  102915435.5510
  98627288.3560
  23417053.820    23417050.980                   123057488.6160   95888961.7130

  20759247.300    20759242.480                   109090695.9080   85005797.5790

  23134377.440    23134373.740    23134378.780   121572121.4910   94731584.0650
  90784466.9870
  20088544.280    20088539.340                   105566110.1790   82259331.7900

  23308768.980    23308765.320                   122488459.5940   95445571.9220

  23752461.080    23752455.940                   124820079.5890   97262401.3380

  22814493.020    22814489.680    22814494.380   119891000.9040   93421564.7110
  89529013.7350
  21197710.680    21197708.720    21197709.720   111394784.1550   86801138.3540
  83184455.3350
  25570385.040    25570384.980    25570385.980   134373483.2560  104706713.7550
 100343953.9800
 22  6 17  1 27 30.0000000  0 11G05G10G12G13G14G15G17G19G23G24G30
  23847953.180    23847950.520                   125321866.8090   97653408.7770

  25116842.840    25116842.040    25116842.300   131989906.2180  102849275.6720
  98563885.1470
  23395775.380    23395772.840                   122945670.9910   95801831.2740

  20768413.740    20768409.060                   109138866.4770   85043333.0750

  23151464.860    23151461.200    23151466.180   121661916.8860   94801554.4740
  90851521.9480
  20087194.640    20087189.520                   105559017.3210   82253804.8830

  23302666.080    23302662.240                   122456388.1410   95420581.2040

  23737167.120    23737161.640                   124739709.3080   97199775.2150

  22807247.740    22807244.320    22807248.800   119852926.1090   93391896.0540
  89500581.2760
  21186897.440    21186895.340    21186896.240   111337959.4990   86756859.4300
  83142021.3660
  25586813.600    25586813.180    25586814.560   134459813.9850  104773984.4220
 100408421.6520
 22  6 17  1 28  0.0000000  0 11G05G10G12G13G14G15G17G19G23G24G30
  23868493.440    23868491.260                   125429807.7390   97737518.4080

  25100749.960    25100749.560    25100749.400   131905337.7750  102783378.2010
  98500733.4000
  23374533.260    23374530.700                   122834042.6870   95714848.3320

  20777652.880    20777648.240                   109187418.4830   85081165.8060

  23168601.420    23168597.820    23168602.580   121751970.3190   94871725.9660
  90918769.5990
  20085943.580    20085938.340                   105552442.7300   82248681.8400

  23296650.000    23296646.000                   122424773.0170   95395946.0680

  23721920.560    23721915.040                   124659588.1230   97137343.1980

  22800110.100    22800106.500    22800111.040   119815417.0930   93362668.2570
  89472571.2980
  21176132.780    21176130.660    21176131.440   111281390.5480   86712779.7670
  83099778.3540
  25603240.240    25603239.940    25603241.360   134546135.8440  104841248.3020
 100472882.8800
 22  6 17  1 28 30.0000000  0 11G05G10G12G13G14G15G17G19G23G24G30
  23889046.620    23889045.040                   125537817.0050   97821681.2820

  25084722.540    25084722.200    25084721.420   131821112.5500  102717748.1590
  98437837.9430
  23353328.500    23353325.820                   122722611.3620   95628018.8820

  20786965.160    20786960.500                   109236355.1650   85119298.2720

  23185787.260    23185783.940    23185788.280   121842283.1910   94942099.5890
  90986210.9950
  20084792.100    20084786.940                   105546391.6120   82243966.6810

  23290721.720    23290717.460                   122393620.2870   95371671.2370

  23706722.740    23706717.300                   124579723.5580   97075111.1430

  22793081.040    22793077.460    22793082.120   119778478.9810   93333885.3310
  89444987.6630
  21165417.460    21165415.420    21165416.220   111225081.5210   86668902.6340
  83057729.4520
  25619666.000    25619665.220    25619666.900   134632452.1500  104908507.8350
 100537339.9270
 22  6 17  1 29  0.0000000  0 10G05G10G12G13G14G15G17G19G23G24
  23909611.800    23909610.420                   125645886.8750   97905891.3560

  25068759.800    25068759.680    25068758.800   131737227.3250  102652383.0860
  98375196.4440
  23332160.380    23332157.620                   122611372.8690   95541339.6770

  20796349.700    20796345.020                   109285671.0530   85157726.2200

  23203021.180    23203017.640    23203021.920   121932847.3030   95012668.9880
  91053840.0110
  20083739.240    20083734.240                   105540859.0320   82239655.5730

  23284880.500    23284876.460                   122362925.6850   95347753.3880

  23691573.320    23691567.800                   124500113.0360   97013077.0180

  22786159.680    22786156.180    22786160.780   119742107.2300   93305543.7120
  89417826.9560
  21154750.540    21154748.620    21154749.460   111169027.1330   86625223.9160
  83015870.6850
 22  6 17  1 29 30.0000000  0 11G05G10G12G13G14G15G17G19G23G24G30
  23930189.220    23930187.480                   125754019.4270   97990150.3030

  25052862.960    25052862.620    25052861.900   131653690.1100  102587289.1600
  98312814.7750
  23311030.380    23311027.520                   122500334.7780   95454816.6300

  20805807.480    20805802.740                   109335371.4500   85196453.7920

  23220303.420    23220299.940    23220304.140   122023665.6320   95083436.5070
  91121658.8690
  20082786.200    20082781.260                   105535851.1490   82235753.3290

  23279128.040    23279123.980                   122332696.3090   95324198.0570

  23676473.840    23676468.140                   124420764.8150   96951247.3190

  22779347.400    22779343.940    22779348.560   119706308.4290   93277648.5620
  89391094.1080
  21144133.260    21144131.360    21144132.320   111113233.2230   86581748.1750
  82974206.4390
  25652509.980    25652510.160    25652511.120
 100665961.3571
 22  6 17  1 30  0.0000000  0 11G05G10G12G13G14G15G17G19G23G24G30
  23950777.700    23950775.680                   125862210.0420   98074454.4840

  25037032.820    25037032.180    25037030.900   131570501.2980  102522466.7630
  98250693.2970
  23289938.580    23289935.640                   122389497.7140   95368450.2230

  20815337.900    20815333.020                   109385453.8270   85235479.0040

  23237633.020    23237629.740    23237634.020   122114733.6020   95154398.5060
  91189664.1210
  20081932.820    20081927.820                   105531366.4280   82232258.7410

  23273464.080    23273460.060                   122302931.5830   95301004.7700

  23661424.580    23661418.920                   124341680.2070   96889622.9840

  22772644.120    22772640.520    22772645.060   119671081.6110   93250199.1180
  89364788.4010
  21133565.200    21133563.260    21133564.400   111057698.1160   86538474.0880
  82932735.4490
  25668931.980    25668930.580    25668931.660   134891133.8881  105109975.2871
 100730398.7280
 22  6 17  1 30 30.0000000  0 10G05G10G12G13G14G15G17G19G23G24
  23971375.340    23971373.200                   125970450.3960   98158797.4330

  25021268.360    25021267.780    25021265.780   131487658.2370  102457913.7590
  98188830.0090
  23268884.540    23268881.480                   122278858.5340   95282238.0020

  20824940.000    20824935.000                   109435912.7780   85274797.6590

  23255008.740    23255005.380    23255009.780   122206043.4540   95225548.9950
  91257850.0120
  20081178.260    20081173.180                   105527400.8990   82229168.7270

  23267887.840    23267883.720                   122273628.4700   95278171.1980

  23646424.920    23646419.840                   124262857.1820   96828202.5020

  22766048.720    22766045.080    22766049.660   119636422.6920   93223192.2030
  89338906.7880
  21123045.580    21123043.480    21123044.740   111002416.9580   86495397.8900
  82891454.1040
 22  6 17  1 31  0.0000000  0 10G05G10G12G13G14G15G17G19G23G24
  23991983.360    23991981.360                   126078746.1100   98243183.5470

  25005571.660    25005570.960    25005569.140   131405171.9370  102393638.7770
  98127233.1690
  23247870.180    23247866.980                   122168427.8810   95196188.2760

  20834615.400    20834610.200                   109486756.3890   85314416.0430

  23272431.780    23272428.180    23272432.960   122297601.3250   95296892.7740
  91326221.1130
  20080524.140    20080519.120                   105523963.6440   82226490.3480

  23262401.080    23262397.340                   122244797.0970   95255705.2340

  23631477.340    23631472.180                   124184307.4130   96766994.9780

  22759563.060    22759559.680    22759564.120   119602341.3640   93196635.3430
  89313456.4550
  21112575.940    21112573.940    21112575.060   110947398.7000   86452526.5440
  82850369.0640
 22  6 17  1 31 30.0000000  0 11G05G10G12G13G14G15G17G19G23G24G30
  24012601.320    24012599.220                   126187093.5400   98327609.9710

  24989943.140    24989942.280    24989940.740   131323043.6910  102329642.7940
  98065903.6800
  23226895.680    23226892.500                   122058206.7440   95110301.8150

  20844363.520    20844358.340                   109537982.9400   85354332.8250

  23289901.280    23289897.640    23289902.740   122389403.4920   95368426.8970
  91394774.6170
  20079970.420    20079965.420                   105521054.0460   82224223.1330

  23257004.360    23257000.680                   122216437.8330   95233607.1510

  23616581.780    23616576.920                   124106032.8000   96706001.8760

  22753187.280    22753184.120    22753188.560   119568837.3650   93170528.3630
  89288437.2750
  21102156.020    21102154.180    21102155.160   110892642.4440   86409859.3630
  82809479.6820
  25718181.460    25718181.260    25718181.780   135149959.0571  105311654.1911
 100923669.6501
 22  6 17  1 32  0.0000000  0 11G05G10G12G13G14G15G17G19G23G24G30
  24033226.760    24033224.580                   126295479.7760   98412066.6330

  24974381.520    24974380.720    24974379.280   131241267.0410  102265920.7540
  98004836.7000
  23205959.860    23205956.820                   121948188.9790   95024573.8190

  20854182.700    20854177.660                   109589583.5070   85394541.0470

  23307415.180    23307411.360    23307416.340   122481438.5120   95440142.4520
  91463502.0180
  20079515.660    20079510.560                   105518664.1530   82222360.8790

  23251696.200    23251692.420                   122188543.5450   95211871.3560

  23601737.840    23601733.000                   124028027.7500   96645218.8000

  22746920.200    22746916.840    22746921.220   119535902.8180   93144865.1100
  89263843.3220
  21091784.380    21091782.620    21091783.620   110838139.6570   86367389.6850
  82768779.5800
  25734594.000                    25734595.880
 100988082.8441
 22  6 17  1 32 30.0000000  0 11G05G10G12G13G14G15G17G19G23G24G30
  24053862.200    24053859.800                   126403917.5150   98496563.4410

  24958889.780    24958889.340    24958888.160   131159858.5280  102202485.6210
  97944044.7400
  23185065.780    23185063.000                   121838390.6100   94939016.7830

  20864075.780    20864070.780                   109641572.0620   85435051.6010

  23324975.440    23324971.520    23324976.440   122573718.0720   95512048.5810
  91532412.0520
  20079162.600    20079157.480                   105516808.6160   82220915.0180

  23246479.500    23246475.600                   122161129.7590   95190510.0060

  23586948.580    23586943.460                   123950309.8090   96584659.4400

  22740764.300    22740760.660    22740765.240   119503552.9690   93119657.4730
  89239686.0150
  21081463.720    21081462.040    21081463.040   110783904.9950   86325128.9430
  82728279.7120
  25751005.840    25751006.380    25751007.980   135322445.3571  105446045.4091
 101052486.4630
 22  6 17  1 33  0.0000000  0 11G05G10G12G13G14G15G17G19G23G24G30
  24074504.700    24074502.400                   126512394.0430   98581090.4730

  24943467.060    24943466.340    24943465.640   131078811.2880  102139331.9620
  97883522.4880
  23164212.220    23164209.540                   121728804.7380   94853625.3380

  20874040.780    20874035.800                   109693938.7080   85475856.7740

  23342579.880    23342575.920    23342580.800   122666230.2470   95584135.9510
  91601495.7810
  20078909.500    20078904.420                   105515478.4770   82219878.5420

  23241352.740    23241348.800                   122134188.7890   95169517.0920

  23572212.880    23572207.440                   123872872.5180   96524318.7720

  22734717.840    22734714.220    22734718.920   119471779.2380   93094898.7460
  89215958.9110
  21071192.480    21071190.780    21071191.700   110729929.2100   86283069.9160
  82687973.1580
  25767415.240    25767415.240    25767417.480   135408678.5420  105513239.9320
 101116881.1520
 22  6 17  1 33 30.0000000  0 10G05G10G12G13G14G15G17G19G23G24
  24095153.560    24095151.520                   126620904.8000   98665644.1850

  24928113.100    24928112.500    24928112.160   130998126.3590  102076460.6380
  97823270.8220
  23143399.360    23143396.540                   121619432.0920   94768400.0470

  20884077.240    20884072.480                   109746681.5710   85516955.0960

  23360228.000    23360224.220    23360228.480   122758971.1840   95656401.5670
  91670750.3300
  20078756.300    20078751.240                   105514673.3400   82219251.1730

  23236316.080    23236312.260                   122107720.7470   95148892.7000

  23557530.760    23557525.520                   123795717.7350   96464198.2770

  22728780.900    22728777.360    22728782.120   119440581.2910   93070588.7000
  89192661.7860
  21060970.300    21060968.580    21060969.460   110676211.4170   86241211.9280
  82647859.2550
 22  6 17  1 34  0.0000000  0 10G05G10G12G13G14G15G17G19G23G24
  24115808.680    24115807.080                   126729449.7940   98750224.5540

  24912829.100    24912828.860    24912828.440   130917809.2350  102013875.9010
  97763293.7740
  23122627.960    23122624.900                   121510277.8430   94683344.9400

  20894185.980    20894181.320                   109799803.6550   85558348.9160

  23377919.720    23377915.780    23377920.040   122851941.4080   95728845.8610
  91740176.1100
  20078703.660    20078698.600                   105514396.8830   82219035.7600

  23231370.240    23231366.560                   122081730.2460   95128640.4010

  23542903.580    23542898.020                   123718851.5980   96404302.6550

  22722954.460    22722950.960    22722955.460   119409963.0160   93046730.3350
  89169797.5270
  21050797.920    21050796.120    21050797.020   110622754.9530   86199557.5730
  82607940.4900
 22  6 17  1 34 30.0000000  0 10G05G10G12G13G14G15G17G19G23G24
  24136470.080    24136468.560                   126838026.1940   98834829.4140

  24897615.440    24897615.260    24897614.600   130837861.8050  101951579.2520
  97703592.8090
  23101898.480    23101895.160                   121401344.0690   94598461.6100

  20904366.820    20904362.120                   109853304.1200   85600037.5800

  23395654.360    23395650.460    23395655.040   122945138.0120   95801466.5370
  91809770.9090
  20078751.640    20078746.580                   105514649.2540   82219232.4160

  23226515.460    23226511.840                   122056218.2810   95108760.9880

  23528331.840    23528326.160                   123642276.6720   96344633.9820

  22717238.340    22717234.820    22717239.280   119379924.8730   93023324.0160
  89147366.4790
  21040675.200    21040673.360    21040674.400   110569559.7160   86158106.7570
  82568216.8040
 22  6 17  1 35  0.0000000  0 10G05G10G12G13G14G15G17G19G23G24
  24157137.500    24157135.620                   126946633.2790   98919458.2070

  24882473.420    24882472.780    24882472.280   130758288.8760  101889574.4230
  97644171.5300
  23081211.760    23081208.280                   121292635.0630   94513753.4390

  20914619.920    20914615.120                   109907184.4320   85642022.2200

  23413432.200    23413428.480    23413433.080   123038560.8050   95874263.4740
  91879534.6500
  20078900.740    20078895.680                   105515433.0180   82219843.1400

  23221752.820    23221749.000                   122031188.9830   95089257.6640

  23513816.680    23513810.880                   123565998.8120   96285196.7560

  22711633.320    22711629.740    22711634.400   119350470.0660   93000372.2530
  89125371.0510
  21030602.740    21030600.880    21030602.000   110516628.4390   86116861.6250
  82528690.2350
 22  6 17  1 35 30.0000000  0 10G05G10G12G13G14G15G17G19G23G24
  24177809.940    24177807.880                   127055266.0580   99004107.0150

  24867402.600    24867402.060    24867401.300   130679090.6650  101827861.5860
  97585030.0460
  23060567.720    23060564.180                   121184150.6910   94429220.3100

  20924945.020    20924940.060                   109961442.3530   85684301.1050

  23431252.040    23431248.460    23431253.280   123132205.0880   95947233.0110
  91949463.7520
  20079150.820    20079145.680                   105516746.6910   82220866.7850

  23217081.740    23217077.820                   122006641.6380   95070129.9010

  23499357.640    23499352.320                   123490018.5850   96225991.4930

  22706139.100    22706135.460    22706140.120   119321597.2030   92977873.9430
  89103810.1710
  21020580.080    21020578.260    21020579.460   110463959.1920   86075820.6840
  82489359.3350
 22  6 17  1 36  0.0000000  0 10G05G10G12G13G14G15G17G19G23G24
  24198487.000    24198485.180                   127163924.4100   99088775.7280

  24852404.000    24852403.720    24852402.320   130600272.0880  101766444.5620
  97526172.0920
  23039967.420    23039963.740                   121075895.9040   94344866.0680

  20935342.380    20935337.320                   110016080.0970   85726875.9730

  23449114.120    23449110.640    23449115.600   123226070.9470   96020375.1810
  92019558.3380
  20079502.300    20079497.120                   105518593.3570   82222305.7540

  23212502.920    23212498.820                   121982580.0730   95051380.6750

  23484956.560    23484951.100                   123414341.6890   96167022.5750

  22700756.120    22700752.380    22700757.020   119293309.6600   92955831.7350
  89082686.3920
  21010607.760    21010606.100    21010607.260   110411554.9330   86034986.2330
  82450226.3230
 22  6 17  1 36 30.0000000  0 10G05G10G12G13G14G15G17G19G23G24
  24219167.700    24219166.140                   127272602.1360   99173459.5200

  24837477.320    24837477.400    24837475.880   130521832.8080  101705323.0810
  97467597.3530
  23019410.740    23019407.060                   120967870.3500   94260690.4200

  20945811.280    20945806.200                   110071094.2880   85769744.1490

  23467017.360    23467013.500    23467019.120   123320153.1080   96093685.9150
  92089814.4190
  20079954.680    20079949.560                   105520970.9480   82224158.4100

  23208016.380    23208012.140                   121959002.9830   95033008.9760

  23470613.520    23470608.160                   123338968.4470   96108290.2470

  22695484.140    22695480.480    22695484.940   119265605.4420   92934244.0540
  89061998.1960
  21000685.420    21000683.840    21000685.000   110359413.2090   85994356.3400
  82411289.3540
 22  6 17  1 37  0.0000000  0 10G05G10G12G13G14G15G17G19G23G24
  24239851.880    24239850.700                   127381298.2330   99258157.6180

  24822623.880    24822623.600    24822622.160   130443777.0340  101644500.4400
  97409309.0010
  22998898.420    22998894.860                   120860078.0010   94176696.4980

  20956352.000    20956346.920                   110126486.2720   85812906.7320

  23484961.600    23484957.560    23484963.320   123414450.9520   96167164.7110
  92160231.5690
  20080508.560    20080503.480                   105523881.9830   82226426.7550

  23203622.680    23203618.520                   121935913.8290   95015017.4890

  23456329.360    23456323.920                   123263903.9390   96049798.5120

  22690323.720    22690320.080    22690324.700   119238487.2120   92913112.9830
  89041747.5940
  20990813.600    20990811.900    20990813.120   110307536.2530   85953932.7640
  82372550.0960
 22  6 17  1 37 30.0000000  0 10G05G10G12G13G14G15G17G19G23G24
  24260539.200    24260537.980                   127490010.1600   99342868.0720

  24807843.860    24807843.360    24807841.580   130366106.8350  101583978.2710
  97351308.6020
  22978430.500    22978427.180                   120752520.1320   94092885.2820

  20966964.580    20966959.400                   110182255.5300   85856363.2780

  23502946.540    23502942.680    23502947.880   123508961.6690   96240809.3910
  92230807.7160
  20081164.000    20081158.900                   105527326.3590   82229110.6810

  23199321.800    23199317.720                   121913313.2590   94997406.6820

  23442104.200    23442098.740                   123189150.8360   95991549.3980

  22685274.820    22685271.260    22685275.920   119211955.3080   92892438.7920
  89021934.8400
  20980992.220    20980990.380    20980991.680   110255924.1120   85913715.5310
  82334008.5810
 22  6 17  1 38  0.0000000  0 10G05G10G12G13G14G15G17G19G23G24
  24281228.420    24281227.260                   127598732.8160   99427586.8710

  24793136.940    24793136.720    24793134.840   130288822.5760  101523756.8460
  97293596.4210
  22958007.560    22958004.380                   120645198.0820   94009257.8180

  20977648.360    20977643.280                   110238399.4640   85900111.7840

  23520971.260    23520967.320    23520972.080   123603680.8400   96314616.4900
  92301539.5220
  20081920.640    20081915.500                   105531302.4190   82232208.9150

  23195113.840    23195110.020                   121891200.9840   94980176.3830

  23427938.780    23427933.260                   123114710.3000   95933543.8740

  22680337.260    22680333.740    22680338.520   119186008.5310   92872220.5410
  89002559.0130
  20971220.740    20971219.000    20971220.280   110204575.1290   85873703.3740
  82295663.6070
 22  6 17  1 38 30.0000000  0 10G05G10G12G13G14G15G17G19G23G24
  24301919.400    24301918.120                   127707463.7250   99512312.1010

  24778504.340    24778503.920    24778502.600   130211927.4520  101463838.5980
  97236174.8000
  22937630.200    22937626.800                   120538114.1010   93925815.8340

  20988403.380    20988398.460                   110294918.2090   85944152.3480

  23539034.960    23539031.340    23539036.000   123698606.8080   96388584.7150
  92372425.7400
  20082778.740    20082773.580                   105535811.5150   82235722.4940

  23190999.300    23190995.500                   121869579.1510   94963328.2480

  23413833.640    23413827.900                   123040586.5660   95875785.1720

  22675511.320    22675507.860    22675512.520   119160648.3600   92852459.3690
  88983621.2430
  20961499.580    20961497.920    20961499.080   110153490.4300   85833897.1500
  82257515.9770
 22  6 17  1 39  0.0000000  0 10G05G10G12G13G14G15G17G19G23G24
  24322611.680    24322610.100                   127816201.1550   99597042.3960

  24763946.140    24763945.400    24763944.460   130135423.9940  101404225.5840
  97179045.6520
  22917298.560    22917294.920                   120431270.1600   93842560.8950

  20999229.780    20999224.900                   110351811.8740   85988485.0660

  23557137.540    23557134.300    23557138.840   123793737.3220   96462712.2990
  92443464.7010
  20083738.280    20083733.280                   105540854.6020   82239652.1680

  23186978.340    23186974.520                   121848449.2760   94946863.4580

  23399789.160    23399783.340                   122966782.7750   95818275.8040

  22670797.080    22670793.800    22670798.320   119135875.7080   92833156.0080
  88965122.1810
  20951828.840    20951827.160    20951828.340   110102670.6080   85794297.3090
  82219566.1460
 22  6 17  1 39 30.0000000  0 10G05G10G12G13G14G15G17G19G23G24
  24343305.300    24343303.720                   127924945.0130   99681777.6950

  24749463.160    24749462.820    24749461.580   130059317.6090  101344921.9870
  97122213.0580
  22897013.680    22897010.080                   120324672.7590   93759498.0870

  21010128.040    21010123.240                   110409082.8770   86033111.8210

  23575279.440    23575276.120    23575280.580   123889073.0300   96536999.7920
  92514656.8860
  20084800.020    20084795.160                   105546435.0560   82244000.5740

  23183051.920    23183047.880                   121827815.8340   94930785.4940

  23385806.740    23385801.000                   122893305.2850   95761020.6940

  22666195.420    22666192.280    22666196.700   119111694.2680   92814313.3370
  88947064.6280
  20942209.120    20942207.400    20942208.640   110052119.1640   85754906.6060
  82181816.7220
 22  6 17  1 40  0.0000000  0 10G05G10G12G13G14G15G17G19G23G24
  24363999.460    24363997.660                   128033692.1330   99766515.5760

  24735056.460    24735056.080    24735054.740   129983610.3150  101285929.3380
  97065678.4360
  22876775.960    22876772.500                   120218323.2270   93676628.4190

  21021098.100    21021093.340                   110466730.4170   86078031.9640

  23593459.860    23593456.160    23593460.840   123984611.0700   96611444.9810
  92586000.1510
  20085964.200    20085959.280                   105552552.6790   82248767.5550

  23179220.060    23179216.120                   121807679.8570   94915095.1630

  23371886.920    23371880.900                   122820156.3500   95704021.5940

  22661706.500    22661703.280    22661707.620   119088104.3380   92795931.5780
  88929448.7770
  20932640.560    20932638.780    20932639.900   110001836.0050   85715724.9500
  82144267.6450
 22  6 17  1 40 30.0000000  0 10G05G10G12G13G14G15G17G19G23G24
  24384692.120    24384690.380                   128142432.2250   99851247.9540

  24720725.080    24720724.460    24720723.480   129908297.4930  101227244.0880
  97009438.4060
  22856584.420    22856580.880                   120112216.2070   93593947.7020

  21032138.380    21032133.640                   110524747.0830   86123239.7390

  23611676.900    23611672.820    23611678.040   124080342.1060   96686040.5480
  92657487.5350
  20087229.460    20087224.360                   105559200.8080   82253947.9140

  23175481.680    23175477.960                   121788035.6590   94899788.0410

  23358028.880    23358022.800                   122747332.2420   95647275.6010

  22657329.020    22657325.580    22657329.940   119065099.5920   92778005.8000
  88912269.9000
  20923121.780    20923120.000    20923121.000   109951814.6130   85676747.2730
  82106914.0370
 22  6 17  1 41  0.0000000  0 10G05G10G12G13G14G15G17G19G23G24
  24405384.160    24405382.640                   128251168.5630   99935977.3580

  24706470.380    24706469.860    24706468.520   129833387.1620  101168872.4750
  96953498.9630
  22836440.580    22836437.020                   120006360.1470   93511462.5360

  21043249.880    21043245.020                   110583137.9470   86168739.1040

  23629931.340    23629927.120    23629932.560   124176269.4420   96760789.0830
  92729121.5230
  20088596.780    20088591.680                   105566386.1940   82259546.9160

  23171838.340    23171834.480                   121768890.1510   94884869.4900

  23344234.240    23344228.200                   122674842.1200   95590789.8370

  22653064.000    22653060.260    22653064.960   119042686.3170   92760540.9240
  88895532.7240
  20913654.020    20913652.220    20913653.200   109902061.0560   85637978.2960
  82069760.4440
 22  6 17  1 41 30.0000000  0 10G05G10G12G13G14G15G17G19G23G24
  24426074.920    24426073.460                   128359898.7810  100020702.0110

  24692292.240    24692292.140    24692290.200   129758881.2410  101110815.9980
  96897861.5130
  22816344.900    22816341.260                   119900756.8250   93429174.3050

  21054432.420    21054427.460                   110641902.1710   86214529.4040

  23648222.560    23648218.680    23648223.860   124272390.1940   96835688.3250
  92800899.9480
  20090066.140    20090061.260                   105574108.4720   82265564.2770

  23168290.180    23168286.220                   121750244.1320   94870340.1590

  23330503.880    23330498.240                   122602688.5180   95534566.3220

  22648911.560    22648907.600    22648912.460   119020864.6030   92743537.0040
  88879237.3000
  20904237.100    20904235.400    20904236.400   109852575.2700   85599417.9820
  82032806.8100
 22  6 17  1 42  0.0000000  0 10G05G10G12G13G14G15G17G19G23G24
  24446764.020    24446762.620                   128468620.5090  100105420.0420

  24678191.880    24678191.320    24678189.640   129684783.1180  101053077.2750
  96842528.5830
  22796297.960    22796294.280                   119795409.7040   93347085.7050

  21065686.240    21065681.060                   110701040.5510   86260611.2520

  23666550.240    23666546.640    23666551.420   124368703.1020   96910737.2890
  92872821.8440
  20091638.040    20091633.160                   105582368.9640   82272001.0200

  23164837.380    23164833.380                   121732099.9630   94856201.8870

  23316838.240    23316832.740                   122530875.2660   95478607.9970

  22644871.940    22644868.000    22644872.640   118999636.1260   92726995.3390
  88863384.8560
  20894871.460    20894869.760    20894870.780   109803358.7390   85561067.4670
  81996054.2370
 22  6 17  1 42 30.0000000  0 10G05G10G12G13G14G15G17G19G23G24
  24467450.520    24467449.560                   128577329.7220  100190128.2640

  24664169.640    24664168.320    24664167.360   129611093.9600  100995657.1780
  96787501.0180
  22776299.880    22776296.140                   119690319.2240   93265197.0800

  21077010.800    21077005.620                   110760551.2730   86306983.2360

  23684913.700    23684910.660    23684914.820   124465204.5560   96985933.1610
  92944884.5610
  20093312.320    20093307.340                   105591166.9740   82278856.6120

  23161480.040    23161475.980                   121714457.5510   94842454.5790

  23303237.760    23303232.240                   122459404.6470   95422916.6490

  22640945.020    22640941.220    22640945.660   118979000.2370   92710915.4020
  88847974.9290
  20885556.940    20885555.160    20885556.220   109754410.6740   85522926.1510
  81959502.1520
 22  6 17  1 43  0.0000000  0 10G05G10G12G13G14G15G17G19G23G24
  24488133.940    24488133.160                   128686021.4790  100274822.9220

  24650224.580    24650224.100    24650222.840   129537813.9590  100938555.9490
  96732779.0140
  22756350.800    22756346.780                   119585485.4310   93183508.4680

  21088405.540    21088400.540                   110820431.5200   86353643.1580

  23703312.100    23703309.740    23703313.620   124561890.1350   97061272.4880
  93017084.7470
  20095088.520    20095083.520                   105600500.6580   82286129.6160

  23158218.180    23158214.400                   121697316.6580   94829098.0660

  23289702.900    23289696.960                   122388277.5400   95367492.9720

  22637130.720    22637126.820    22637131.160   118958955.3350   92695295.9970
  88833006.3380
  20876293.340    20876291.360    20876292.480   109705729.3870   85484992.7010
  81923149.2660
 22  6 17  1 43 30.0000000  0 10G05G10G12G13G14G15G17G19G23G24
  24508813.520    24508813.080                   128794693.5600  100359502.2190

  24636358.120    24636357.700    24636356.100   129464945.5090  100881775.4080
  96678364.3370
  22736450.980    22736446.960                   119480911.4570   93102022.3360

  21099870.420    21099865.620                   110880680.9530   86400590.7560

  23721745.480    23721743.100    23721747.020   124658757.5040   97136753.4810
  93089420.7070
  20096966.700    20096961.700                   105610370.4890   82293820.3940

  23155052.000    23155048.220                   121680678.0380   94816132.9410

  23276233.740    23276227.800                   122317497.0910   95312339.4390

  22633428.780    22633424.880    22633429.340   118939502.0320   92680137.5750
  88818479.5340
  20867080.520    20867078.400    20867079.720   109657315.3750   85447267.5300
  81886995.9850
 22  6 17  1 44  0.0000000  0 10G05G10G12G13G14G15G17G19G23G24
  24529489.840    24529489.440                   128903346.3290  100444166.4600

  24622571.360    24622569.620    24622568.900   129392494.4740  100825320.0890
  96624261.3620
  22716601.400    22716597.500                   119376602.2820   93020742.5400

  21111406.340    21111401.500                   110941302.7110   86447828.4650

  23740213.800    23740210.860    23740215.240   124755807.8280   97212377.0400
  93161893.2880
  20098947.620    20098942.660                   105620780.3470   82301931.9610

  23151982.500    23151978.480                   121664546.4900   94803562.9220

  23262831.840    23262826.000                   122247070.0990   95257461.3090

  22629840.240    22629836.420    22629840.960   118920644.3350   92665443.2720
  88804397.4760
  20857919.180    20857917.100    20857918.500   109609172.5400   85409753.6540
  81851045.2020
 22  6 17  1 44 30.0000000  0 10G05G10G12G13G14G15G17G19G23G24
  24550161.260    24550160.700                   129011973.1940  100528810.5370

  24608863.140    24608861.420    24608860.860   129320458.6320  100769188.3370
  96570468.4530
  22696801.920    22696798.280                   119272556.2610   92939667.8120

  21123012.240    21123007.340                   111002291.7990   86495352.4350

  23758715.580    23758712.600    23758717.260   124853034.3130   97288137.8790
  93234497.3990
  20101030.440    20101025.500                   105631725.9000   82310460.9660

  23149008.560    23149004.420                   121648918.4850   94791385.2880

  23249496.740    23249491.160                   122176994.8870   95202857.3050

  22626364.060    22626360.500    22626365.080   118902378.1700   92651209.8970
  88790757.1680
  20848808.920    20848806.680    20848808.000   109561296.8310   85372447.9340
  81815293.8980
 22  6 17  1 45  0.0000000  0 10G05G10G12G13G14G15G17G19G23G24
  24570827.820    24570827.080                   129120575.3700  100613435.3720

  24595235.500    24595234.720    24595233.200   129248844.3830  100713385.1040
  96516990.3490
  22677053.760    22677050.080                   119168779.3930   92858802.8040

  21134688.580    21134683.760                   111063651.7720   86543165.3910

  23777251.100    23777247.880    23777252.960   124950438.6970   97364037.3540
  93307234.3690
  20103216.080    20103211.120                   105643211.5310   82319410.8100

  23146131.400    23146127.400                   121633799.8300   94779604.5400

  23236230.020    23236224.300                   122107278.5880   95148532.9630

  22623001.520    22622997.880    22623002.620   118884708.0510   92637440.9720
  88777561.9470
  20839750.180    20839747.840    20839749.120   109513692.7390   85335353.8610
  81779745.4150
 22  6 17  1 45 30.0000000  0 10G05G10G12G13G14G15G17G19G23G24
  24591489.280    24591488.520                   129229150.8880  100698039.4770

  24581688.620    24581687.500    24581686.260   129177655.6360  100657913.4050
  96463829.9840
  22657357.420    22657353.700                   119065275.0550   92778150.1370

  21146435.640    21146430.960                   111125383.5190   86591268.0410

  23795820.420    23795816.680    23795822.040   125048020.2840   97440074.9290
  93380103.6570
  20105504.940    20105500.000                   105655239.3960   82328783.1780

  23143351.680    23143347.820                   121619192.9860   94768222.6160

  23223032.900    23223026.940                   122037926.0540   95094492.0520

  22619752.800    22619749.140    22619754.040   118867636.0250   92624138.1010
  88764813.3640
  20830743.540    20830741.160    20830742.400   109466362.3450   85298473.0590
  81744401.3120
 22  6 17  1 46  0.0000000  0 10G05G10G12G13G14G15G17G19G23G24
  24612143.660    24612143.280                   129337690.6920  100782615.6650

  24568221.420    24568219.460    24568219.120   129106886.7700  100602768.8850
  96410983.1880
  22637711.960    22637708.280                   118962038.0310   92697705.7780

  21158251.960    21158247.300                   111187478.6080   86639653.8180

  23814421.500    23814417.860    23814423.080   125145768.9100   97516242.6280
  93453097.6680
  20107895.400    20107890.500                   105667801.5030   82338571.8400

  23140668.420    23140664.280                   121605091.1950   94757234.2310

  23209903.700    23209898.100                   121968932.5570   95040730.9530

  22616616.520    22616612.600    22616617.780   118851154.6310   92611295.4530
  88752505.8230
  20821787.340    20821785.140    20821786.280   109419298.1820   85261799.7110
  81709256.0160
 22  6 17  1 46 30.0000000  0 10G05G10G12G13G14G15G17G19G23G24
  24632791.780    24632791.560                   129446197.3340  100867165.9980

  24554835.880    24554834.500    24554833.440   129036545.7630  100547957.7480
  96358455.8820
  22618118.980    22618115.220                   118859076.0320   92617475.6900

  21170138.600    21170133.700                   111249942.0880   86688326.6540

  23833054.860    23833051.520    23833056.500   125243687.8350   97592543.0050
  93526218.8850
  20110388.660    20110383.780                   105680903.9590   82348781.5370

  23138082.680    23138078.100                   121591501.4320   94746644.8090

  23196844.620    23196838.940                   121900306.8540   94987256.4040

  22613593.800    22613589.980    22613595.020   118835269.8280   92598917.6920
  88740643.7990
  20812882.860    20812880.920    20812882.020   109372506.3050   85225338.5300
  81674314.0720
 22  6 17  1 47  0.0000000  0 10G05G10G12G13G14G15G17G19G23G24
  24653433.560    24653433.240                   129554669.2070  100951689.2690

  24541532.640    24541531.680    24541530.360   128966636.2610  100493482.8720
  96306250.7850
  22598579.060    22598575.340                   118756392.7520   92537462.7970

  21182095.480    21182090.440                   111312775.1490   86737287.4790

  23851720.140    23851717.420    23851721.860   125341776.2540   97668975.4620
  93599466.6720
  20112985.120    20112980.200                   105694548.4590   82359413.6230

  23135594.460    23135589.760                   121578425.9290   94736456.1300

  23183856.400    23183850.720                   121832053.2870   94934071.8530

  22610684.880    22610681.240    22610686.100   118819983.4260   92587006.2100
  88729228.6230
  20804030.800    20804028.860    20804029.960   109325988.6210   85189091.0140
  81639576.8740
 22  6 17  1 47 30.0000000  0 10G05G10G12G13G14G15G17G19G23G24
  24674067.500    24674067.080                   129663099.6010  101036180.2070

  24528310.880    24528309.220    24528308.920   128897156.4050  100439342.7840
  96254366.5770
  22579091.840    22579087.980                   118653986.3990   92457665.7310

  21194121.540    21194116.620                   111375972.9890   86786532.5380

  23870416.980    23870414.100    23870418.480   125440027.8110   97745535.0510
  93672836.2600
  20115683.980    20115679.040                   105708730.9930   82370464.9490

  23133203.360    23133198.900                   121565861.7540   94726665.8840

  23170938.840    23170933.020                   121764171.0720   94881176.6390

  22607889.060    22607885.680    22607890.300   118805291.6710   92575558.0880
  88718257.5190
  20795230.460    20795228.380    20795229.380   109279741.5080   85153054.3150
  81605041.7020
 22  6 17  1 48  0.0000000  0 10G05G10G12G13G14G15G17G19G23G24
  24694693.280    24694692.680                   129771486.5230  101120637.2620

  24515171.560    24515169.860    24515169.020   128828109.2950  100385539.8930
  96202805.4770
  22559657.680    22559653.800                   118551859.4380   92378086.3800

  21206217.020    21206212.200                   111439535.7120   86836061.9180

  23889144.740    23889141.560    23889145.880   125538440.9360   97822220.5330
  93746326.5230
  20118485.440    20118480.520                   105723452.6230   82381936.3420

  23130910.040    23130905.800                   121553810.6070   94717275.3920

  23158092.660    23158086.840                   121696663.7120   94828573.5360

  22605206.720    22605203.340    22605207.660   118791195.5900   92564574.1290
  88707731.2330
  20786481.600    20786479.560    20786480.660   109233766.1380   85117229.3780
  81570709.4760
 22  6 17  1 48 30.0000000  0 10G05G10G12G13G14G15G17G19G23G24
  24715310.560    24715309.600                   129879828.6960  101205059.4850

  24502115.200    24502114.520    24502112.280   128759498.6670  100332077.1170
  96151570.3000
  22540277.420    22540273.480                   118450015.8910   92298727.8600

  21218382.120    21218377.500                   111503464.4560   86885876.5240

  23907903.000    23907899.760    23907903.940   125637014.9540   97899031.4090
  93819936.9270
  20121389.860    20121384.880                   105738715.1240   82393829.2030

  23128714.920    23128710.700                   121542275.4020   94708286.9540

  23145318.660    23145312.660                   121629535.8230   94776266.1290

  22602638.080    22602634.520    22602638.840   118777697.0460   92554055.7990
  88697651.1690
  20777784.860    20777782.740    20777783.920   109188064.5340   85081617.7610
  81536581.6830
 22  6 17  1 49  0.0000000  0 10G05G10G12G13G14G15G17G19G23G24
  24735918.420    24735917.380                   129988122.0230  101289443.6110

  24489141.840    24489141.080    24489139.640   128691323.8670  100278953.9390
  96100660.6120
  22520950.860    22520947.120                   118348455.4600   92219589.9760

  21230616.220    21230611.680                   111567755.5160   86935973.4460

  23926690.860    23926687.320    23926691.840   125735744.6740   97975963.6110
  93893663.5800
  20124396.560    20124391.540                   105754515.2850   82406141.0180

  23126617.620    23126613.400                   121531254.0900   94699698.9510

  23132616.700    23132611.120                   121562787.4450   94724254.4510

  22600182.520    22600178.840    22600183.480   118764793.3460   92544000.9900
  88688015.3110
  20769139.680    20769137.540    20769138.760   109142634.2430   85046217.5650
  81502656.4930
 22  6 17  1 49 30.0000000  0 10G05G10G12G13G14G15G17G19G23G24
  24756516.480    24756515.800                   130096365.2490  101373788.6670

  24476252.360    24476251.320    24476250.300   128623589.3320  100226173.8250
  96050079.6830
  22501679.000    22501675.200                   118247181.6220   92140675.3650

  21242919.640    21242915.100                   111632410.8110   86986354.1730

  23945508.240    23945504.660    23945509.500   125834630.1370   98053017.1560
  93967506.5340
  20127506.120    20127501.080                   105770856.0090   82418874.0380

  23124618.940    23124614.560                   121520749.7280   94691513.7650

  23119988.040    23119982.340                   121496424.2220   94672542.8730

  22597840.780    22597836.960    22597841.820   118752487.0200   92534411.6510
  88678825.5220
  20760546.740    20760544.560    20760545.700   109097477.9540   85011030.8710
  81468935.9170
 22  6 17  1 50  0.0000000  0 10G05G10G12G13G14G15G17G19G23G24
  24777104.920    24777104.920                   130204559.2620  101458095.3780

  24463447.540    24463446.700    24463444.760   128556300.8840  100173741.3130
  95999831.8700
  22482463.080    22482459.020                   118146201.2420   92061989.4080

  21255293.040    21255288.300                   111697433.0460   87037020.8520

  23964355.420    23964351.840    23964356.640   125933672.6730   98130193.0970
  94041466.7830
  20130719.260    20130714.280                   105787741.3030   82432031.4090

  23122719.420    23122714.940                   121510767.2020   94683735.1980

  23107434.080    23107428.260                   121430452.8220   94621136.6430

  22595613.360    22595609.700    22595614.380   118740781.8440   92525290.7390
  88670084.6470
  20752006.780    20752004.540    20752005.560   109052599.7730   84976060.8920
  81435423.0210
 22  6 17  1 50 30.0000000  0 10G05G10G12G13G14G15G17G19G23G24
  24797682.560    24797683.020                   130312696.4700  101542357.9700

  24450727.280    24450726.620    24450724.280   128489455.6030  100121654.1200
  95949914.9830
  22463302.140    22463298.200                   118045510.8890   91983529.4460

  21267735.260    21267730.380                   111762816.6600   87087969.1160

  23983231.040    23983227.400    23983232.100   126032864.9050   98207485.6750
  94115538.8290
  20134035.000    20134030.000                   105805165.5840   82445608.7690

  23120918.280    23120913.760                   121501302.1030   94676359.8290

  23094954.360    23094948.400                   121364870.8990   94570033.8740

  22593499.340    22593495.700    22593500.420   118729672.8490   92516634.4060
  88661789.0000
  20743518.760    20743516.440    20743517.520   109007994.9610   84941303.9230
  81402114.2660
 22  6 17  1 51  0.0000000  0 10G05G10G12G13G14G15G17G19G23G24
  24818248.380    24818249.020                   130420770.4340  101626571.1860

  24438091.040    24438090.320    24438089.280   128423051.6210  100069910.8050
  95900327.6550
  22444196.200    22444192.180                   117945108.5780   91905293.9180

  21280245.260    21280240.460                   111828557.1170   87139195.4380

  24002134.180    24002130.540    24002135.040   126132200.6010   98284890.0460
  94189718.0400
  20137452.680    20137447.520                   105823125.3240   82459603.3750

  23119214.980    23119210.340                   121492351.4690   94669385.3390

  23082548.640    23082542.480                   121299677.3040   94519233.6950

  22591497.980    22591494.740    22591499.140   118719156.1850   92508439.6090
  88653935.6620
  20735082.080    20735079.720    20735080.960   108963659.9740   84906757.2060
  81369007.0130
 22  6 17  1 51 30.0000000  0 10G05G10G12G13G14G15G17G19G23G24
  24838803.340    24838803.740                   130528785.7040  101710738.7880

  24425540.560    24425539.600    24425538.980   128357098.2380  100018518.6030
  95851076.7700
  22425146.780    22425142.740                   117845003.1590   91827289.7520

  21292824.420    21292819.600                   111894660.6840   87190704.6980

  24021065.560    24021061.560    24021066.500   126231684.5810   98362409.9850
  94264007.9410
  20140973.540    20140968.360                   105841627.4270   82474020.5970

  23117610.920    23117606.480                   121483923.3990   94662818.0380

  23070218.620    23070212.380                   121234882.2910   94468744.1120

  22589610.880    22589607.620    22589611.960   118709239.0740   92500712.0020
  88646530.0370
  20726698.200    20726695.840    20726697.100   108919602.3950   84872426.6520
  81336106.8970
 22  6 17  1 52  0.0000000  0 10G05G10G12G13G14G15G17G19G23G24
  24859346.680    24859347.100                   130636741.2190  101794859.9560

  24413076.600    24413075.380    24413074.020   128291599.3190   99967480.4940
  95802165.2800
  22406154.740    22406150.680                   117745199.0230   91749520.3490

  21305472.980    21305468.040                   111961128.4270   87242497.7290

  24040024.760    24040020.720    24040025.740   126331316.3990   98440045.1150
  94338408.2810
  20144597.940    20144592.840                   105860673.6540   82488861.7990

  23116106.860    23116102.640                   121476020.3510   94656659.8310

  23057965.360    23057959.040                   121170490.4970   94418568.6940

  22587838.280    22587834.800    22587839.240   118699923.2890   92493452.9630
  88639573.4630
  20718367.380    20718365.240    20718366.340   108875824.3710   84838313.9240
  81303415.5370
 22  6 17  1 52 30.0000000  0 10G05G10G12G13G14G15G17G19G23G24
  24879876.140    24879876.640                   130744624.1970  101878924.7800

  24400697.460    24400696.340    24400695.320   128226546.2040   99916789.8050
  95753586.7110
  22387218.480    22387214.340                   117645687.6220   91671979.0570

  21318188.600    21318183.660                   112027949.0140   87294565.7090

  24059009.600    24059005.940    24059010.820   126431083.0530   98517785.2990
  94412909.2810
  20148323.780    20148318.780                   105880253.2490   82504118.6130

  23114701.020    23114696.780                   121468632.2970   94650902.9240

  23045787.320    23045781.080                   121106494.2970   94368701.5600

  22586177.940    22586174.400    22586178.840   118691198.1300   92486654.1550
  88633057.9460
  20710087.920    20710085.720    20710086.920   108832315.5700   84804410.9870
  81270925.2280
 22  6 17  1 53  0.0000000  0 10G05G10G12G13G14G15G17G19G23G24
  24900392.680    24900393.180                   130852439.4600  101962936.9460

  24388405.140    24388403.560    24388403.640   128161948.6730   99866454.1130
  95705348.3480
  22368339.460    22368335.540                   117546478.6590   91594673.4710

  21330972.460    21330967.540                   112095129.1880   87346913.8940

  24078021.040    24078017.800    24078022.520   126530989.9740   98595634.7970
  94487515.0500
  20152152.640    20152147.580                   105900374.0700   82519797.1690

  23113394.800    23113390.500                   121461767.7750   94645553.9730

  23033686.340    23033680.180                   121042903.9270   94319150.6650

  22584631.480    22584627.740    22584632.360   118683071.3200   92480321.5920
  88626989.2400
  20701861.280    20701858.940    20701860.320   108789084.1220   84770724.1610
  81238642.0330
 22  6 17  1 53 30.0000000  0 10G05G10G12G13G14G15G17G19G23G24
  24920896.740    24920897.080                   130960187.8010  102046897.0340

  24376200.540    24376198.980    24376198.320   128097812.5290   99816477.9500
  95657454.5420
  22349519.180    22349515.200                   117447577.8900   91517608.0190

  21343825.320    21343820.500                   112162672.0330   87399544.6700

  24097059.560    24097056.400    24097060.940   126631038.6420   98673594.7430
  94562226.6690
  20156085.260    20156080.020                   105921039.7020   82535900.2550

  23112188.960    23112184.700                   121455431.4580   94640616.6240

  23021664.040    23021657.760                   120979726.4540   94269921.4860

  22583199.560    22583195.760    22583200.400   118675546.5610   92474458.1540
  88621370.1100
  20693688.100    20693685.840    20693687.160   108746134.1760   84737256.7030
  81206569.0530
 22  6 17  1 54  0.0000000  0 10G05G10G12G13G14G15G17G19G23G24
  24941385.980    24941386.260                   131067860.1910  102130797.9210

  24364082.580    24364080.900    24364079.720   128034133.1040   99766857.6540
  95609901.7590
  22330756.560    22330752.540                   117348980.0900   91440778.6160

  21356745.900    21356741.300                   112230570.4020   87452452.4840

  24116123.380    24116120.440    24116124.860   126731220.0210   98751658.1120
  94637037.3850
  20160120.200    20160114.960                   105942243.3470   82552422.5720

  23111082.620    23111078.140                   121449617.3580   94636086.1940

  23009719.340    23009713.500                   120916957.7270   94221010.8260

  22581880.820    22581877.080    22581881.720   118668617.0320   92469058.5370
  88616195.4720
  20685567.280    20685565.040    20685566.420   108703459.3920   84704003.6510
  81174701.5540
 22  6 17  1 54 30.0000000  0 10G05G10G12G13G14G15G17G19G23G24
  24961860.820    24961860.880                   131175457.3490  102214640.0350

  24352052.640    24352051.120    24352050.420   127970916.2990   99717597.8660
  95562694.4570
  22312052.780    22312048.740                   117250691.5830   91364190.2160

  21369734.660    21369730.140                   112298827.2400   87505639.6140

  24135212.880    24135209.920    24135214.400   126831535.8100   98829826.2310
  94711948.4680
  20164258.080    20164253.000                   105963988.6710   82569366.9680

  23110076.480    23110072.040                   121444330.0750   94631966.2530

  22997853.820    22997848.060                   120854604.7530   94172424.1240

  22580676.140    22580672.420    22580677.040   118662286.5010   92464125.6740
  88611468.1370
  20677499.640    20677497.400    20677498.780   108661064.0670   84670968.3500
  81143042.7240
 22  6 17  1 55  0.0000000  0 10G05G10G12G13G14G15G17G19G23G24
  24982319.860    24982319.740                   131282971.5730  102298417.6120

  24340109.960    24340108.960    24340108.120   127908158.0490   99668695.3940
  95515829.5970
  22293407.300    22293403.160                   117152708.8460   91287840.0760

  21382790.280    21382785.720                   112367435.4300   87559100.5270

  24154326.340    24154323.160    24154327.920   126931977.7130   98908092.6110
  94786953.7380
  20168497.920    20168492.940                   105986269.5320   82586728.6740

  23109169.460    23109165.140                   121439564.2360   94628252.6250

  22986066.700    22986060.960                   120792664.1020   94124158.7470

  22579584.280    22579580.720    22579585.140   118656548.8300   92459654.7620
  88607183.5280
  20669484.100    20669481.960    20669483.220   108618942.5170   84638146.3970
  81111588.3550
 22  6 17  1 55 30.0000000  0 10G05G10G12G13G14G15G17G19G23G24
  25002763.480    25002763.000                   131390403.6550  102382130.8900

  24328256.120    24328254.980    24328253.700   127845864.8270   99620155.2580
  95469311.9780
  22274821.280    22274816.960                   117055037.8630   91211732.8560

  21395913.800    21395909.000                   112436399.0370   87612838.3880

  24173464.460    24173461.020    24173466.180   127032547.9140   98986458.9770
  94862054.8230
  20172840.660    20172835.540                   106009090.1890   82604511.0010

  23108362.660    23108358.480                   121435324.8120   94624949.1900

  22974359.620    22974353.900                   120731143.0050   94076220.2440

  22578606.080    22578602.500    22578606.900   118651408.3440   92455649.1900
  88603344.8650
  20661521.740    20661519.560    20661520.740   108577099.6440   84605541.5810
  81080342.0850
 22  6 17  1 56  0.0000000  0 10G05G10G12G13G14G15G17G19G23G24
  25023191.720    25023190.900                   131497753.4120  102465779.6460

  24316491.320    24316490.180    24316488.560   127784041.2050   99571981.0670
  95423145.0370
  22256295.360    22256290.940                   116957683.3330   91135872.2220

  21409105.380    21409100.320                   112505719.7680   87666854.5400

  24192626.680    24192623.760    24192628.540   127133246.8350   99064925.6400
  94937252.0260
  20177286.560    20177281.380                   106032453.3770   82622716.0840

  23107656.760    23107652.460                   121431615.2910   94622058.6970

  22962733.480    22962727.640                   120670047.1140   94028613.0770

  22577741.980    22577738.320    22577742.820   118646867.4680   92452110.8410
  88599953.9430
  20653612.920    20653610.700    20653611.980   108535538.4510   84573156.2570
  81049306.1510
 22  6 17  1 56 30.0000000  0 10G05G10G12G13G14G15G17G19G23G24
  25043602.880    25043602.160                   131605013.7100  102549358.7010

  24304815.600    24304814.460    24304813.020   127722684.3810   99524170.6060
  95377326.7040
  22237829.020    22237824.660                   116860642.3740   91060255.9500

  21422363.680    21422358.560                   112575391.9610   87721144.5380

  24211811.920    24211809.520    24211814.120   127234067.4810   99143487.1290
  95012540.1310
  20181834.640    20181829.600                   106056353.9590   82641339.8970

  23107050.940    23107046.420                   121428431.4460   94619577.8010

  22951187.760    22951181.960                   120609374.2950   93981335.5910

  22576991.020    22576987.200    22576991.880   118642921.1620   92449035.8060
  88597007.0440
  20645756.860    20645754.620    20645755.900   108494254.5300   84540986.9940
  81018477.2900
 22  6 17  1 57  0.0000000  0 10G05G10G12G13G14G15G17G19G23G24
  25063997.000    25063996.320                   131712184.4720  102632867.9480

  24293229.280    24293227.960    24293226.760   127661798.0820   99476726.7730
  95331859.6990
  22219423.180    22219418.800                   116763918.9140   90984887.0850

  21435688.980    21435683.940                   112645416.8590   87775709.3750

  24231020.480    24231018.200    24231022.640   127335009.4210   99222143.1450
  95087918.8020
  20186485.320    20186480.300                   106080793.4610   82660383.6610

  23106545.500    23106541.020                   121425775.4300   94617508.2010

  22939723.540    22939717.600                   120549129.3310   93934391.4830

  22576353.420    22576349.680    22576354.360   118639571.0350   92446425.3170
  88594505.3280
  20637954.040    20637951.840    20637952.980   108453250.0690   84509035.4950
  80987857.0910
 22  6 17  1 57 30.0000000  0 10G05G10G12G13G14G15G17G19G23G24
  25084373.800    25084373.120                   131819263.6600  102716306.0330

  24281732.860    24281731.780    24281730.140   127601384.0450   99429650.9450
  95286745.3820
  22201078.020    22201073.600                   116667514.6080   90909766.9020

  21449081.040    21449076.080                   112715793.0800   87830547.9760

  24250251.800    24250249.380    24250253.800   127436070.1930   99300891.7380
  95163386.2220
  20191238.540    20191233.460                   106105771.5880   82679847.1380

  23106140.600    23106136.200                   121423647.3620   94615849.9880

  22928341.240    22928335.280                   120489314.6620   93887782.6670

  22575829.180    22575825.640    22575830.260   118636816.6110   92444279.0140
  88592448.4370
  20630204.280    20630202.180    20630203.240   108412525.2540   84477301.8960
  80957445.7370
 22  6 17  1 58  0.0000000  0 10G05G10G12G13G14G15G17G19G23G24
  25104732.280    25104731.740                   131926247.5590  102799670.2510

  24270326.500    24270325.300    24270323.820   127541443.7020   99382944.2290
  95241984.7890
  22182793.900    22182789.540                   116571431.5240   90834897.0230

  21462539.760    21462534.860                   112786519.4540   87885659.4160

  24269505.500    24269502.640    24269507.280   127537247.1510   99379730.8750
  95238940.3870
  20196094.080    20196088.920                   106131287.4280   82699729.6050

  23105836.100    23105831.940                   121422047.8680   94614603.6480

  22917041.380    22917035.060                   120429932.7010   93841511.0330

  22575418.320    22575414.800    22575419.380   118634657.1280   92442596.2940
  88590835.8380
  20622507.780    20622505.660    20622506.760   108372080.0810   84445786.1970
  80927243.2020
 22  6 17  1 58 30.0000000  0 10G05G10G12G13G14G15G17G19G23G24
  25125072.460    25125072.180                   132033136.5540  102882960.7380

  24259010.840    24259009.940    24259008.680   127481980.7810   99336609.5170
  95197580.7040
  22164571.560    22164567.220                   116475673.2640   90760280.2530

  21476065.180    21476060.520                   112857596.9770   87941044.4710

  24288780.940    24288778.040    24288782.720   127638539.9170   99458660.2930
  95314581.0520
  20201052.260    20201047.040                   106157342.6820   82720032.3920

  23105632.640    23105628.460                   121420979.4060   94613771.1030

  22905824.620    22905818.440                   120370987.9300   93795580.0570

  22575121.060    22575117.180    22575121.880   118633094.0650   92441378.3190
  88589668.5980
  20614864.880    20614862.840    20614863.900   108331916.6860   84414490.0670
  80897251.0800
 22  6 17  1 59  0.0000000  0 10G05G10G12G13G14G15G17G19G23G24
  25145393.580    25145393.640                   132139926.5870  102966174.1310

  24247786.500    24247785.920    24247784.720   127422996.9260   99290648.1180
  95153534.3590
  22146411.360    22146406.900                   116380240.9290   90685917.4420

  21489657.260    21489652.700                   112929024.4130   87996702.1980

  24308077.980    24308075.000    24308079.600   127739946.0710   99537678.0590
  95390306.3970
  20206112.960    20206107.840                   106183936.8850   82740755.1480

  23105530.280    23105526.280                   121420442.1260   94613352.4620

  22894691.440    22894685.400                   120312482.8920   93749991.7470

  22574936.920    22574933.080    22574937.700   118632126.9020   92440624.6850
  88588946.3600
  20607275.680    20607273.700    20607274.700   108292035.2970   84383413.6890
  80867469.5530
 22  6 17  1 59 30.0000000  0 10G05G10G12G13G14G15G17G19G23G24
  25165695.240    25165695.500                   132246615.2210  103049308.6860

  24236653.620    24236653.100    24236651.740   127364493.7980   99245061.3270
  95109847.0200
  22128313.600    22128309.140                   116285136.5550   90611810.1930

  21503315.980    21503311.360                   113000800.8240   88052631.8570

  24327396.100    24327393.120    24327397.560   127841463.1780   99616782.2870
  95466114.5970
  20211276.000    20211270.980                   106211069.3710   82761897.3390

  23105529.140    23105524.960                   121420436.0800   94613347.7690

  22883642.380    22883636.540                   120254420.0520   93704748.0250

  22574866.160    22574862.340    22574866.900   118631755.0340   92440334.9210
  88588668.6710
  20599740.240    20599738.120    20599739.180   108252436.0510   84352557.1540
  80837898.7110
 22  6 17  2  0  0.0000000  0 10G05G10G12G13G14G15G17G19G23G24
  25185976.940    25185977.060                   132353198.4200  103132361.5880

  24225612.360    24225611.600    24225610.160   127306471.6540   99199849.3010
  95066518.8320
  22110278.460    22110274.000                   116190360.8740   90537959.0640

  21517040.740    21517035.880                   113072923.8820   88108831.6320

  24346734.400    24346731.960    24346735.800   127943087.4810   99695970.0280
  95542002.8380
  20216541.100    20216536.140                   106238738.2860   82783457.5220

  23105629.020    23105624.680                   121420960.1890   94613756.1800

  22872677.860    22872671.560                   120196800.5250   93659849.7140

  22574908.240    22574904.500    22574909.020   118631976.4580   92440507.4580
  88588834.0150
  20592258.260    20592256.040    20592257.080   108213117.7810   84321919.5640
  80808537.6920
 22  6 17  2  0 30.0000000  0 10G05G10G12G13G14G15G17G19G23G24
  25206237.700    25206237.580                   132459673.4820  103215330.1520

  24214663.180    24214662.040    24214660.880   127248932.4780   99155013.6190
  95023551.3050
  22092306.100    22092301.700                   116095915.7240   90464365.4960

  21530831.240    21530826.240                   113145392.6600   88165300.7980

  24366092.840    24366090.780    24366094.400   128044817.0040   99775239.7450
  95617969.6500
  20221908.400    20221903.400                   106266943.3620   82805435.5010

  23105829.900    23105825.320                   121422015.1110   94614578.2230

  22861797.880    22861792.000                   120139627.2500   93615299.1760

  22575063.020    22575059.480    22575064.060   118632790.9120   92441142.0800
  88589442.2160
  20584829.820    20584827.600    20584828.560   108174081.0230   84291501.3400
  80779386.9020
 22  6 17  2  1  0.0000000  0  9G10G12G13G14G15G17G19G23G24
  24203807.340    24203806.200    24203805.060   127191884.6410   99110560.7790
  94980950.6670
  22074398.140    22074393.920                   116001809.3160   90391035.8840

  21544688.500    21544683.380                   113218212.5510   88222043.5520

  24385472.100    24385470.140    24385474.240   128146656.1020   99854594.8450
  95694018.2680
  20227378.960    20227373.880                   106295690.8970   82827836.1780

  23106133.020    23106128.440                   121423607.9010   94615819.3860

  22851004.640    22850998.720                   120082909.5440   93571103.6020

  22575332.020    22575328.620    22575333.220   118634204.5110   92442243.5630
  88590497.8000
  20577456.320    20577454.000    20577454.960   108135332.7540   84261307.9050
  80750451.5320
 22  6 17  2  1 30.0000000  0  9G10G12G13G14G15G17G19G23G24
  24193042.320    24193041.280    24193040.000   127135314.2000   99066479.9410
  94938706.5420
  22056552.180    22056547.880                   115908028.5070   90317959.9830

  21558609.360    21558604.320                   113291367.3850   88279047.2980

  24404868.580    24404866.660    24404871.300   128248586.9240   99934021.3880
  95770135.3680
  20232949.540    20232944.560                   106324964.8160   82850647.0010

  23106535.460    23106530.860                   121425722.9590   94617467.5010

  22840296.020    22840290.120                   120026634.3470   93527252.8290

  22575712.000    22575708.660    22575713.180   118636201.0410   92443799.2840
  88591988.7050
  20570134.800    20570132.340    20570133.300   108096857.6250   84231327.3060
  80721720.1300
 22  6 17  2  2  0.0000000  0  9G10G12G13G14G15G17G19G23G24
  24182372.420    24182370.920    24182369.820   127079242.5510   99022787.7750
  94896834.8950
  22038772.060    22038767.840                   115814594.5520   90245154.3670

  21572597.380    21572592.440                   113364875.7380   88336326.5180

  24424286.460    24424284.020    24424288.460   128350626.8010  100013532.9540
  95846333.9880
  20238623.920    20238619.040                   106354784.1680   82873882.8600

  23107041.160    23107036.500                   121428380.4540   94619538.2900

  22829675.680    22829669.520                   119970823.6320   93483763.9950

  22576206.580    22576203.240    22576207.600   118638799.6560   92445824.1610
  88593929.1960
  20562868.840    20562866.500    20562867.520   108058675.6310   84201575.1310
  80693207.6370
 22  6 17  2  2 30.0000000  0  9G10G12G13G14G15G17G19G23G24
  24171795.120    24171793.540    24171792.700   127023658.4380   98979475.5100
  94855327.3080
  22021055.880    22021051.600                   115721495.9600   90172610.0710

  21586650.080    21586645.220                   113438723.5090   88393870.2170

  24443722.120    24443719.580    24443723.920   128452760.6600  100093117.7350
  95922602.7480
  20244399.720    20244394.780                   106385135.7740   82897533.4450

  23107647.600    23107642.920                   121431567.6830   94622021.8470

  22819141.500    22819135.420                   119915467.1560   93440629.1140

  22576813.160    22576809.520    22576814.140   118641986.6990   92448307.5560
  88596309.1010
  20555656.200    20555654.020    20555655.120   108020774.1240   84172041.5120
  80664904.5730
 22  6 17  2  3  0.0000000  0 10G05G10G12G13G14G15G17G19G23G24
  25307219.640    25307220.660

  24161310.820    24161309.440    24161308.340   126968563.6610   98936544.5270
  94814185.1220
  22003403.940    22003399.560                   115628734.4950   90100328.4690

  21600767.280    21600762.360                   113512909.8820   88451677.7640

  24463175.120    24463172.500    24463176.820   128554986.4550  100172774.2010
  95998940.1200
  20250276.620    20250271.660                   106416018.9760   82921598.2740

  23108354.880    23108350.420                   121435284.9530   94624918.4320

  22808694.620    22808688.240                   119860567.8140   93397850.4220

  22577531.640    22577527.740    22577532.480   118645761.7220   92451249.1430
  88599128.1120
  20548497.220    20548494.980    20548496.120   107983153.5930   84142726.8330
  80636811.3650
 22  6 17  2  3 30.0000000  0  9G10G12G13G14G15G17G19G23G24
  24150920.800    24150919.100    24150918.220   126913963.1040   98893998.6630
  94773412.0300
  21985817.480    21985812.840                   115536316.2670   90028314.3060

  21614949.340    21614944.520                   113587437.1160   88509750.9150

  24482645.740    24482643.520    24482647.540   128657305.1350  100252502.9800
  96075346.8720
  20256255.180    20256250.160                   106447436.5360   82946079.4800

  23109163.720    23109159.360                   121439535.7590   94628230.7710

  22798335.740    22798329.380                   119806131.2590   93355432.3580

  22578362.300    22578358.460    22578363.260   118650127.3210   92454650.8860
  88602388.1200
  20541392.460    20541390.260    20541391.260   107945817.6320   84113633.8990
  80608930.6390
 22  6 17  2  4  0.0000000  0  9G10G12G13G14G15G17G19G23G24
  24140625.700    24140623.960    24140623.280   126859862.0020   98851841.9950
  94733011.8700
  21968297.120    21968292.400                   115444245.8070   89956571.1440

  21629196.680    21629191.960                   113662307.6790   88568091.5970

  24502134.540    24502131.860    24502136.200   128759718.1540  100332305.2730
  96151824.0660
  20262335.940    20262331.000                   106479391.4670   82970979.4150

  23110075.020    23110070.440                   121444323.6690   94631961.6360

  22788065.920    22788059.720                   119752163.4420   93313379.5570

  22579306.040    22579302.460    22579307.000   118655086.4010   92458515.0730
  88606091.2970
  20534342.660    20534340.400    20534341.320   107908770.1130   84084765.7350
  80581265.3070
 22  6 17  2  4 30.0000000  0  9G10G12G13G14G15G17G19G23G24
  24130424.060    24130422.840    24130421.960   126806253.7580   98810069.3400
  94692979.7460
  21950841.600    21950837.000                   115352516.7580   89885094.0310

  21643507.780    21643502.880                   113737512.3000   88626692.5980

  24521639.100    24521635.940    24521640.920   128862214.9540  100412172.8760
  96228363.8680
  20268517.380    20268512.480                   106511875.1350   82996291.3580

  23111086.960    23111082.280                   121449640.8640   94636104.9090

  22777884.240    22777877.940                   119698658.7810   93271687.6600

  22580361.120    22580357.460    22580361.980   118660629.9360   92462834.6940
  88610230.9340
  20527346.180    20527343.860    20527344.800   107872003.0870   84056116.1310
  80553809.4580
 22  6 17  2  5  0.0000000  0  9G10G12G13G14G15G17G19G23G24
  24120319.060    24120318.080    24120317.000   126753152.5320   98768691.8100
  94653326.2790
  21933453.580    21933449.180                   115261143.3630   89813894.0380

  21657884.680    21657879.620                   113813062.5920   88685562.9510

  24541161.020    24541158.320    24541163.180   128964806.1660  100492114.0560
  96304974.1370
  20274801.760    20274796.800                   106544899.3570   83022024.5040

  23112201.740    23112197.220                   121455499.9710   94640670.4690

  22767793.520    22767787.060                   119645632.3020   93230368.3610

  22581529.580    22581525.840    22581530.200   118666769.8660   92467619.0400
  88614815.9180
  20520405.520    20520403.260    20520404.140   107835529.5410   84027695.2110
  80526572.7330
 22  6 17  2  5 30.0000000  0  9G10G12G13G14G15G17G19G23G24
  24110308.980    24110307.840    24110306.920   126700549.7420   98727702.6350
  94614044.9990
  21916131.860    21916127.580                   115170117.7250   89742965.0160

  21672325.080    21672320.160                   113888947.2690   88744693.8500

  24560699.040    24560696.860    24560701.220   129067479.2850  100572119.0260
  96381645.5600
  20281186.920    20281181.940                   106578453.4410   83048170.5250

  23113417.720    23113413.440                   121461891.1130   94645650.5950

  22757792.240    22757785.820                   119593076.3930   93189415.7370

  22582809.380    22582805.580    22582809.980   118673495.1660   92472859.4960
  88619838.0160
  20513518.720    20513516.580    20513517.400   107799339.5250   83999495.2250
  80499547.7520
 22  6 17  2  6  0.0000000  0  9G10G12G13G14G15G17G19G23G24
  24100394.420    24100393.580    24100392.300   126648448.8370   98687104.5500
  94575138.4930
  21898877.100    21898872.840                   115079443.7220   89672310.0050

  21686829.040    21686824.420                   113965167.0790   88804085.8790

  24580253.060    24580250.420    24580255.140   129170233.9940  100652187.5980
  96458377.9330
  20287673.120    20287668.100                   106612538.5100   83074730.3070

  23114735.540    23114731.200                   121468816.1570   94651046.7270

  22747881.540    22747875.260                   119540995.2520   93148833.0690

  22584200.780    22584196.960    22584201.420   118680806.9540   92478556.9620
  88625298.0920
  20506686.200    20506684.100    20506685.080   107763435.2990   83971517.9270
  80472736.1790
 22  6 17  2  6 30.0000000  0  9G10G12G13G14G15G17G19G23G24
  24090575.740    24090574.760    24090573.240   126596849.9040   98646897.6220
  94536606.8690
  21881689.340    21881684.880                   114989120.9900   89601928.6980

  21701396.460    21701391.880                   114041719.4060   88863737.0230

  24599821.460    24599818.340    24599823.860   129273066.7830  100732317.0130
  96535168.5830
  20294260.080    20294254.960                   106647152.6070   83101702.3180

  23116154.660    23116150.240                   121476273.5700   94656857.7160

  22738061.280    22738055.180                   119489389.9180   93108621.1610

  22585703.300    22585699.600    22585704.040   118688703.0180   92484709.7190
  88631194.4680
  20499907.940    20499905.800    20499906.880   107727815.7280   83943762.4390
  80446137.1760
 22  6 17  2  7  0.0000000  0  9G10G12G13G14G15G17G19G23G24
  24080853.840    24080852.980    24080851.440   126545762.0710   98607088.9560
  94498456.9070
  21864570.100    21864565.580                   114899158.6080   89531828.1920

  21716028.580    21716023.680                   114118611.1400   88923652.6450

  24619404.940    24619402.760    24619408.080   129375983.1030  100812511.4540
  96612021.5870
  20300948.880    20300943.820                   106682302.5880   83129091.9050

  23117676.560    23117672.220                   121484271.2770   94663089.7080

  22728333.580    22728327.440                   119438270.4840   93068787.8770

  22587318.200    22587314.700    22587319.240   118697190.0500   92491322.9600
  88637532.1440
  20493185.380    20493183.280    20493184.360   107692488.7100   83916234.9180
  80419756.6420
 22  6 17  2  7 30.0000000  0  9G10G12G13G14G15G17G19G23G24
  24071227.880    24071226.820    24071225.100   126495177.3170   98567672.2850
  94460682.6150
  21847518.060    21847513.400                   114809549.2550   89462002.7560

  21730723.020    21730718.060                   114195831.1640   88983824.0720

  24639003.340    24639001.140    24639006.020   129478971.1430  100892761.8340
  96688928.1860
  20307737.660    20307732.680                   106717978.2090   83156891.0780

  23119299.480    23119295.100                   121492799.6660   94669735.2020

  22718696.940    22718690.740                   119387629.5700   93029327.4730

  22589043.620    22589040.220    22589044.880   118706257.6800   92498388.6170
  88644303.3940
  20486516.800    20486514.680    20486515.800   107657445.1040   83888928.2380
  80393587.7490
 22  6 17  2  8  0.0000000  0  9G10G12G13G14G15G17G19G23G24
  24061699.440    24061698.500    24061696.380   126445104.1890   98528654.3000
  94423290.3950
  21830534.700    21830530.080                   114720301.5190   89392459.1170

  21745481.100    21745476.400                   114273385.7870   89044256.2290

  24658616.700    24658613.720    24658618.620   129582035.9020  100973072.0380
  96765892.1230
  20314627.720    20314622.700                   106754185.6450   83185104.6570

  23121024.680    23121020.100                   121501865.8840   94676799.8000

  22709153.100    22709147.040                   119337476.7120   92990247.3800

  22590881.040    22590877.220    22590882.080   118715912.0940   92505911.5230
  88651512.8440
  20479903.740    20479901.400    20479902.500   107622692.2880   83861848.1500
  80367635.9980
 22  6 17  2  8 30.0000000  0  9G10G12G13G14G15G17G19G23G24
  24052266.820    24052265.980    24052264.300   126395536.4030   98490030.0760
  94386275.5140
  21813619.140    21813614.400                   114631409.8850   89323192.9620

  21760301.240    21760296.700                   114351265.9170   89104942.0250

  24678241.960    24678239.080    24678243.940   129685167.5290  101053434.3050
  96842905.9380
  20321617.440    20321612.420                   106790916.7850   83213726.3100

  23122850.800    23122846.320                   121511462.0180   94684277.3330

  22699701.400    22699695.260                   119287806.9020   92951543.6610

  22592828.280    22592824.440    22592829.300   118726144.5600   92513884.8400
  88659153.9350
  20473344.520    20473342.000    20473343.180   107588222.7950   83834988.8300
  80341895.8170
 22  6 17  2  9  0.0000000  0  9G10G12G13G14G15G17G19G23G24
  24042933.520    24042932.320    24042930.760   126346487.9700   98451810.5710
  94349648.4980
  21796774.020    21796769.300                   114542888.1530   89254215.0340

  21775185.500    21775180.980                   114429482.9610   89165890.3500

  24697880.900    24697879.240    24697883.380   129788376.4650  101133856.7850
  96919977.5020
  20328709.080    20328704.000                   106828183.2260   83242765.0890

  23124780.160    23124775.600                   121521600.6370   94692177.5740

  22690344.220    22690338.080                   119238634.7550   92913227.7550

  22594887.620    22594883.820    22594888.560   118736966.6850   92522317.6400
  88667235.3670
  20466841.700    20466838.940    20466840.140   107554049.4860   83808360.3020
  80316376.8190
 22  6 17  2  9 30.0000000  0  9G10G12G13G14G15G17G19G23G24
  24033697.480    24033696.260    24033694.260   126297951.4980   98413989.9940
  94313403.7850
  21779997.840    21779993.120                   114454729.1000   89185519.7130

  21790131.940    21790127.320                   114508026.6970   89227093.2320

  24717533.640    24717531.780    24717535.920   129891651.7720  101214330.9910
  96997098.6240
  20335900.660    20335895.620                   106865975.3000   83272213.4440

  23126811.080    23126806.520                   121532272.7310   94700493.4920

  22681080.420    22681074.280                   119189953.7880   92875294.5790

  22597057.380    22597053.680    22597058.280   118748368.6930   92531202.2910
  88675749.8160
  20460393.560    20460390.660    20460391.860   107520163.8720   83781955.9450
  80291072.6540
 22  6 17  2 10  0.0000000  0  9G10G12G13G14G15G17G19G23G24
  24024558.340    24024557.400    24024555.380   126249925.8100   98376567.4030
  94277540.4700
  21763290.520    21763285.840                   114366931.8140   89117106.2760

  21805140.020    21805135.220                   114586893.8250   89288548.1170

  24737198.260    24737195.900    24737200.520   129994988.6760  101294853.1740
  97074265.7440
  20343191.600    20343186.620                   106904289.7140   83302068.8210

  23128943.020    23128938.340                   121543475.5050   94709222.9160

  22671910.160    22671903.920                   119141763.9150   92837744.0590

  22599336.740    22599333.140    22599337.800   118760346.9290   92540535.9510
  88684694.5680
  20453999.540    20453996.720    20453997.900   107486563.7030   83755774.0200
  80265981.6430
 22  6 17  2 10 30.0000000  0 10G10G12G13G14G15G17G19G23G24G25
  24015518.880    24015517.700    24015515.860   126202422.8990   98339552.1880
  94242067.5600
  21746654.420    21746649.880                   114279509.0590   89048984.6930

  21820211.300    21820206.500                   114666093.6810   89350262.2950

  24756875.800    24756873.840    24756878.220   130098395.6900  101375430.0500
  97151485.2180
  20350583.820    20350578.980                   106943136.4990   83332339.0350

  23131177.900    23131173.300                   121555219.8130   94718374.3290

  22662835.760    22662829.640                   119094077.5950   92800585.9430

  22601727.740    22601724.080    22601728.680   118772911.0150   92550326.1250
  88694076.8180
  20447661.940    20447659.240    20447660.480   107453259.8840   83729823.0170
  80241111.9390
  25221383.200    25221384.680    25221387.320   132539259.2261  103277355.6201
  98974138.5631
 22  6 17  2 11  0.0000000  0 10G10G12G13G14G15G17G19G23G24G25
  24006575.920    24006574.740    24006573.100   126155428.9530   98302933.5830
  94206974.7550
  21730087.020    21730082.420                   114192446.8950   88981144.0920

  21835342.400    21835337.860                   114745609.7250   89412222.8210

  24776563.760    24776561.680    24776565.780   130201855.6120  101456048.1480
  97228744.2370
  20358074.280    20358069.540                   106982499.1080   83363011.1940

  23133512.800    23133508.300                   121567490.2650   94727935.7320

  22653854.880    22653848.700                   119046882.3470   92763810.4700

  22604227.000    22604223.380    22604227.920   118786044.7830   92560560.2120
  88703884.4900
  20441377.840    20441375.320    20441376.520   107420237.6430   83704091.4250
  80216452.5110
  25199774.860    25199776.420    25199779.120   132425703.5060  103188870.6230
  98889340.4310
 22  6 17  2 11 30.0000000  0 10G10G12G13G14G15G17G19G23G24G25
  23997733.060    23997732.160    23997730.820   126108960.8690   98266724.7270
  94172274.5970
  21713591.480    21713586.940                   114105762.4680   88913597.8300

  21850536.640    21850532.180                   114825456.6490   89474441.1750

  24796264.420    24796261.800    24796266.900   130305381.8100  101536717.9030
  97306052.6830
  20365665.760    20365660.980                   107022392.4030   83394096.8680

  23135950.920    23135946.200                   121580302.5100   94737919.3100

  22644970.580    22644964.360                   119000195.6580   92727431.2790

  22606837.400    22606833.600    22606838.280   118799762.5800   92571249.3940
  88714128.2700
  20435150.460    20435148.000    20435149.060   107387512.7090   83678591.4950
  80192015.0790
  25178179.960    25178181.920    25178184.800   132312221.4060  103100442.9230
  98804597.2050
 22  6 17  2 12  0.0000000  0 10G10G12G13G14G15G17G19G23G24G25
  23988990.200    23988988.900    23988987.780   126063015.1950   98230922.9250
  94137964.5460
  21697167.120    21697162.520                   114019452.5280   88846343.3730

  21865792.840    21865788.180                   114905628.3000   89536912.5740

  24815976.360    24815973.340    24815979.440   130408967.4930  101617433.9910
  97383405.5440
  20373357.140    20373352.320                   107062811.1220   83425591.9620

  23138491.000    23138486.240                   121593650.9300   94748320.6760

  22636182.660    22636176.420                   118954015.0550   92691446.4290

  22609557.740    22609554.220    22609558.860   118814058.5680   92582389.1040
  88724803.8240
  20428978.900    20428976.360    20428977.420   107355080.7530   83653319.8570
  80167796.4210
  25156597.980    25156600.320    25156603.360   132198809.9710  103012070.2780
  98719906.7380
 22  6 17  2 12 30.0000000  0 10G10G12G13G14G15G17G19G23G24G25
  23980346.220    23980345.000    23980343.840   126017592.3660   98195528.5740
  94104044.9650
  21680814.220    21680809.660                   113933518.0210   88779381.4780

  21881110.440    21881105.720                   114986122.3850   89599635.2190

  24835699.180    24835696.640    24835701.400   130512609.6800  101698194.0920
  97460800.6780
  20381148.100    20381143.360                   107103753.2900   83457494.9450

  23141133.120    23141128.500                   121607535.2310   94759139.6220

  22627491.380    22627485.160                   118908341.9290   92655857.0180

  22612387.800    22612384.320    22612389.000   118828930.7520   92593977.8130
  88735909.6660
  20422862.860    20422860.360    20422861.460   107322941.1210   83628276.0150
  80143796.0820
  25135029.940    25135032.460    25135035.300   132085470.2040  102923753.5690
  98635269.8660
 22  6 17  2 13  0.0000000  0 10G10G12G13G14G15G17G19G23G24G25
  23971802.820    23971801.440    23971800.340   125972696.4770   98160544.7980
  94070518.8660
  21664533.840    21664529.260                   113847963.8280   88712715.9040

  21896489.760    21896485.040                   115066940.7760   89662610.5500

  24855432.300    24855430.320    24855434.060   130616309.2020  101778998.8490
  97538238.5680
  20389039.220    20389034.420                   107145220.7380   83489807.2390

  23143877.540    23143873.080                   121621957.2050   94770377.5300

  22618897.640    22618891.320                   118863181.4390   92620667.0650

  22615327.860    22615324.420    22615329.120   118844380.7820   92606016.7730
  88747446.9980
  20416803.140    20416800.600    20416801.620   107291097.0040   83603462.4240
  80120016.3960
  25113476.520    25113479.320    25113481.360   131972205.9760  102835495.7020
  98550689.4160
 22  6 17  2 13 30.0000000  0 10G10G12G13G14G15G17G19G23G24G25
  23963358.740    23963357.220    23963355.900   125928320.9080   98125966.4960
  94037381.3340
  21648324.560    21648319.900                   113762783.0670   88646341.3240

  21911929.100    21911924.300                   115148074.2100   89725831.3720

  24875174.420    24875171.940    24875176.680   130720056.0020  101859840.4160
  97615711.7230
  20397028.500    20397023.720                   107187204.5690   83522521.9060

  23146722.760    23146718.280                   121636909.0400   94782028.3270

  22610400.200    22610393.840                   118818527.9130   92585872.1470

  22618376.060    22618372.700    22618377.280   118860399.5410   92618498.9060
  88759409.0490
  20410798.140    20410795.660    20410796.700   107259540.7950   83578873.1880
  80096451.7220
  25091936.620    25091939.260    25091940.980   131859011.2640  102747291.9440
  98466160.8420
 22  6 17  2 14  0.0000000  0 10G10G12G13G14G15G17G19G23G24G25
  23955014.900    23955013.440    23955012.380   125884474.3110   98091800.3620
  94004638.7950
  21632188.100    21632183.360                   113677985.0030   88580264.9490

  21927429.620    21927424.680                   115229528.8670   89789302.5070

  24894927.380    24894924.260    24894929.420   130823855.4700  101940723.0820
  97693224.2640
  20405117.080    20405112.480                   107229711.1980   83555643.9400

  23149670.160    23149665.700                   121652397.9970   94794097.6520

  22602001.000    22601994.760                   118774390.3990   92551479.3060

  22621533.860    22621530.120    22621534.900   118876993.2140   92631429.0230
  88771800.4170
  20404849.480    20404846.880    20404848.140   107228280.2310   83554514.3270
  80073107.8160
  25070411.400    25070413.860    25070416.060   131745895.1230  102659149.5930
  98381691.1040
 22  6 17  2 14 30.0000000  0 10G10G12G13G14G15G17G19G23G24G25
  23946771.020    23946769.380    23946768.320   125841152.1540   98058042.8980
  93972287.9110
  21616123.320    21616118.640                   113593564.8600   88514483.0790

  21942989.840    21942984.920                   115311297.7580   89853018.5050

  24914688.400    24914685.340    24914689.960   130927699.7840  102021640.6890
  97770770.3290
  20413304.060    20413299.480                   107272734.2020   83589168.3610

  23152718.780    23152714.100                   121668418.0830   94806580.8630

  22593699.540    22593693.480                   118730766.0090   92517486.3170

  22624799.500    22624795.760    22624800.640   118894154.8470   92644801.7250
  88784615.9090
  20398956.000    20398953.380    20398954.660   107197309.8980   83530381.6250
  80049980.6420
  25048900.100    25048902.180    25048905.100   131632853.2400  102571065.0560
  98297276.7350
 22  6 17  2 15  0.0000000  0 10G10G12G13G14G15G17G19G23G24G25
  23938628.240    23938626.560    23938625.680   125798361.9050   98024699.8860
  93940334.1900
  21600132.140    21600127.380                   113509530.9780   88449002.1670

  21958610.500    21958605.760                   115393385.6550   89916983.0700

  24934458.520    24934455.960    24934459.800   131031593.2700  102102596.6070
  97848353.0720
  20421590.380    20421585.740                   107316278.6110   83623099.0680

  23155869.520    23155864.720                   121684974.9360   94819482.3070

  22585497.320    22585491.220                   118687662.5610   92483899.2450

  22628174.340    22628170.660    22628175.240   118911889.3690   92658620.8260
  88797859.2180
  20393118.920    20393116.380    20393117.620   107166636.3660   83506480.1900
  80027075.0950
  25027404.160    25027406.360    25027409.720   131519893.4390  102483044.4910
  98212923.7210
 22  6 17  2 15 30.0000000  0 10G10G12G13G14G15G17G19G23G24G25
  23930585.800    23930584.900    23930583.860   125756102.1030   97991770.1940
  93908776.5670
  21584214.180    21584209.480                   113425881.5100   88383820.7940

  21974291.140    21974286.520                   115475789.0100   89981193.4520

  24954237.580    24954234.120    24954238.860   131135531.1430  102183587.1340
  97925968.9750
  20429975.080    20429970.440                   107360340.6570   83657433.1230

  23159121.720    23159116.920                   121702065.4700   94832799.6100

  22577393.940    22577387.740                   118645079.7440   92450717.8610

  22631657.500    22631653.900    22631658.520   118930192.8920   92672883.2920
  88811527.4110
  20387338.000    20387335.460    20387336.660   107136257.2950   83482808.1950
  80004389.4380
  25005924.380    25005926.300    25005929.500   131407014.9040  102395087.2950
  98128631.4240
 22  6 17  2 16  0.0000000  0 10G10G12G13G14G15G17G19G23G24G25
  23922646.460    23922645.180    23922644.100   125714378.9480   97959258.6980
  93877619.7260
  21568370.840    21568366.080                   113342624.3860   88318945.1520

  21990032.520    21990027.960                   115558511.1670   90045652.2500

  24974025.300    24974021.560    24974027.260   131239516.5570  102264614.7080
  98003620.3840
  20438459.060    20438454.460                   107404924.6330   83692173.8730

  23162476.420    23162471.700                   121719694.5610   94846536.5770

  22569391.100    22569384.920                   118603024.8570   92417947.8610

  22635249.620    22635245.900    22635250.680   118949069.1790   92687592.0920
  88825623.3400
  20381614.080    20381611.580    20381612.780   107106178.0810   83459369.8650
  79981927.7180
  24984461.260    24984463.020    24984465.400   131294223.9120  102307198.2750
  98044404.4540
 22  6 17  2 16 30.0000000  0 10G10G12G13G14G15G17G19G23G24G25
  23914806.560    23914805.140    23914804.220   125673179.9660   97927155.6590
  93846854.3390
  21552599.780    21552594.920                   113259746.8670   88254365.2980

  22005831.940    22005827.420                   115641537.5190   90110348.0930

  24993818.800    24993815.660    24993821.620   131343533.8310  102345667.0630
  98081295.5320
  20447039.620    20447035.040                   107450015.8640   83727309.8950

  23165930.880    23165926.440                   121737848.8090   94860682.7540

  22561486.600    22561480.320                   118561486.0510   92385579.9910

  22638947.820    22638944.100    22638948.920   118968503.2090   92702735.5020
  88840135.7730
  20375944.700    20375942.260    20375943.380   107076385.3930   83436154.7940
  79959679.9410
  24963012.480    24963014.260    24963015.820   131181508.5070  102219368.1270
  97960233.9390
 22  6 17  2 17  0.0000000  0 10G10G12G13G14G15G17G19G23G24G25
  23907069.160    23907068.080    23907066.840   125632520.3040   97895472.8540
  93816491.6670
  21536903.940    21536898.980                   113177264.2190   88190093.1410

  22021691.740    22021687.180                   115724881.0410   90175291.0830

  25013621.120    25013618.360    25013623.520   131447594.9210  102426753.5960
  98159003.4280
  20455719.180    20455714.580                   107495627.2490   83762851.2220

  23169487.940    23169483.340                   121756540.7470   94875247.9210

  22553683.360    22553676.820                   118520479.0830   92353626.5300

  22642754.460    22642750.520    22642755.580   118988507.6760   92718323.3880
  88855074.1600
  20370332.500    20370330.240    20370331.300   107046893.5720   83413174.1640
  79937656.8370
  24941580.380    24941582.620    24941583.860   131068884.5210  102131609.2220
  97876131.6530
 22  6 17  2 17 30.0000000  0 10G10G12G13G14G15G17G19G23G24G25
  23899433.820    23899432.500    23899431.280   125592395.9030   97864207.1590
  93786528.6990
  21521282.600    21521277.660                   113095173.4150   88126126.3310

  22037610.580    22037606.020                   115808534.9130   90240475.9060

  25033430.200    25033427.460    25033432.220   131551692.7670  102507868.7450
  98236738.7660
  20464496.460    20464491.940                   107541752.2820   83798792.7940

  23173146.140    23173141.380                   121775765.2850   94890228.0950

  22545980.720    22545974.180                   118480001.4600   92322085.5670

  22646668.440    22646664.600    22646669.540   119009076.0300   92734350.6790
  88870433.6460
  20364776.680    20364774.520    20364775.580   107017697.8170   83390424.2370
  79915854.8180
  24920164.900    24920167.400    24920168.660   130956348.1380  102043918.6210
  97792094.8210
 22  6 17  2 18  0.0000000  0 10G10G12G13G14G15G17G19G23G24G25
  23891900.500    23891899.000    23891897.840   125552808.2870   97833359.7110
  93756966.5940
  21505735.860    21505730.980                   113013475.7860   88062465.8910

  22053588.380    22053583.700                   115892498.2460   90305901.8630

  25053245.660    25053243.220    25053248.080   131655825.7720  102589011.2550
  98314500.3450
  20473371.460    20473366.920                   107588390.7200   83835134.4230

  23176905.740    23176900.780                   121795522.2980   94905623.1940

  22538379.040    22538372.780                   118440055.4840   92290958.8590

  22650689.620    22650685.860    22650690.640   119030207.2580   92750816.5690
  88886213.4670
  20359277.400    20359275.240    20359276.280   106988798.8450   83367905.5640
  79894274.4410
  24898767.100    24898769.800    24898770.920   130843901.6460  101956298.1250
  97708125.1870
 22  6 17  2 18 30.0000000  0 10G10G12G13G14G15G17G19G23G24G25
  23884469.500    23884468.220    23884466.560   125513758.4070   97802931.2840
  93727806.0230
  21490264.180    21490259.360                   112932172.5020   87999112.7240

  22069624.640    22069620.120                   115976769.6370   90371567.8600

  25073068.320    25073065.540    25073070.520   131759991.8340  102670179.5670
  98392286.6150
  20482344.000    20482339.340                   107635541.4330   83871875.2310

  23180766.600    23180761.740                   121815811.6140   94921433.0680

  22530879.120    22530872.940                   118400643.0280   92260247.9010

  22654817.600    22654813.800    22654818.580   119051899.8730   92767719.8950
  88902412.4810
  20353834.600    20353832.500    20353833.520   106960196.9770   83345618.4080
  79872915.9030
  24877386.780    24877389.360    24877390.840   130731546.4860  101868748.8110
  97624223.8060
 22  6 17  2 19  0.0000000  0 10G10G12G13G14G15G17G19G23G24G25
  23877141.260    23877139.740    23877138.240   125475247.5600   97772922.8900
  93699047.9960
  21474868.020    21474863.300                   112851265.9580   87936068.6980

  22085719.320    22085714.920                   116061348.1530   90437473.1810

  25092896.600    25092894.360    25092898.400   131864189.4920  102751372.5090
  98470096.5510
  20491413.780    20491409.120                   107683203.1490   83909014.2270

  23184728.800    23184723.820                   121836632.6640   94937657.2740

  22523481.200    22523474.800                   118361765.9810   92229954.1350

  22659052.260    22659048.520    22659053.100   119074152.6860   92785059.7580
  88919029.8530
  20348448.600    20348446.300    20348447.380   106931892.7280   83323563.1550
  79851779.6210
  24856023.840    24856026.360    24856028.160   130619284.4270  101781272.0520
  97540391.9440
 22  6 17  2 19 30.0000000  0 10G10G12G13G14G15G17G19G23G24G25
  23869915.140    23869913.660    23869912.500   125437275.7980   97743334.5510
  93670692.5240
  21459547.660    21459542.940                   112770756.7940   87873334.3150

  22101872.220    22101867.740                   116146231.4830   90503616.0040

  25112730.560    25112728.060    25112731.660   131968415.5350  102832587.5930
  98547927.7300
  20500580.300    20500575.700                   107731373.8730   83946549.8390

  23188791.680    23188786.840                   121857983.5890   94954294.3430

  22516185.080    22516178.740                   118323425.3320   92200078.3150

  22663392.940    22663389.400    22663393.800   119096963.1740   92802834.1470
  88936063.6530
  20343119.100    20343116.600    20343117.680   106903885.4170   83301739.2770
  79830865.0830
  24834678.600    24834680.900    24834683.260   130507116.0760  101693868.3780
  97456630.1870
 22  6 17  2 20  0.0000000  0 10G10G12G13G14G15G17G19G23G24G25
  23862792.100    23862790.700    23862789.420   125399843.8500   97714166.8660
  93642740.1600
  21444303.120    21444298.280                   112690645.4730   87810909.9550

  22118082.720    22118078.180                   116231417.9410   90569995.0480

  25132569.360    25132565.940    25132570.400   132072667.9320  102913823.2470
  98625778.5480
  20509843.440    20509838.880                   107780052.2500   83984481.0330

  23192955.140    23192950.620                   121879863.9940   94971344.0330

  22508991.640    22508985.160                   118285623.1130   92170622.0730

  22667839.420    22667835.880    22667840.460   119120329.6580   92821041.8050
  88953512.6620
  20337846.100    20337843.440    20337844.520   106876175.2130   83280146.9250
  79810172.4080
  24813351.420    24813353.680    24813355.980   130395042.6890  101606538.6620
  97372939.2760
 22  6 17  2 20 30.0000000  0 10G10G12G13G14G15G17G19G23G24G25
  23855772.540    23855771.080    23855769.640   125362955.1690   97685422.4950
  93615193.4920
  21429135.000    21429129.940                   112610935.6600   87748798.4470

  22134351.040    22134346.540                   116316908.5790   90636611.0970

  25152413.060    25152409.280    25152414.300   132176947.1950  102995079.8300
  98703649.4060
  20519203.540    20519198.980                   107829239.5810   84022808.8120

  23197219.940    23197215.560                   121902276.0160   94988807.9630

  22501901.460    22501894.900                   118248363.6950   92141588.7910

  22672391.860    22672388.180    22672393.020   119144253.0490   92839683.4110
  88971377.5340
  20332630.140    20332627.380    20332628.500   106848764.8430   83258788.1970
  79789703.6250
  24792043.440    24792045.700    24792047.700   130283068.2280  101519286.0360
  97289322.2350
 22  6 17  2 21  0.0000000  0 10G10G12G13G14G15G17G19G23G24G25
  23848856.140    23848854.740    23848853.560   125326610.8660   97657102.2950
  93588053.3010
  21414043.700    21414038.520                   112531629.7570   87687001.6680

  22150677.180    22150672.540                   116402702.1880   90703463.2310

  25172261.460    25172257.760    25172263.060   132281251.5380  103076355.8880
  98781538.9050
  20528660.260    20528655.680                   107878934.6020   84061532.1840

  23201585.720    23201581.440                   121925218.9430   95006685.5610

  22494914.580    22494908.360                   118211648.7990   92112979.8140

  22677049.960    22677046.260    22677051.060   119168731.8760   92858757.8260
  88989657.1900
  20327471.180    20327468.540    20327469.620   106821654.7960   83237663.4860
  79769459.1170
  24770754.600    24770756.960    24770758.660   130171194.6470  101432112.0710
  97205780.5740
 22  6 17  2 21 30.0000000  0 10G10G12G13G14G15G17G19G23G24G25
  23842043.980    23842042.520    23842041.320   125290812.2080   97629207.2890
  93561320.5940
  21399029.420    21399024.320                   112452729.5280   87625521.0050

  22167060.700    22167055.900                   116488797.9510   90770550.8100

  25192114.280    25192110.640    25192116.280   132385579.3500  103157650.2500
  98859445.9790
  20538213.340    20538208.900                   107929136.6810   84100650.6790

  23206052.660    23206048.120                   121948692.6400   95024976.7650

  22488032.000    22488025.820                   118175480.7680   92084796.9650

  22681813.420    22681809.960    22681814.620   119193764.9580   92878264.1190
  89008350.7230
  20322369.560    20322366.980    20322368.040   106794845.7730   83216773.3530
  79749439.4070
  24749485.000    24749487.660    24749489.000   130059423.7500  101345018.1970
  97122315.7090
 22  6 17  2 22  0.0000000  0 10G10G12G13G14G15G17G19G23G24G25
  23835335.040    23835333.420    23835332.060   125255556.3910   97601735.2600
  93534993.2470
  21384091.860    21384086.680                   112374232.2300   87564354.2940

  22183500.560    22183495.780                   116575190.4950   90837869.6370

  25211970.660    25211967.480    25211972.860   132489925.0680  103238958.5080
  98937366.4260
  20547862.060    20547857.620                   107979840.9710   84140160.5010

  23210619.820    23210614.980                   121972692.5820   95043678.0240

  22481253.280    22481246.840                   118139857.8520   92057038.8690

  22686681.380    22686678.020    22686682.560   119219347.0540   92898198.2010
  89027454.2130
  20317324.580    20317321.940    20317323.120   106768334.4100   83196115.1650
  79729641.9830
  24728234.740    24728237.240    24728238.120   129947753.5160  101258002.7910
  97038926.0040
 22  6 17  2 22 30.0000000  0 10G10G12G13G14G15G17G19G23G24G25
  23828730.100    23828728.580    23828727.380   125220848.3060   97574690.0220
  93509074.9090
  21369231.980    21369226.920                   112296143.5700   87503506.0160

  22199997.380    22199992.860                   116661882.4790   90905421.7970

  25231830.600    25231827.380    25231833.260   132594290.7030  103320282.2590
  99015301.6140
  20557606.880    20557602.320                   108031049.9960   84180063.6230

  23215287.720    23215282.740                   121997222.5860   95062792.3230

  22474579.520    22474572.680                   118104785.9190   92029710.1130

  22691654.520    22691650.820    22691655.340   119245480.4420   92918561.8910
  89046969.3970
  20312336.960    20312334.440    20312335.660   106742124.9210   83175692.2050
  79710069.9830
  24707004.640    24707006.480    24707007.500   129836189.3790  101171070.0430
  96955615.5400
 22  6 17  2 23  0.0000000  0 10G10G12G13G14G15G17G19G23G24G25
  23822229.040    23822226.960    23822225.960   125186683.6120   97548068.2110
  93483562.3490
  21354449.040    21354444.080                   112218459.1870   87442972.7650

  22216550.140    22216545.660                   116748867.5360   90973202.3490

  25251693.120    25251689.700    25251696.280   132698669.4860  103401616.3120
  99093246.7540
  20567446.460    20567441.940                   108082757.4610   84220355.1400

  23220055.080    23220050.500                   122022276.2380   95082314.6520

  22468009.620    22468003.060                   118070261.6280   92002808.0990

  22696731.200    22696727.460    22696732.060   119272158.3290   92939349.8400
  89066891.1700
  20307405.980    20307403.560    20307404.760   106716212.6510   83155500.8340
  79690719.9210
  24685794.120    24685795.360    24685796.600   129724727.5990  101084216.9960
  96872381.4210
 22  6 17  2 23 30.0000000  0 10G10G12G13G14G15G17G19G23G24G25
  23815833.020    23815830.860    23815830.000   125153071.7480   97521877.1830
  93458462.6150
  21339744.940    21339740.120                   112141189.4560   87382762.6200

  22233160.020    22233155.560                   116836152.6820   91041216.7320

  25271559.460    25271556.440    25271562.920   132803068.0130  103482965.7780
  99171206.6480
  20577382.300    20577377.820                   108134970.7370   84261040.8040

  23224923.800    23224919.440                   122047861.5550   95102251.2850

  22461545.640    22461539.540                   118036294.9160   91976340.5610

  22701912.800    22701909.020    22701913.960   119299387.5710   92960567.4250
  89087224.7010
  20302533.200    20302530.820    20302532.040   106690606.3690   83135547.9010
  79671598.3610
  24664604.680    24664605.900    24664607.580   129613378.4130  100997451.7330
  96789231.4440
 22  6 17  2 24  0.0000000  0 10G10G12G13G14G15G17G19G23G24G25
  23809540.940    23809538.980    23809537.800   125120007.2620   97496112.6750
  93433771.6380
  21325118.920    21325114.160                   112064329.5910   87322871.8450

  22249825.440    22249821.020                   116923730.0340   91109458.7940

  25291427.760    25291425.420    25291431.300   132907477.7900  103564323.9700
  99249174.9570
  20587412.960    20587408.380                   108187681.7300   84302114.2900

  23229892.320    23229888.060                   122073971.3620   95122596.5870

  22455187.360    22455180.960                   118002881.2060   91950303.9150

  22707197.800    22707194.140    22707198.980   119327160.0740   92982208.3120
  89107963.8700
  20297717.600    20297715.140    20297716.340   106665299.9310   83115828.6070
  79652700.7020
  24643435.500    24643437.120    24643439.120   129502136.8060  100910770.2480
  96706161.7730
 22  6 17  2 24 30.0000000  0 10G10G12G13G14G15G17G19G23G24G25
  23803353.540    23803351.200    23803350.200   125087491.0390   97470775.3930
  93409490.0810
  21310571.340    21310566.380                   111987880.9610   87263301.5000

  22266546.320    22266541.900                   117011598.7620   91177927.9020

  25311298.120    25311296.120    25311301.700   133011897.5230  103645689.9920
  99327150.7100
  20597538.100    20597533.420                   108240889.4870   84343574.8740

  23234960.720    23234956.460                   122100605.5390   95143350.4830

  22448934.800    22448928.080                   117970023.1400   91924700.2560

  22712585.960    22712582.360    22712587.060   119355474.6150   93004271.5860
  89129107.8340
  20292959.260    20292956.680    20292957.840   106640294.2230   83096343.6480
  79634027.6200
  24622287.460    24622289.500    24622291.120   129391005.0050  100824174.3510
  96623174.0660
 22  6 17  2 25  0.0000000  0 10G10G12G13G14G15G17G19G23G24G25
  23797271.280    23797268.920    23797268.160   125055529.0040   97445869.9240
  93385622.3470
  21296103.220    21296098.080                   111911849.6710   87204056.3630

  22283323.340    22283318.900                   117099762.2560   91246626.6890

  25331171.120    25331168.940    25331174.200   133116330.4280  103727066.2900
  99405136.3910
  20607758.440    20607753.780                   108294598.0330   84385425.6750

  23240129.540    23240125.240                   122127767.9430   95164515.9800

  22442788.820    22442782.160                   117937726.4520   91899534.0260

  22718077.720    22718074.180    22718078.900   119384334.4290   93026759.7390
  89150658.9960
  20288259.040    20288256.420    20288257.560   106615594.5530   83077097.1610
  79615583.0750
  24601161.740    24601163.720    24601165.060   129279989.4620  100737669.0330
  96540273.2120
 22  6 17  2 25 30.0000000  0 10G10G12G13G14G15G17G19G23G24G25
  23791293.360    23791291.460    23791290.660   125024116.7150   97421392.8210
  93362165.1020
  21281713.700    21281708.420                   111836231.8120   87145133.3770

  22300155.200    22300150.680                   117188214.0490   91315550.1110

  25351045.460    25351042.400    25351048.120   133220769.2840  103808447.2490
  99483126.4360
  20618072.800    20618068.260                   108348800.7840   84427661.5680

  23245397.760    23245393.360                   122155452.9800   95186088.7410

  22436749.180    22436742.660                   117905988.2390   91874802.9650

  22723671.780    22723668.440    22723673.080   119413732.5550   93049667.3470
  89172612.1190
  20283616.340    20283613.500    20283614.580   106591195.9670   83058085.2760
  79597363.3540
  24580057.360    24580059.180    24580060.240   129169086.4650  100651251.4170
  96457456.4000
 22  6 17  2 26  0.0000000  0 10G10G12G13G14G15G17G19G23G24G25
  23785420.680    23785418.920    23785418.120   124993255.9010   97397345.4260
  93339119.6930
  21267403.140    21267397.880                   111761029.5060   87086534.2130

  22317041.880    22317037.200                   117276953.4760   91384697.6900

  25370920.660    25370917.460    25370923.400   133325213.3840  103889832.2420
  99561120.3480
  20628481.140    20628476.720                   108403497.2430   84470282.1830

  23250765.520    23250760.860                   122183660.7520   95208068.8310

  22430816.380    22430809.820                   117874811.2780   91850509.2520

  22729368.440    22729364.980    22729369.760   119443668.1070   93072993.7450
  89194966.5730
  20279031.100    20279028.280    20279029.300   106567099.8560   83039309.0960
  79579369.5080
  24558974.840    24558976.700    24558977.440   129058298.4520  100564923.3320
  96374725.3760
 22  6 17  2 26 30.0000000  0 10G10G12G13G14G15G17G19G23G24G25
  23779654.020    23779652.280    23779651.620   124962952.9550   97373732.7430
  93316490.8770
  21253173.180    21253167.880                   111686250.7770   87028265.0980

  22333983.920    22333979.480                   117365984.8670   91454072.7710

  25390797.400    25390794.180    25390800.160   133429666.7180  103971224.4280
  99639121.1730
  20638984.340    20638979.900                   108458691.7740   84513290.8980

  23256233.760    23256228.940                   122212395.8040   95230459.7800

  22424991.780    22424985.040                   117844202.7120   91826658.4310

  22735168.260    22735164.580    22735169.400   119474145.0580   93096742.0040
  89217725.3160
  20274504.460    20274501.660    20274502.780   106543312.2120   83020773.2780
  79561606.0200
  24537915.680    24537917.400    24537918.240   128947632.7620  100478690.4730
  96292085.6250
 22  6 17  2 27  0.0000000  0 10G10G12G13G14G15G17G19G23G24G25
  23773992.280    23773990.540    23773989.860   124933199.6530   97350548.3460
  93294272.4870
  21239022.160    21239016.980                   111611887.4640   86970319.6920

  22350979.480    22350975.180                   117455297.7480   91523667.1840

  25410673.980    25410670.620    25410676.440   133534118.4430  104052615.3680
  99717120.8010
  20649580.280    20649575.860                   108514373.9010   84556679.5690

  23261800.600    23261795.720                   122241648.5320   95253254.1160

  22419273.740    22419267.060                   117814154.8390   91803244.5370

  22741068.860    22741065.260    22741070.020   119505152.6390   93120903.7410
  89240880.2980
  20270034.760    20270032.100    20270033.260   106519824.4690   83002471.1490
  79544066.4730
  24516878.500    24516880.160    24516880.940   128837081.9850  100392547.1470
  96209531.5960
 22  6 17  2 27 30.0000000  0 10G10G12G13G14G15G17G19G23G24G25
  23768436.040    23768434.240    23768433.220   124904001.0760   97327796.2080
  93272468.3670
  21224951.220    21224946.160                   111537944.5980   86912701.9050

  22368029.460    22368025.020                   117544895.1670   91593483.3270

  25430550.660    25430547.560    25430553.160   133638571.2570  104134007.1120
  99795121.2710
  20660269.520    20660265.160                   108570546.9140   84600450.7280

  23267466.640    23267461.660                   122271422.8870   95276454.9060

  22413663.760    22413657.200                   117784674.2400   91780272.6600

  22747070.700    22747067.400    22747071.940   119536693.4770   93145480.9980
  89264433.5020
  20265622.900    20265620.560    20265621.640   106496641.4650   82984406.4640
  79526754.4920
  24495864.560    24495865.740    24495866.760   128726652.2570  100306498.1130
  96127067.9990
 22  6 17  2 28  0.0000000  0 10G10G12G13G14G15G17G19G23G24G25
  23762985.440    23762983.740    23762982.760   124875357.8250   97305476.7680
  93251078.9020
  21210960.660    21210955.660                   111464424.0480   86855413.1910

  22385133.300    22385128.760                   117634775.4940   91663519.9060

  25450427.320    25450424.440    25450429.840   133743023.2140  104215398.2590
  99873121.1220
  20671052.000    20671047.580                   108627209.0000   84644602.9940

  23273231.280    23273226.660                   122301717.6960   95300061.2450

  22408161.920    22408155.440                   117755762.2990   91757743.8970

  22753173.740    22753170.480    22753174.780   119568765.6030   93170472.2440
  89288383.4560
  20261269.240    20261266.960    20261268.040   106473763.3890   82966579.3960
  79509670.2150
  24474873.820    24474874.600    24474876.060   128616344.8430  100220544.3760
  96044695.6940
 22  6 17  2 28 30.0000000  0 10G10G12G13G14G15G17G19G23G24G25
  23757641.500    23757639.460    23757638.780   124847274.1980   97283593.3960
  93230107.3330
  21197051.560    21197046.520                   111391330.8880   86798457.5100

  22402291.340    22402286.780                   117724941.2480   91733778.9230

  25470303.760    25470300.900    25470307.000   133847476.2720  104296790.2540
  99951121.7730
  20681927.980    20681923.660                   108684362.6770   84689138.3140

  23279095.580    23279091.280                   122332535.7340   95324075.2980

  22402769.300    22402762.880                   117727424.3570   91735662.3990

  22759378.460    22759374.760    22759379.220   119601370.8460   93195878.9140
  89312731.5120
  20256974.520    20256972.160    20256973.280   106451194.3180   82948993.1070
  79492816.6850
  24453907.140    24453908.040    24453909.740   128506165.0680  100134690.0840
  95962418.6660
 22  6 17  2 29  0.0000000  0 10G10G12G13G14G15G17G19G23G24G25
  23752402.260    23752400.140    23752399.460   124819740.6840   97262138.7060
  93209546.5650
  21183221.920    21183216.880                   111318655.7360   86741827.5510

  22419501.360    22419496.860                   117815380.7650   91804251.2660

  25490178.560    25490176.260    25490182.080   133951918.7510  104378173.9610
 100029114.4550
  20692895.220    20692891.000                   108741995.9910   84734047.3820

  23285057.580    23285053.160                   122363865.8350   95348488.3700

  22397484.480    22397477.760                   117699651.4000   91714021.1370

  22765682.300    22765678.360    22765683.160   119634497.2050   93221691.6530
  89337468.6980
  20252736.620    20252734.380    20252735.480   106428924.4580   82931639.9880
  79476186.6110
  24432963.260    24432964.260    24432966.220   128396104.3350  100048928.5370
  95880230.5030
 22  6 17  2 29 30.0000000  0 10G10G12G13G14G15G17G19G23G24G25
  23747269.280    23747267.180    23747266.520   124792767.4800   97241120.5960
  93189404.2260
  21169473.920    21169468.980                   111246409.7740   86685532.0280

  22436765.000    22436760.560                   117906102.0480   91874943.1620

  25510052.720    25510050.320    25510056.220   134056358.5130  104459555.5130
 100107105.1380
  20703955.520    20703951.200                   108800117.7680   84779337.0580

  23291118.760    23291114.140                   122395716.9230   95373307.3830

  22392309.140    22392302.320                   117672454.6520   91692828.8830

  22772086.660    22772082.840    22772087.740   119668152.3440   93247916.4150
  89362600.7590
  20248557.640    20248555.400    20248556.480   106406963.8250   82914527.8040
  79459787.4400
  24412044.200    24412045.440    24412047.360   128286173.9170   99963268.5000
  95798139.6520
 22  6 17  2 30  0.0000000  0 10G10G12G13G14G15G17G19G23G24G25
  23742243.400    23742241.180    23742240.440   124766356.0000   97220540.1940
  93169681.3540
  21155808.020    21155802.980                   111174594.8010   86629572.3360

  22454082.120    22454077.680                   117997104.3770   91945854.0350

  25529926.580    25529923.940    25529929.320   134160794.8180  104540934.4920
 100185093.2420
  20715108.600    20715104.040                   108858726.4170   84825006.1250

  23297279.040    23297274.300                   122428089.1600   95398532.4870

  22387243.880    22387237.120                   117645836.9360   91672087.8130

  22778591.280    22778588.000    22778592.560   119702335.2070   93274552.3810
  89388126.8970
  20244437.740    20244435.420    20244436.560   106385313.5860   82897657.4900
  79443620.0660
  24391150.300    24391151.840    24391153.460   128176376.1000   99877711.7710
  95716147.8100
 22  6 17  2 30 30.0000000  0 10G10G12G13G14G15G17G19G23G24G25
  23737323.460    23737321.100    23737320.680   124740501.1160   97200393.5180
  93150374.1010
  21142223.300    21142218.180                   111103206.6730   86573945.2540

  22471451.380    22471447.100                   118088380.7800   92016978.4830

  25549798.580    25549795.560    25549800.260   134265220.1980  104622304.8850
 100263073.2410
  20726353.080    20726348.360                   108917815.6670   84871049.6890

  23303537.060    23303532.420                   122460975.1330   95424157.9200

  22382288.140    22382281.380                   117619793.8210   91651794.4960

  22785195.100    22785191.780    22785196.380   119737038.1160   93301593.6040
  89414041.4030
  20240375.900    20240373.600    20240374.720   106363968.4170   82881024.9030
  79427680.5000
  24370280.860    24370282.520    24370283.740   128066706.8390   99792255.2310
  95634251.9450
